State,County,Total Cases,New Cases,Total Deaths,New Deaths,Date,Latitude,Longitude
California,Alameda,71,0,0,0,3/22/2020,37.64629437,-121.8929271
California,Alpine,0,0,0,0,3/22/2020,38.59678594,-119.8223594
California,Amador,1,0,0,0,3/22/2020,38.44583082,-120.65696
California,Butte,1,0,0,0,3/22/2020,39.66727762,-121.6005252
California,Calaveras,2,0,0,0,3/22/2020,38.20537103,-120.552913
California,Colusa,0,0,0,0,3/22/2020,39.17881957,-122.2331726
California,Contra Costa,61,0,1,0,3/22/2020,37.91923498,-121.9289527
California,Del Norte,0,0,0,0,3/22/2020,41.74228275,-123.8974063
California,El Dorado,0,0,0,0,3/22/2020,38.77965956,-120.5233166
California,Fresno,6,0,0,0,3/22/2020,36.75733899,-119.6466953
California,Glenn,0,0,0,0,3/22/2020,39.59875897,-122.3938452
California,Humboldt,2,0,0,0,3/22/2020,40.69923009,-123.876044
California,Imperial,6,0,0,0,3/22/2020,33.0393082,-115.3669042
California,Inyo,0,0,0,0,3/22/2020,36.51112084,-117.4111978
California,Kern,5,0,0,0,3/22/2020,35.34329425,-118.7277796
California,Kings,0,0,0,0,3/22/2020,36.07409056,-119.8159973
California,Lake,0,0,0,0,3/22/2020,39.10124298,-122.7536244
California,Lassen,0,0,0,0,3/22/2020,40.67311306,-120.5935099
California,Los Angeles,407,0,5,0,3/22/2020,34.30828379,-118.2282411
California,Madera,3,0,0,0,3/22/2020,37.21513971,-119.7665589
California,Marin,38,0,0,0,3/22/2020,38.07122463,-122.7210631
California,Mariposa,0,0,0,0,3/22/2020,37.57978556,-119.9073334
California,Mendocino,1,0,0,0,3/22/2020,39.4381191,-123.3911313
California,Merced,0,0,0,0,3/22/2020,37.18922369,-120.7209035
California,Modoc,0,0,0,0,3/22/2020,41.58965602,-120.7244817
California,Mono,1,0,0,0,3/22/2020,37.93899289,-118.8872409
California,Monterey,11,0,1,0,3/22/2020,36.21862405,-121.2413397
California,Napa,1,0,0,0,3/22/2020,38.50735751,-122.332839
California,Nevada,1,0,0,0,3/22/2020,39.30394768,-120.7627281
California,Orange,95,0,0,0,3/22/2020,33.70147516,-117.7645998
California,Placer,12,0,1,0,3/22/2020,39.06167234,-120.7240569
California,Plumas,0,0,0,0,3/22/2020,40.00355989,-120.8395236
California,Riverside,29,0,6,0,3/22/2020,33.74314981,-115.9933578
California,Sacramento,53,0,3,0,3/22/2020,38.45106826,-121.3425374
California,San Benito,5,0,1,0,3/22/2020,36.60308176,-121.069975
California,San Bernardino,17,0,0,0,3/22/2020,34.84060306,-116.1774685
California,San Diego,155,0,0,0,3/22/2020,33.03484597,-116.7365326
California,San Joaquin,31,0,2,0,3/22/2020,37.93433732,-121.2730061
California,San Luis Obispo,27,0,0,0,3/22/2020,35.38822029,-120.4039028
California,San Mateo,117,0,1,0,3/22/2020,37.4228808,-122.3275546
California,Santa Barbara,13,0,0,0,3/22/2020,34.65329488,-120.0188492
California,Santa Clara,263,0,8,0,3/22/2020,37.23104908,-121.6970462
California,Santa Cruz,15,0,0,0,3/22/2020,37.05580291,-122.0066524
California,Shasta,1,0,0,0,3/22/2020,40.76391419,-122.0396884
California,Sierra,0,0,0,0,3/22/2020,39.57713498,-120.5200701
California,Siskiyou,2,0,0,0,3/22/2020,41.59198861,-122.5407434
California,Solano,13,0,0,0,3/22/2020,38.26827353,-121.9357113
California,Sonoma,22,0,1,0,3/22/2020,38.52746429,-122.8862506
California,Stanislaus,5,0,0,0,3/22/2020,37.55862499,-120.9970722
California,Sutter,0,0,0,0,3/22/2020,39.03417539,-121.6945899
California,Tehama,0,0,0,0,3/22/2020,40.12570935,-122.2370171
California,Trinity,0,0,0,0,3/22/2020,40.6491767,-123.114713
California,Tulare,12,0,0,0,3/22/2020,36.22026558,-118.8020203
California,Tuolumne,0,0,0,0,3/22/2020,38.02644018,-119.9525093
California,Ventura,25,0,0,0,3/22/2020,34.44465746,-119.0910613
California,Yolo,6,0,0,0,3/22/2020,38.68278902,-121.9018288
California,Yuba,2,0,0,0,3/22/2020,39.26255932,-121.3535644
Indiana,Adams,1,0,0,0,3/22/2020,40.7457653,-84.93671406
Indiana,Allen,4,0,0,0,3/22/2020,41.09194313,-85.06800636
Indiana,Bartholomew,5,0,0,0,3/22/2020,39.20744865,-85.89558181
Indiana,Benton,0,0,0,0,3/22/2020,40.60626947,-87.31093999
Indiana,Blackford,0,0,0,0,3/22/2020,40.47388153,-85.32499702
Indiana,Boone,3,0,0,0,3/22/2020,40.0509304,-86.46841646
Indiana,Brown,0,0,0,0,3/22/2020,39.19605589,-86.22868909
Indiana,Carroll,0,0,0,0,3/22/2020,40.5807832,-86.56198812
Indiana,Cass,0,0,0,0,3/22/2020,40.76135835,-86.34830753
Indiana,Clark,4,0,0,0,3/22/2020,38.48015445,-85.70510334
Indiana,Clay,0,0,0,0,3/22/2020,39.39561833,-87.11723506
Indiana,Clinton,0,0,0,0,3/22/2020,40.30319754,-86.47277257
Indiana,Crawford,0,0,0,0,3/22/2020,38.28814402,-86.44518825
Indiana,Daviess,0,0,0,0,3/22/2020,38.70186039,-87.07185406
Indiana,Dearborn,0,0,0,0,3/22/2020,39.14647946,-84.97333539
Indiana,Decatur,0,0,0,0,3/22/2020,39.30712658,-85.50087166
Indiana,DeKalb,0,0,0,0,3/22/2020,41.39804622,-84.99906934
Indiana,Delaware,2,0,1,0,3/22/2020,40.22787247,-85.39732772
Indiana,Dubois,1,0,0,0,3/22/2020,38.36597551,-86.8792417
Indiana,Elkhart,4,0,0,0,3/22/2020,41.59761169,-85.85875695
Indiana,Fayette,1,0,0,0,3/22/2020,39.63684962,-85.17797541
Indiana,Floyd,3,0,0,0,3/22/2020,38.32117957,-85.90385377
Indiana,Fountain,0,0,0,0,3/22/2020,40.12361933,-87.24217689
Indiana,Franklin,4,0,0,0,3/22/2020,39.4142482,-85.06062647
Indiana,Fulton,0,0,0,0,3/22/2020,41.0469907,-86.26252745
Indiana,Gibson,0,0,0,0,3/22/2020,38.30393723,-87.58054938
Indiana,Grant,2,0,0,0,3/22/2020,40.51587228,-85.65468702
Indiana,Greene,1,0,0,0,3/22/2020,39.03630547,-86.96223202
Indiana,Hamilton,18,0,0,0,3/22/2020,40.07306535,-86.05244729
Indiana,Hancock,2,0,0,0,3/22/2020,39.82304555,-85.77566351
Indiana,Harrison,0,0,0,0,3/22/2020,38.19467379,-86.10948271
Indiana,Hendricks,8,0,0,0,3/22/2020,39.76719009,-86.51037283
Indiana,Henry,0,0,0,0,3/22/2020,39.93029017,-85.39625719
Indiana,Howard,6,0,0,0,3/22/2020,40.48527731,-86.11351892
Indiana,Huntington,0,0,0,0,3/22/2020,40.82907273,-85.48822092
Indiana,Jackson,0,0,0,0,3/22/2020,38.9091582,-86.03851889
Indiana,Jasper,0,0,0,0,3/22/2020,41.02078733,-87.11553319
Indiana,Jay,0,0,0,0,3/22/2020,40.43781032,-85.00576229
Indiana,Jefferson,0,0,0,0,3/22/2020,38.78576239,-85.43633383
Indiana,Jennings,1,0,0,0,3/22/2020,38.99588883,-85.62710784
Indiana,Johnson,12,0,1,0,3/22/2020,39.48994426,-86.10149107
Indiana,Knox,0,0,0,0,3/22/2020,38.68861576,-87.4194665
Indiana,Kosciusko,0,0,0,0,3/22/2020,41.24521668,-85.86312322
Indiana,LaGrange,0,0,0,0,3/22/2020,41.64232188,-85.42674232
Indiana,Lake,10,0,0,0,3/22/2020,41.41874274,-87.38277575
Indiana,LaPorte,2,0,0,0,3/22/2020,41.54366008,-86.74072188
Indiana,Lawrence,0,0,0,0,3/22/2020,38.84112637,-86.48361629
Indiana,Madison,2,0,0,0,3/22/2020,40.16143691,-85.71964711
Indiana,Marion,82,0,3,0,3/22/2020,39.78163624,-86.13826325
Indiana,Marshall,0,0,0,0,3/22/2020,41.32467367,-86.26185087
Indiana,Martin,0,0,0,0,3/22/2020,38.7099921,-86.80373186
Indiana,Miami,1,0,0,0,3/22/2020,40.76940965,-86.04525048
Indiana,Monroe,1,0,0,0,3/22/2020,39.16130004,-86.52414358
Indiana,Montgomery,0,0,0,0,3/22/2020,40.04034823,-86.89335024
Indiana,Morgan,1,0,0,0,3/22/2020,39.47899078,-86.44573375
Indiana,Newton,0,0,0,0,3/22/2020,40.95610449,-87.39635768
Indiana,Noble,1,0,0,0,3/22/2020,41.39672484,-85.41966713
Indiana,Ohio,0,0,0,0,3/22/2020,38.955305,-84.96515993
Indiana,Orange,0,0,0,0,3/22/2020,38.5411892,-86.49523093
Indiana,Owen,1,0,0,0,3/22/2020,39.31145587,-86.83900724
Indiana,Parke,0,0,0,0,3/22/2020,39.77202286,-87.20375833
Indiana,Perry,0,0,0,0,3/22/2020,38.07809328,-86.63741946
Indiana,Pike,0,0,0,0,3/22/2020,38.40112197,-87.23574907
Indiana,Porter,0,0,0,0,3/22/2020,41.45986947,-87.06848888
Indiana,Posey,0,0,0,0,3/22/2020,38.02097333,-87.86480429
Indiana,Pulaski,0,0,0,0,3/22/2020,41.04166107,-86.69890683
Indiana,Putnam,1,0,0,0,3/22/2020,39.66437981,-86.84517605
Indiana,Randolph,0,0,0,0,3/22/2020,40.15734772,-85.01139319
Indiana,Ripley,1,0,0,0,3/22/2020,39.10235626,-85.26212744
Indiana,Rush,0,0,0,0,3/22/2020,39.62002287,-85.4655599
Indiana,St. Joseph,8,0,0,0,3/22/2020,41.61756781,-86.29040834
Indiana,Scott,1,0,1,0,3/22/2020,38.68672078,-85.74627859
Indiana,Shelby,1,0,0,0,3/22/2020,39.52305623,-85.7915857
Indiana,Spencer,0,0,0,0,3/22/2020,38.01519732,-87.0079644
Indiana,Starke,0,0,0,0,3/22/2020,41.27890281,-86.64686895
Indiana,Steuben,0,0,0,0,3/22/2020,41.64423868,-85.00101094
Indiana,Sullivan,0,0,0,0,3/22/2020,39.08952258,-87.41414469
Indiana,Switzerland,0,0,0,0,3/22/2020,38.82767338,-85.03022429
Indiana,Tippecanoe,2,0,0,0,3/22/2020,40.38872739,-86.89413959
Indiana,Tipton,1,0,0,0,3/22/2020,40.31123252,-86.05234925
Indiana,Union,0,0,0,0,3/22/2020,39.62550777,-84.92497066
Indiana,Vanderburgh,1,0,0,0,3/22/2020,38.02658833,-87.58763124
Indiana,Vermillion,0,0,0,0,3/22/2020,39.8523352,-87.46160542
Indiana,Vigo,2,0,0,0,3/22/2020,39.42944561,-87.39169027
Indiana,Wabash,0,0,0,0,3/22/2020,40.84704239,-85.79328272
Indiana,Warren,0,0,0,0,3/22/2020,40.34728141,-87.35602659
Indiana,Warrick,0,0,0,0,3/22/2020,38.08922676,-87.2716085
Indiana,Washington,1,0,0,0,3/22/2020,38.60219804,-86.1049363
Indiana,Wayne,1,0,0,0,3/22/2020,39.8633444,-85.01044989
Indiana,Wells,1,0,0,0,3/22/2020,40.72934187,-85.22132966
Indiana,White,0,0,0,0,3/22/2020,40.74911165,-86.86492015
Indiana,Whitley,0,0,0,0,3/22/2020,41.13863784,-85.50791236
California,Alameda,118,47,1,1,3/23/2020,37.64629437,-121.8929271
California,Alpine,0,0,0,0,3/23/2020,38.59678594,-119.8223594
California,Amador,1,0,0,0,3/23/2020,38.44583082,-120.65696
California,Butte,2,1,0,0,3/23/2020,39.66727762,-121.6005252
California,Calaveras,2,0,0,0,3/23/2020,38.20537103,-120.552913
California,Colusa,0,0,0,0,3/23/2020,39.17881957,-122.2331726
California,Contra Costa,71,10,1,0,3/23/2020,37.91923498,-121.9289527
California,Del Norte,0,0,0,0,3/23/2020,41.74228275,-123.8974063
California,El Dorado,2,2,0,0,3/23/2020,38.77965956,-120.5233166
California,Fresno,6,0,0,0,3/23/2020,36.75733899,-119.6466953
California,Glenn,0,0,0,0,3/23/2020,39.59875897,-122.3938452
California,Humboldt,2,0,0,0,3/23/2020,40.69923009,-123.876044
California,Imperial,6,0,0,0,3/23/2020,33.0393082,-115.3669042
California,Inyo,0,0,0,0,3/23/2020,36.51112084,-117.4111978
California,Kern,12,7,0,0,3/23/2020,35.34329425,-118.7277796
California,Kings,0,0,0,0,3/23/2020,36.07409056,-119.8159973
California,Lake,0,0,0,0,3/23/2020,39.10124298,-122.7536244
California,Lassen,0,0,0,0,3/23/2020,40.67311306,-120.5935099
California,Los Angeles,536,129,7,2,3/23/2020,34.30828379,-118.2282411
California,Madera,3,0,0,0,3/23/2020,37.21513971,-119.7665589
California,Marin,38,0,0,0,3/23/2020,38.07122463,-122.7210631
California,Mariposa,0,0,0,0,3/23/2020,37.57978556,-119.9073334
California,Mendocino,1,0,0,0,3/23/2020,39.4381191,-123.3911313
California,Merced,1,1,0,0,3/23/2020,37.18922369,-120.7209035
California,Modoc,0,0,0,0,3/23/2020,41.58965602,-120.7244817
California,Mono,1,0,0,0,3/23/2020,37.93899289,-118.8872409
California,Monterey,14,3,1,0,3/23/2020,36.21862405,-121.2413397
California,Napa,2,1,0,0,3/23/2020,38.50735751,-122.332839
California,Nevada,2,1,0,0,3/23/2020,39.30394768,-120.7627281
California,Orange,125,30,0,0,3/23/2020,33.70147516,-117.7645998
California,Placer,12,0,1,0,3/23/2020,39.06167234,-120.7240569
California,Plumas,0,0,0,0,3/23/2020,40.00355989,-120.8395236
California,Riverside,46,17,6,0,3/23/2020,33.74314981,-115.9933578
California,Sacramento,88,35,4,1,3/23/2020,38.45106826,-121.3425374
California,San Benito,6,1,1,0,3/23/2020,36.60308176,-121.069975
California,San Bernardino,17,0,0,0,3/23/2020,34.84060306,-116.1774685
California,San Diego,201,46,1,1,3/23/2020,33.03484597,-116.7365326
California,San Joaquin,41,10,2,0,3/23/2020,37.93433732,-121.2730061
California,San Luis Obispo,27,0,0,0,3/23/2020,35.38822029,-120.4039028
California,San Mateo,142,25,1,0,3/23/2020,37.4228808,-122.3275546
California,Santa Barbara,18,5,0,0,3/23/2020,34.65329488,-120.0188492
California,Santa Clara,302,39,10,2,3/23/2020,37.23104908,-121.6970462
California,Santa Cruz,22,7,0,0,3/23/2020,37.05580291,-122.0066524
California,Shasta,2,1,0,0,3/23/2020,40.76391419,-122.0396884
California,Sierra,0,0,0,0,3/23/2020,39.57713498,-120.5200701
California,Siskiyou,2,0,0,0,3/23/2020,41.59198861,-122.5407434
California,Solano,14,1,0,0,3/23/2020,38.26827353,-121.9357113
California,Sonoma,29,7,1,0,3/23/2020,38.52746429,-122.8862506
California,Stanislaus,8,3,0,0,3/23/2020,37.55862499,-120.9970722
California,Sutter,0,0,0,0,3/23/2020,39.03417539,-121.6945899
California,Tehama,0,0,0,0,3/23/2020,40.12570935,-122.2370171
California,Trinity,0,0,0,0,3/23/2020,40.6491767,-123.114713
California,Tulare,16,4,0,0,3/23/2020,36.22026558,-118.8020203
California,Tuolumne,0,0,0,0,3/23/2020,38.02644018,-119.9525093
California,Ventura,30,5,1,1,3/23/2020,34.44465746,-119.0910613
California,Yolo,6,0,1,1,3/23/2020,38.68278902,-121.9018288
California,Yuba,3,1,0,0,3/23/2020,39.26255932,-121.3535644
Indiana,Adams,1,0,0,0,3/23/2020,40.7457653,-84.93671406
Indiana,Allen,4,0,1,1,3/23/2020,41.09194313,-85.06800636
Indiana,Bartholomew,5,0,0,0,3/23/2020,39.20744865,-85.89558181
Indiana,Benton,0,0,0,0,3/23/2020,40.60626947,-87.31093999
Indiana,Blackford,0,0,0,0,3/23/2020,40.47388153,-85.32499702
Indiana,Boone,3,0,0,0,3/23/2020,40.0509304,-86.46841646
Indiana,Brown,0,0,0,0,3/23/2020,39.19605589,-86.22868909
Indiana,Carroll,0,0,0,0,3/23/2020,40.5807832,-86.56198812
Indiana,Cass,0,0,0,0,3/23/2020,40.76135835,-86.34830753
Indiana,Clark,4,0,0,0,3/23/2020,38.48015445,-85.70510334
Indiana,Clay,0,0,0,0,3/23/2020,39.39561833,-87.11723506
Indiana,Clinton,0,0,0,0,3/23/2020,40.30319754,-86.47277257
Indiana,Crawford,0,0,0,0,3/23/2020,38.28814402,-86.44518825
Indiana,Daviess,0,0,0,0,3/23/2020,38.70186039,-87.07185406
Indiana,Dearborn,0,0,0,0,3/23/2020,39.14647946,-84.97333539
Indiana,Decatur,0,0,0,0,3/23/2020,39.30712658,-85.50087166
Indiana,DeKalb,0,0,0,0,3/23/2020,41.39804622,-84.99906934
Indiana,Delaware,2,0,1,0,3/23/2020,40.22787247,-85.39732772
Indiana,Dubois,1,0,0,0,3/23/2020,38.36597551,-86.8792417
Indiana,Elkhart,4,0,0,0,3/23/2020,41.59761169,-85.85875695
Indiana,Fayette,1,0,0,0,3/23/2020,39.63684962,-85.17797541
Indiana,Floyd,3,0,0,0,3/23/2020,38.32117957,-85.90385377
Indiana,Fountain,0,0,0,0,3/23/2020,40.12361933,-87.24217689
Indiana,Franklin,4,0,0,0,3/23/2020,39.4142482,-85.06062647
Indiana,Fulton,0,0,0,0,3/23/2020,41.0469907,-86.26252745
Indiana,Gibson,0,0,0,0,3/23/2020,38.30393723,-87.58054938
Indiana,Grant,2,0,0,0,3/23/2020,40.51587228,-85.65468702
Indiana,Greene,1,0,0,0,3/23/2020,39.03630547,-86.96223202
Indiana,Hamilton,18,0,0,0,3/23/2020,40.07306535,-86.05244729
Indiana,Hancock,2,0,0,0,3/23/2020,39.82304555,-85.77566351
Indiana,Harrison,0,0,0,0,3/23/2020,38.19467379,-86.10948271
Indiana,Hendricks,8,0,0,0,3/23/2020,39.76719009,-86.51037283
Indiana,Henry,0,0,0,0,3/23/2020,39.93029017,-85.39625719
Indiana,Howard,6,0,0,0,3/23/2020,40.48527731,-86.11351892
Indiana,Huntington,0,0,0,0,3/23/2020,40.82907273,-85.48822092
Indiana,Jackson,0,0,0,0,3/23/2020,38.9091582,-86.03851889
Indiana,Jasper,0,0,0,0,3/23/2020,41.02078733,-87.11553319
Indiana,Jay,0,0,0,0,3/23/2020,40.43781032,-85.00576229
Indiana,Jefferson,0,0,0,0,3/23/2020,38.78576239,-85.43633383
Indiana,Jennings,1,0,0,0,3/23/2020,38.99588883,-85.62710784
Indiana,Johnson,12,0,1,0,3/23/2020,39.48994426,-86.10149107
Indiana,Knox,0,0,0,0,3/23/2020,38.68861576,-87.4194665
Indiana,Kosciusko,0,0,0,0,3/23/2020,41.24521668,-85.86312322
Indiana,LaGrange,0,0,0,0,3/23/2020,41.64232188,-85.42674232
Indiana,Lake,10,0,0,0,3/23/2020,41.41874274,-87.38277575
Indiana,LaPorte,2,0,0,0,3/23/2020,41.54366008,-86.74072188
Indiana,Lawrence,0,0,0,0,3/23/2020,38.84112637,-86.48361629
Indiana,Madison,2,0,0,0,3/23/2020,40.16143691,-85.71964711
Indiana,Marion,82,0,3,0,3/23/2020,39.78163624,-86.13826325
Indiana,Marshall,0,0,0,0,3/23/2020,41.32467367,-86.26185087
Indiana,Martin,0,0,0,0,3/23/2020,38.7099921,-86.80373186
Indiana,Miami,1,0,0,0,3/23/2020,40.76940965,-86.04525048
Indiana,Monroe,1,0,0,0,3/23/2020,39.16130004,-86.52414358
Indiana,Montgomery,0,0,0,0,3/23/2020,40.04034823,-86.89335024
Indiana,Morgan,1,0,0,0,3/23/2020,39.47899078,-86.44573375
Indiana,Newton,0,0,0,0,3/23/2020,40.95610449,-87.39635768
Indiana,Noble,1,0,0,0,3/23/2020,41.39672484,-85.41966713
Indiana,Ohio,0,0,0,0,3/23/2020,38.955305,-84.96515993
Indiana,Orange,0,0,0,0,3/23/2020,38.5411892,-86.49523093
Indiana,Owen,1,0,0,0,3/23/2020,39.31145587,-86.83900724
Indiana,Parke,0,0,0,0,3/23/2020,39.77202286,-87.20375833
Indiana,Perry,0,0,0,0,3/23/2020,38.07809328,-86.63741946
Indiana,Pike,0,0,0,0,3/23/2020,38.40112197,-87.23574907
Indiana,Porter,0,0,0,0,3/23/2020,41.45986947,-87.06848888
Indiana,Posey,0,0,0,0,3/23/2020,38.02097333,-87.86480429
Indiana,Pulaski,0,0,0,0,3/23/2020,41.04166107,-86.69890683
Indiana,Putnam,1,0,0,0,3/23/2020,39.66437981,-86.84517605
Indiana,Randolph,0,0,0,0,3/23/2020,40.15734772,-85.01139319
Indiana,Ripley,1,0,0,0,3/23/2020,39.10235626,-85.26212744
Indiana,Rush,0,0,0,0,3/23/2020,39.62002287,-85.4655599
Indiana,St. Joseph,17,9,0,0,3/23/2020,41.61756781,-86.29040834
Indiana,Scott,1,0,1,0,3/23/2020,38.68672078,-85.74627859
Indiana,Shelby,1,0,0,0,3/23/2020,39.52305623,-85.7915857
Indiana,Spencer,0,0,0,0,3/23/2020,38.01519732,-87.0079644
Indiana,Starke,1,1,0,0,3/23/2020,41.27890281,-86.64686895
Indiana,Steuben,0,0,0,0,3/23/2020,41.64423868,-85.00101094
Indiana,Sullivan,0,0,0,0,3/23/2020,39.08952258,-87.41414469
Indiana,Switzerland,0,0,0,0,3/23/2020,38.82767338,-85.03022429
Indiana,Tippecanoe,2,0,0,0,3/23/2020,40.38872739,-86.89413959
Indiana,Tipton,1,0,0,0,3/23/2020,40.31123252,-86.05234925
Indiana,Union,0,0,0,0,3/23/2020,39.62550777,-84.92497066
Indiana,Vanderburgh,1,0,0,0,3/23/2020,38.02658833,-87.58763124
Indiana,Vermillion,0,0,0,0,3/23/2020,39.8523352,-87.46160542
Indiana,Vigo,2,0,0,0,3/23/2020,39.42944561,-87.39169027
Indiana,Wabash,0,0,0,0,3/23/2020,40.84704239,-85.79328272
Indiana,Warren,0,0,0,0,3/23/2020,40.34728141,-87.35602659
Indiana,Warrick,0,0,0,0,3/23/2020,38.08922676,-87.2716085
Indiana,Washington,1,0,0,0,3/23/2020,38.60219804,-86.1049363
Indiana,Wayne,1,0,0,0,3/23/2020,39.8633444,-85.01044989
Indiana,Wells,1,0,0,0,3/23/2020,40.72934187,-85.22132966
Indiana,White,0,0,0,0,3/23/2020,40.74911165,-86.86492015
Indiana,Whitley,0,0,0,0,3/23/2020,41.13863784,-85.50791236
California,Alameda,135,17,2,1,3/24/2020,37.64629437,-121.8929271
California,Alpine,0,0,0,0,3/24/2020,38.59678594,-119.8223594
California,Amador,2,1,0,0,3/24/2020,38.44583082,-120.65696
California,Butte,2,0,0,0,3/24/2020,39.66727762,-121.6005252
California,Calaveras,2,0,0,0,3/24/2020,38.20537103,-120.552913
California,Colusa,0,0,0,0,3/24/2020,39.17881957,-122.2331726
California,Contra Costa,86,15,1,0,3/24/2020,37.91923498,-121.9289527
California,Del Norte,0,0,0,0,3/24/2020,41.74228275,-123.8974063
California,El Dorado,2,0,0,0,3/24/2020,38.77965956,-120.5233166
California,Fresno,13,7,0,0,3/24/2020,36.75733899,-119.6466953
California,Glenn,0,0,0,0,3/24/2020,39.59875897,-122.3938452
California,Humboldt,4,2,0,0,3/24/2020,40.69923009,-123.876044
California,Imperial,6,0,0,0,3/24/2020,33.0393082,-115.3669042
California,Inyo,0,0,0,0,3/24/2020,36.51112084,-117.4111978
California,Kern,13,1,0,0,3/24/2020,35.34329425,-118.7277796
California,Kings,0,0,0,0,3/24/2020,36.07409056,-119.8159973
California,Lake,0,0,0,0,3/24/2020,39.10124298,-122.7536244
California,Lassen,0,0,0,0,3/24/2020,40.67311306,-120.5935099
California,Los Angeles,662,126,11,4,3/24/2020,34.30828379,-118.2282411
California,Madera,6,3,0,0,3/24/2020,37.21513971,-119.7665589
California,Marin,47,9,0,0,3/24/2020,38.07122463,-122.7210631
California,Mariposa,0,0,0,0,3/24/2020,37.57978556,-119.9073334
California,Mendocino,2,1,0,0,3/24/2020,39.4381191,-123.3911313
California,Merced,1,0,0,0,3/24/2020,37.18922369,-120.7209035
California,Modoc,0,0,0,0,3/24/2020,41.58965602,-120.7244817
California,Mono,1,0,0,0,3/24/2020,37.93899289,-118.8872409
California,Monterey,20,6,1,0,3/24/2020,36.21862405,-121.2413397
California,Napa,2,0,0,0,3/24/2020,38.50735751,-122.332839
California,Nevada,3,1,0,0,3/24/2020,39.30394768,-120.7627281
California,Orange,152,27,0,0,3/24/2020,33.70147516,-117.7645998
California,Placer,20,8,1,0,3/24/2020,39.06167234,-120.7240569
California,Plumas,0,0,0,0,3/24/2020,40.00355989,-120.8395236
California,Riverside,57,11,6,0,3/24/2020,33.74314981,-115.9933578
California,Sacramento,88,0,4,0,3/24/2020,38.45106826,-121.3425374
California,San Benito,6,0,1,0,3/24/2020,36.60308176,-121.069975
California,San Bernardino,31,14,0,0,3/24/2020,34.84060306,-116.1774685
California,San Diego,226,25,1,0,3/24/2020,33.03484597,-116.7365326
California,San Joaquin,51,10,2,0,3/24/2020,37.93433732,-121.2730061
California,San Luis Obispo,42,15,0,0,3/24/2020,35.38822029,-120.4039028
California,San Mateo,161,19,1,0,3/24/2020,37.4228808,-122.3275546
California,Santa Barbara,18,0,0,0,3/24/2020,34.65329488,-120.0188492
California,Santa Clara,375,73,16,6,3/24/2020,37.23104908,-121.6970462
California,Santa Cruz,22,0,0,0,3/24/2020,37.05580291,-122.0066524
California,Shasta,2,0,0,0,3/24/2020,40.76391419,-122.0396884
California,Sierra,0,0,0,0,3/24/2020,39.57713498,-120.5200701
California,Siskiyou,2,0,0,0,3/24/2020,41.59198861,-122.5407434
California,Solano,21,7,0,0,3/24/2020,38.26827353,-121.9357113
California,Sonoma,29,0,1,0,3/24/2020,38.52746429,-122.8862506
California,Stanislaus,11,3,0,0,3/24/2020,37.55862499,-120.9970722
California,Sutter,0,0,0,0,3/24/2020,39.03417539,-121.6945899
California,Tehama,0,0,0,0,3/24/2020,40.12570935,-122.2370171
California,Trinity,0,0,0,0,3/24/2020,40.6491767,-123.114713
California,Tulare,17,1,0,0,3/24/2020,36.22026558,-118.8020203
California,Tuolumne,0,0,0,0,3/24/2020,38.02644018,-119.9525093
California,Ventura,35,5,1,0,3/24/2020,34.44465746,-119.0910613
California,Yolo,8,2,1,0,3/24/2020,38.68278902,-121.9018288
California,Yuba,3,0,0,0,3/24/2020,39.26255932,-121.3535644
Indiana,Adams,1,0,0,0,3/24/2020,40.7457653,-84.93671406
Indiana,Allen,7,3,1,0,3/24/2020,41.09194313,-85.06800636
Indiana,Bartholomew,5,0,0,0,3/24/2020,39.20744865,-85.89558181
Indiana,Benton,0,0,0,0,3/24/2020,40.60626947,-87.31093999
Indiana,Blackford,0,0,0,0,3/24/2020,40.47388153,-85.32499702
Indiana,Boone,3,0,0,0,3/24/2020,40.0509304,-86.46841646
Indiana,Brown,1,1,0,0,3/24/2020,39.19605589,-86.22868909
Indiana,Carroll,0,0,0,0,3/24/2020,40.5807832,-86.56198812
Indiana,Cass,0,0,0,0,3/24/2020,40.76135835,-86.34830753
Indiana,Clark,5,1,0,0,3/24/2020,38.48015445,-85.70510334
Indiana,Clay,0,0,0,0,3/24/2020,39.39561833,-87.11723506
Indiana,Clinton,0,0,0,0,3/24/2020,40.30319754,-86.47277257
Indiana,Crawford,0,0,0,0,3/24/2020,38.28814402,-86.44518825
Indiana,Daviess,0,0,0,0,3/24/2020,38.70186039,-87.07185406
Indiana,Dearborn,2,2,0,0,3/24/2020,39.14647946,-84.97333539
Indiana,Decatur,6,6,0,0,3/24/2020,39.30712658,-85.50087166
Indiana,DeKalb,0,0,0,0,3/24/2020,41.39804622,-84.99906934
Indiana,Delaware,4,2,1,0,3/24/2020,40.22787247,-85.39732772
Indiana,Dubois,1,0,0,0,3/24/2020,38.36597551,-86.8792417
Indiana,Elkhart,4,0,0,0,3/24/2020,41.59761169,-85.85875695
Indiana,Fayette,2,1,0,0,3/24/2020,39.63684962,-85.17797541
Indiana,Floyd,6,3,0,0,3/24/2020,38.32117957,-85.90385377
Indiana,Fountain,0,0,0,0,3/24/2020,40.12361933,-87.24217689
Indiana,Franklin,7,3,0,0,3/24/2020,39.4142482,-85.06062647
Indiana,Fulton,0,0,0,0,3/24/2020,41.0469907,-86.26252745
Indiana,Gibson,2,2,0,0,3/24/2020,38.30393723,-87.58054938
Indiana,Grant,3,1,0,0,3/24/2020,40.51587228,-85.65468702
Indiana,Greene,1,0,0,0,3/24/2020,39.03630547,-86.96223202
Indiana,Hamilton,25,7,0,0,3/24/2020,40.07306535,-86.05244729
Indiana,Hancock,4,2,0,0,3/24/2020,39.82304555,-85.77566351
Indiana,Harrison,0,0,0,0,3/24/2020,38.19467379,-86.10948271
Indiana,Hendricks,13,5,0,0,3/24/2020,39.76719009,-86.51037283
Indiana,Henry,0,0,0,0,3/24/2020,39.93029017,-85.39625719
Indiana,Howard,6,0,0,0,3/24/2020,40.48527731,-86.11351892
Indiana,Huntington,0,0,0,0,3/24/2020,40.82907273,-85.48822092
Indiana,Jackson,1,1,0,0,3/24/2020,38.9091582,-86.03851889
Indiana,Jasper,0,0,0,0,3/24/2020,41.02078733,-87.11553319
Indiana,Jay,0,0,0,0,3/24/2020,40.43781032,-85.00576229
Indiana,Jefferson,0,0,0,0,3/24/2020,38.78576239,-85.43633383
Indiana,Jennings,2,1,0,0,3/24/2020,38.99588883,-85.62710784
Indiana,Johnson,18,6,3,2,3/24/2020,39.48994426,-86.10149107
Indiana,Knox,0,0,0,0,3/24/2020,38.68861576,-87.4194665
Indiana,Kosciusko,0,0,0,0,3/24/2020,41.24521668,-85.86312322
Indiana,LaGrange,0,0,0,0,3/24/2020,41.64232188,-85.42674232
Indiana,Lake,17,7,0,0,3/24/2020,41.41874274,-87.38277575
Indiana,LaPorte,2,0,0,0,3/24/2020,41.54366008,-86.74072188
Indiana,Lawrence,1,1,0,0,3/24/2020,38.84112637,-86.48361629
Indiana,Madison,3,1,0,0,3/24/2020,40.16143691,-85.71964711
Indiana,Marion,161,79,6,3,3/24/2020,39.78163624,-86.13826325
Indiana,Marshall,0,0,0,0,3/24/2020,41.32467367,-86.26185087
Indiana,Martin,0,0,0,0,3/24/2020,38.7099921,-86.80373186
Indiana,Miami,1,0,0,0,3/24/2020,40.76940965,-86.04525048
Indiana,Monroe,3,2,0,0,3/24/2020,39.16130004,-86.52414358
Indiana,Montgomery,1,1,0,0,3/24/2020,40.04034823,-86.89335024
Indiana,Morgan,3,2,0,0,3/24/2020,39.47899078,-86.44573375
Indiana,Newton,0,0,0,0,3/24/2020,40.95610449,-87.39635768
Indiana,Noble,1,0,0,0,3/24/2020,41.39672484,-85.41966713
Indiana,Ohio,1,1,0,0,3/24/2020,38.955305,-84.96515993
Indiana,Orange,0,0,0,0,3/24/2020,38.5411892,-86.49523093
Indiana,Owen,2,1,0,0,3/24/2020,39.31145587,-86.83900724
Indiana,Parke,0,0,0,0,3/24/2020,39.77202286,-87.20375833
Indiana,Perry,0,0,0,0,3/24/2020,38.07809328,-86.63741946
Indiana,Pike,0,0,0,0,3/24/2020,38.40112197,-87.23574907
Indiana,Porter,1,1,0,0,3/24/2020,41.45986947,-87.06848888
Indiana,Posey,0,0,0,0,3/24/2020,38.02097333,-87.86480429
Indiana,Pulaski,0,0,0,0,3/24/2020,41.04166107,-86.69890683
Indiana,Putnam,1,0,0,0,3/24/2020,39.66437981,-86.84517605
Indiana,Randolph,0,0,0,0,3/24/2020,40.15734772,-85.01139319
Indiana,Ripley,6,5,0,0,3/24/2020,39.10235626,-85.26212744
Indiana,Rush,0,0,0,0,3/24/2020,39.62002287,-85.4655599
Indiana,St. Joseph,18,1,0,0,3/24/2020,41.61756781,-86.29040834
Indiana,Scott,1,0,1,0,3/24/2020,38.68672078,-85.74627859
Indiana,Shelby,1,0,0,0,3/24/2020,39.52305623,-85.7915857
Indiana,Spencer,0,0,0,0,3/24/2020,38.01519732,-87.0079644
Indiana,Starke,2,1,0,0,3/24/2020,41.27890281,-86.64686895
Indiana,Steuben,0,0,0,0,3/24/2020,41.64423868,-85.00101094
Indiana,Sullivan,0,0,0,0,3/24/2020,39.08952258,-87.41414469
Indiana,Switzerland,0,0,0,0,3/24/2020,38.82767338,-85.03022429
Indiana,Tippecanoe,3,1,0,0,3/24/2020,40.38872739,-86.89413959
Indiana,Tipton,2,1,0,0,3/24/2020,40.31123252,-86.05234925
Indiana,Union,0,0,0,0,3/24/2020,39.62550777,-84.92497066
Indiana,Vanderburgh,1,0,0,0,3/24/2020,38.02658833,-87.58763124
Indiana,Vermillion,0,0,0,0,3/24/2020,39.8523352,-87.46160542
Indiana,Vigo,3,1,0,0,3/24/2020,39.42944561,-87.39169027
Indiana,Wabash,0,0,0,0,3/24/2020,40.84704239,-85.79328272
Indiana,Warren,0,0,0,0,3/24/2020,40.34728141,-87.35602659
Indiana,Warrick,1,1,0,0,3/24/2020,38.08922676,-87.2716085
Indiana,Washington,2,1,0,0,3/24/2020,38.60219804,-86.1049363
Indiana,Wayne,0,-1,0,0,3/24/2020,39.8633444,-85.01044989
Indiana,Wells,1,0,0,0,3/24/2020,40.72934187,-85.22132966
Indiana,White,0,0,0,0,3/24/2020,40.74911165,-86.86492015
Indiana,Whitley,0,0,0,0,3/24/2020,41.13863784,-85.50791236
California,Alameda,135,0,2,0,3/25/2020,37.64629437,-121.8929271
California,Alpine,0,0,0,0,3/25/2020,38.59678594,-119.8223594
California,Amador,2,0,0,0,3/25/2020,38.44583082,-120.65696
California,Butte,4,2,0,0,3/25/2020,39.66727762,-121.6005252
California,Calaveras,2,0,0,0,3/25/2020,38.20537103,-120.552913
California,Colusa,0,0,0,0,3/25/2020,39.17881957,-122.2331726
California,Contra Costa,108,22,1,0,3/25/2020,37.91923498,-121.9289527
California,Del Norte,0,0,0,0,3/25/2020,41.74228275,-123.8974063
California,El Dorado,3,1,0,0,3/25/2020,38.77965956,-120.5233166
California,Fresno,18,5,0,0,3/25/2020,36.75733899,-119.6466953
California,Glenn,0,0,0,0,3/25/2020,39.59875897,-122.3938452
California,Humboldt,5,1,0,0,3/25/2020,40.69923009,-123.876044
California,Imperial,9,3,0,0,3/25/2020,33.0393082,-115.3669042
California,Inyo,1,1,0,0,3/25/2020,36.51112084,-117.4111978
California,Kern,15,2,0,0,3/25/2020,35.34329425,-118.7277796
California,Kings,0,0,0,0,3/25/2020,36.07409056,-119.8159973
California,Lake,0,0,0,0,3/25/2020,39.10124298,-122.7536244
California,Lassen,0,0,0,0,3/25/2020,40.67311306,-120.5935099
California,Los Angeles,812,150,13,2,3/25/2020,34.30828379,-118.2282411
California,Madera,6,0,0,0,3/25/2020,37.21513971,-119.7665589
California,Marin,53,6,0,0,3/25/2020,38.07122463,-122.7210631
California,Mariposa,0,0,0,0,3/25/2020,37.57978556,-119.9073334
California,Mendocino,2,0,0,0,3/25/2020,39.4381191,-123.3911313
California,Merced,2,1,0,0,3/25/2020,37.18922369,-120.7209035
California,Modoc,0,0,0,0,3/25/2020,41.58965602,-120.7244817
California,Mono,4,3,0,0,3/25/2020,37.93899289,-118.8872409
California,Monterey,24,4,1,0,3/25/2020,36.21862405,-121.2413397
California,Napa,2,0,0,0,3/25/2020,38.50735751,-122.332839
California,Nevada,4,1,0,0,3/25/2020,39.30394768,-120.7627281
California,Orange,187,35,1,1,3/25/2020,33.70147516,-117.7645998
California,Placer,30,10,1,0,3/25/2020,39.06167234,-120.7240569
California,Plumas,0,0,0,0,3/25/2020,40.00355989,-120.8395236
California,Riverside,68,11,7,1,3/25/2020,33.74314981,-115.9933578
California,Sacramento,113,25,5,1,3/25/2020,38.45106826,-121.3425374
California,San Benito,7,1,1,0,3/25/2020,36.60308176,-121.069975
California,San Bernardino,38,7,1,1,3/25/2020,34.84060306,-116.1774685
California,San Diego,238,12,2,1,3/25/2020,33.03484597,-116.7365326
California,San Joaquin,68,17,3,1,3/25/2020,37.93433732,-121.2730061
California,San Luis Obispo,46,4,0,0,3/25/2020,35.38822029,-120.4039028
California,San Mateo,165,4,5,4,3/25/2020,37.4228808,-122.3275546
California,Santa Barbara,24,6,0,0,3/25/2020,34.65329488,-120.0188492
California,Santa Clara,459,84,17,1,3/25/2020,37.23104908,-121.6970462
California,Santa Cruz,24,2,0,0,3/25/2020,37.05580291,-122.0066524
California,Shasta,3,1,1,1,3/25/2020,40.76391419,-122.0396884
California,Sierra,0,0,0,0,3/25/2020,39.57713498,-120.5200701
California,Siskiyou,3,1,0,0,3/25/2020,41.59198861,-122.5407434
California,Solano,24,3,0,0,3/25/2020,38.26827353,-121.9357113
California,Sonoma,34,5,1,0,3/25/2020,38.52746429,-122.8862506
California,Stanislaus,12,1,0,0,3/25/2020,37.55862499,-120.9970722
California,Sutter,0,0,0,0,3/25/2020,39.03417539,-121.6945899
California,Tehama,0,0,0,0,3/25/2020,40.12570935,-122.2370171
California,Trinity,0,0,0,0,3/25/2020,40.6491767,-123.114713
California,Tulare,17,0,0,0,3/25/2020,36.22026558,-118.8020203
California,Tuolumne,0,0,0,0,3/25/2020,38.02644018,-119.9525093
California,Ventura,39,4,1,0,3/25/2020,34.44465746,-119.0910613
California,Yolo,10,2,1,0,3/25/2020,38.68278902,-121.9018288
California,Yuba,0,-3,0,0,3/25/2020,39.26255932,-121.3535644
Indiana,Adams,1,0,0,0,3/25/2020,40.7457653,-84.93671406
Indiana,Allen,7,0,1,0,3/25/2020,41.09194313,-85.06800636
Indiana,Bartholomew,5,0,0,0,3/25/2020,39.20744865,-85.89558181
Indiana,Benton,0,0,0,0,3/25/2020,40.60626947,-87.31093999
Indiana,Blackford,0,0,0,0,3/25/2020,40.47388153,-85.32499702
Indiana,Boone,4,1,0,0,3/25/2020,40.0509304,-86.46841646
Indiana,Brown,1,0,0,0,3/25/2020,39.19605589,-86.22868909
Indiana,Carroll,0,0,0,0,3/25/2020,40.5807832,-86.56198812
Indiana,Cass,0,0,0,0,3/25/2020,40.76135835,-86.34830753
Indiana,Clark,6,1,0,0,3/25/2020,38.48015445,-85.70510334
Indiana,Clay,0,0,0,0,3/25/2020,39.39561833,-87.11723506
Indiana,Clinton,0,0,0,0,3/25/2020,40.30319754,-86.47277257
Indiana,Crawford,0,0,0,0,3/25/2020,38.28814402,-86.44518825
Indiana,Daviess,0,0,0,0,3/25/2020,38.70186039,-87.07185406
Indiana,Dearborn,2,0,0,0,3/25/2020,39.14647946,-84.97333539
Indiana,Decatur,7,1,0,0,3/25/2020,39.30712658,-85.50087166
Indiana,DeKalb,1,1,0,0,3/25/2020,41.39804622,-84.99906934
Indiana,Delaware,7,3,1,0,3/25/2020,40.22787247,-85.39732772
Indiana,Dubois,1,0,0,0,3/25/2020,38.36597551,-86.8792417
Indiana,Elkhart,5,1,0,0,3/25/2020,41.59761169,-85.85875695
Indiana,Fayette,3,1,0,0,3/25/2020,39.63684962,-85.17797541
Indiana,Floyd,6,0,0,0,3/25/2020,38.32117957,-85.90385377
Indiana,Fountain,0,0,0,0,3/25/2020,40.12361933,-87.24217689
Indiana,Franklin,7,0,0,0,3/25/2020,39.4142482,-85.06062647
Indiana,Fulton,0,0,0,0,3/25/2020,41.0469907,-86.26252745
Indiana,Gibson,2,0,0,0,3/25/2020,38.30393723,-87.58054938
Indiana,Grant,3,0,0,0,3/25/2020,40.51587228,-85.65468702
Indiana,Greene,0,-1,0,0,3/25/2020,39.03630547,-86.96223202
Indiana,Hamilton,30,5,0,0,3/25/2020,40.07306535,-86.05244729
Indiana,Hancock,8,4,1,1,3/25/2020,39.82304555,-85.77566351
Indiana,Harrison,2,2,0,0,3/25/2020,38.19467379,-86.10948271
Indiana,Hendricks,15,2,0,0,3/25/2020,39.76719009,-86.51037283
Indiana,Henry,0,0,0,0,3/25/2020,39.93029017,-85.39625719
Indiana,Howard,6,0,1,1,3/25/2020,40.48527731,-86.11351892
Indiana,Huntington,0,0,0,0,3/25/2020,40.82907273,-85.48822092
Indiana,Jackson,1,0,0,0,3/25/2020,38.9091582,-86.03851889
Indiana,Jasper,1,1,0,0,3/25/2020,41.02078733,-87.11553319
Indiana,Jay,0,0,0,0,3/25/2020,40.43781032,-85.00576229
Indiana,Jefferson,0,0,0,0,3/25/2020,38.78576239,-85.43633383
Indiana,Jennings,3,1,0,0,3/25/2020,38.99588883,-85.62710784
Indiana,Johnson,24,6,3,0,3/25/2020,39.48994426,-86.10149107
Indiana,Knox,0,0,0,0,3/25/2020,38.68861576,-87.4194665
Indiana,Kosciusko,0,0,0,0,3/25/2020,41.24521668,-85.86312322
Indiana,LaGrange,0,0,0,0,3/25/2020,41.64232188,-85.42674232
Indiana,Lake,19,2,0,0,3/25/2020,41.41874274,-87.38277575
Indiana,LaPorte,2,0,0,0,3/25/2020,41.54366008,-86.74072188
Indiana,Lawrence,1,0,0,0,3/25/2020,38.84112637,-86.48361629
Indiana,Madison,4,1,0,0,3/25/2020,40.16143691,-85.71964711
Indiana,Marion,226,65,6,0,3/25/2020,39.78163624,-86.13826325
Indiana,Marshall,0,0,0,0,3/25/2020,41.32467367,-86.26185087
Indiana,Martin,0,0,0,0,3/25/2020,38.7099921,-86.80373186
Indiana,Miami,1,0,0,0,3/25/2020,40.76940965,-86.04525048
Indiana,Monroe,4,1,0,0,3/25/2020,39.16130004,-86.52414358
Indiana,Montgomery,1,0,0,0,3/25/2020,40.04034823,-86.89335024
Indiana,Morgan,5,2,0,0,3/25/2020,39.47899078,-86.44573375
Indiana,Newton,0,0,0,0,3/25/2020,40.95610449,-87.39635768
Indiana,Noble,1,0,0,0,3/25/2020,41.39672484,-85.41966713
Indiana,Ohio,1,0,0,0,3/25/2020,38.955305,-84.96515993
Indiana,Orange,0,0,0,0,3/25/2020,38.5411892,-86.49523093
Indiana,Owen,4,2,0,0,3/25/2020,39.31145587,-86.83900724
Indiana,Parke,0,0,0,0,3/25/2020,39.77202286,-87.20375833
Indiana,Perry,0,0,0,0,3/25/2020,38.07809328,-86.63741946
Indiana,Pike,0,0,0,0,3/25/2020,38.40112197,-87.23574907
Indiana,Porter,3,2,0,0,3/25/2020,41.45986947,-87.06848888
Indiana,Posey,0,0,0,0,3/25/2020,38.02097333,-87.86480429
Indiana,Pulaski,0,0,0,0,3/25/2020,41.04166107,-86.69890683
Indiana,Putnam,2,1,0,0,3/25/2020,39.66437981,-86.84517605
Indiana,Randolph,0,0,0,0,3/25/2020,40.15734772,-85.01139319
Indiana,Ripley,7,1,0,0,3/25/2020,39.10235626,-85.26212744
Indiana,Rush,1,1,0,0,3/25/2020,39.62002287,-85.4655599
Indiana,St. Joseph,19,1,0,0,3/25/2020,41.61756781,-86.29040834
Indiana,Scott,1,0,1,0,3/25/2020,38.68672078,-85.74627859
Indiana,Shelby,2,1,0,0,3/25/2020,39.52305623,-85.7915857
Indiana,Spencer,0,0,0,0,3/25/2020,38.01519732,-87.0079644
Indiana,Starke,1,-1,0,0,3/25/2020,41.27890281,-86.64686895
Indiana,Steuben,0,0,0,0,3/25/2020,41.64423868,-85.00101094
Indiana,Sullivan,1,1,0,0,3/25/2020,39.08952258,-87.41414469
Indiana,Switzerland,0,0,0,0,3/25/2020,38.82767338,-85.03022429
Indiana,Tippecanoe,4,1,0,0,3/25/2020,40.38872739,-86.89413959
Indiana,Tipton,2,0,0,0,3/25/2020,40.31123252,-86.05234925
Indiana,Union,0,0,0,0,3/25/2020,39.62550777,-84.92497066
Indiana,Vanderburgh,1,0,0,0,3/25/2020,38.02658833,-87.58763124
Indiana,Vermillion,0,0,0,0,3/25/2020,39.8523352,-87.46160542
Indiana,Vigo,3,0,0,0,3/25/2020,39.42944561,-87.39169027
Indiana,Wabash,0,0,0,0,3/25/2020,40.84704239,-85.79328272
Indiana,Warren,0,0,0,0,3/25/2020,40.34728141,-87.35602659
Indiana,Warrick,0,-1,0,0,3/25/2020,38.08922676,-87.2716085
Indiana,Washington,2,0,0,0,3/25/2020,38.60219804,-86.1049363
Indiana,Wayne,0,0,0,0,3/25/2020,39.8633444,-85.01044989
Indiana,Wells,1,0,0,0,3/25/2020,40.72934187,-85.22132966
Indiana,White,0,0,0,0,3/25/2020,40.74911165,-86.86492015
Indiana,Whitley,0,0,0,0,3/25/2020,41.13863784,-85.50791236
California,Alameda,178,43,4,2,3/26/2020,37.64629437,-121.8929271
California,Alpine,0,0,0,0,3/26/2020,38.59678594,-119.8223594
California,Amador,2,0,0,0,3/26/2020,38.44583082,-120.65696
California,Butte,5,1,0,0,3/26/2020,39.66727762,-121.6005252
California,Calaveras,3,1,0,0,3/26/2020,38.20537103,-120.552913
California,Colusa,0,0,0,0,3/26/2020,39.17881957,-122.2331726
California,Contra Costa,131,23,1,0,3/26/2020,37.91923498,-121.9289527
California,Del Norte,0,0,0,0,3/26/2020,41.74228275,-123.8974063
California,El Dorado,3,0,0,0,3/26/2020,38.77965956,-120.5233166
California,Fresno,19,1,0,0,3/26/2020,36.75733899,-119.6466953
California,Glenn,0,0,0,0,3/26/2020,39.59875897,-122.3938452
California,Humboldt,10,5,0,0,3/26/2020,40.69923009,-123.876044
California,Imperial,9,0,0,0,3/26/2020,33.0393082,-115.3669042
California,Inyo,2,1,0,0,3/26/2020,36.51112084,-117.4111978
California,Kern,29,14,0,0,3/26/2020,35.34329425,-118.7277796
California,Kings,0,0,0,0,3/26/2020,36.07409056,-119.8159973
California,Lake,0,0,0,0,3/26/2020,39.10124298,-122.7536244
California,Lassen,0,0,0,0,3/26/2020,40.67311306,-120.5935099
California,Los Angeles,1229,417,21,8,3/26/2020,34.30828379,-118.2282411
California,Madera,7,1,0,0,3/26/2020,37.21513971,-119.7665589
California,Marin,60,7,0,0,3/26/2020,38.07122463,-122.7210631
California,Mariposa,0,0,0,0,3/26/2020,37.57978556,-119.9073334
California,Mendocino,2,0,0,0,3/26/2020,39.4381191,-123.3911313
California,Merced,2,0,0,0,3/26/2020,37.18922369,-120.7209035
California,Modoc,0,0,0,0,3/26/2020,41.58965602,-120.7244817
California,Mono,4,0,0,0,3/26/2020,37.93899289,-118.8872409
California,Monterey,24,0,1,0,3/26/2020,36.21862405,-121.2413397
California,Napa,6,4,0,0,3/26/2020,38.50735751,-122.332839
California,Nevada,7,3,0,0,3/26/2020,39.30394768,-120.7627281
California,Orange,256,69,1,0,3/26/2020,33.70147516,-117.7645998
California,Placer,30,0,1,0,3/26/2020,39.06167234,-120.7240569
California,Plumas,0,0,0,0,3/26/2020,40.00355989,-120.8395236
California,Riverside,105,37,8,1,3/26/2020,33.74314981,-115.9933578
California,Sacramento,113,0,5,0,3/26/2020,38.45106826,-121.3425374
California,San Benito,9,2,1,0,3/26/2020,36.60308176,-121.069975
California,San Bernardino,54,16,2,1,3/26/2020,34.84060306,-116.1774685
California,San Diego,293,55,3,1,3/26/2020,33.03484597,-116.7365326
California,San Joaquin,71,3,3,0,3/26/2020,37.93433732,-121.2730061
California,San Luis Obispo,54,8,0,0,3/26/2020,35.38822029,-120.4039028
California,San Mateo,195,30,5,0,3/26/2020,37.4228808,-122.3275546
California,Santa Barbara,26,2,0,0,3/26/2020,34.65329488,-120.0188492
California,Santa Clara,542,83,19,2,3/26/2020,37.23104908,-121.6970462
California,Santa Cruz,25,1,0,0,3/26/2020,37.05580291,-122.0066524
California,Shasta,3,0,1,0,3/26/2020,40.76391419,-122.0396884
California,Sierra,0,0,0,0,3/26/2020,39.57713498,-120.5200701
California,Siskiyou,3,0,0,0,3/26/2020,41.59198861,-122.5407434
California,Solano,31,7,0,0,3/26/2020,38.26827353,-121.9357113
California,Sonoma,37,3,1,0,3/26/2020,38.52746429,-122.8862506
California,Stanislaus,13,1,0,0,3/26/2020,37.55862499,-120.9970722
California,Sutter,2,2,0,0,3/26/2020,39.03417539,-121.6945899
California,Tehama,0,0,0,0,3/26/2020,40.12570935,-122.2370171
California,Trinity,0,0,0,0,3/26/2020,40.6491767,-123.114713
California,Tulare,18,1,0,0,3/26/2020,36.22026558,-118.8020203
California,Tuolumne,0,0,0,0,3/26/2020,38.02644018,-119.9525093
California,Ventura,50,11,1,0,3/26/2020,34.44465746,-119.0910613
California,Yolo,11,1,1,0,3/26/2020,38.68278902,-121.9018288
California,Yuba,3,3,0,0,3/26/2020,39.26255932,-121.3535644
Indiana,Adams,1,0,0,0,3/26/2020,40.7457653,-84.93671406
Indiana,Allen,8,1,1,0,3/26/2020,41.09194313,-85.06800636
Indiana,Bartholomew,6,1,0,0,3/26/2020,39.20744865,-85.89558181
Indiana,Benton,0,0,0,0,3/26/2020,40.60626947,-87.31093999
Indiana,Blackford,0,0,0,0,3/26/2020,40.47388153,-85.32499702
Indiana,Boone,7,3,0,0,3/26/2020,40.0509304,-86.46841646
Indiana,Brown,1,0,0,0,3/26/2020,39.19605589,-86.22868909
Indiana,Carroll,0,0,0,0,3/26/2020,40.5807832,-86.56198812
Indiana,Cass,0,0,0,0,3/26/2020,40.76135835,-86.34830753
Indiana,Clark,10,4,0,0,3/26/2020,38.48015445,-85.70510334
Indiana,Clay,0,0,0,0,3/26/2020,39.39561833,-87.11723506
Indiana,Clinton,0,0,0,0,3/26/2020,40.30319754,-86.47277257
Indiana,Crawford,0,0,0,0,3/26/2020,38.28814402,-86.44518825
Indiana,Daviess,0,0,0,0,3/26/2020,38.70186039,-87.07185406
Indiana,Dearborn,3,1,0,0,3/26/2020,39.14647946,-84.97333539
Indiana,Decatur,13,6,0,0,3/26/2020,39.30712658,-85.50087166
Indiana,DeKalb,1,0,0,0,3/26/2020,41.39804622,-84.99906934
Indiana,Delaware,7,0,1,0,3/26/2020,40.22787247,-85.39732772
Indiana,Dubois,1,0,0,0,3/26/2020,38.36597551,-86.8792417
Indiana,Elkhart,7,2,0,0,3/26/2020,41.59761169,-85.85875695
Indiana,Fayette,3,0,0,0,3/26/2020,39.63684962,-85.17797541
Indiana,Floyd,7,1,0,0,3/26/2020,38.32117957,-85.90385377
Indiana,Fountain,1,1,0,0,3/26/2020,40.12361933,-87.24217689
Indiana,Franklin,13,6,1,1,3/26/2020,39.4142482,-85.06062647
Indiana,Fulton,0,0,0,0,3/26/2020,41.0469907,-86.26252745
Indiana,Gibson,3,1,0,0,3/26/2020,38.30393723,-87.58054938
Indiana,Grant,3,0,0,0,3/26/2020,40.51587228,-85.65468702
Indiana,Greene,0,0,0,0,3/26/2020,39.03630547,-86.96223202
Indiana,Hamilton,40,10,0,0,3/26/2020,40.07306535,-86.05244729
Indiana,Hancock,9,1,1,0,3/26/2020,39.82304555,-85.77566351
Indiana,Harrison,2,0,0,0,3/26/2020,38.19467379,-86.10948271
Indiana,Hendricks,21,6,0,0,3/26/2020,39.76719009,-86.51037283
Indiana,Henry,0,0,0,0,3/26/2020,39.93029017,-85.39625719
Indiana,Howard,6,0,1,0,3/26/2020,40.48527731,-86.11351892
Indiana,Huntington,0,0,0,0,3/26/2020,40.82907273,-85.48822092
Indiana,Jackson,2,1,0,0,3/26/2020,38.9091582,-86.03851889
Indiana,Jasper,3,2,1,1,3/26/2020,41.02078733,-87.11553319
Indiana,Jay,0,0,0,0,3/26/2020,40.43781032,-85.00576229
Indiana,Jefferson,0,0,0,0,3/26/2020,38.78576239,-85.43633383
Indiana,Jennings,4,1,0,0,3/26/2020,38.99588883,-85.62710784
Indiana,Johnson,36,12,3,0,3/26/2020,39.48994426,-86.10149107
Indiana,Knox,0,0,0,0,3/26/2020,38.68861576,-87.4194665
Indiana,Kosciusko,0,0,0,0,3/26/2020,41.24521668,-85.86312322
Indiana,LaGrange,0,0,0,0,3/26/2020,41.64232188,-85.42674232
Indiana,Lake,31,12,0,0,3/26/2020,41.41874274,-87.38277575
Indiana,LaPorte,2,0,0,0,3/26/2020,41.54366008,-86.74072188
Indiana,Lawrence,2,1,0,0,3/26/2020,38.84112637,-86.48361629
Indiana,Madison,4,0,0,0,3/26/2020,40.16143691,-85.71964711
Indiana,Marion,293,67,6,0,3/26/2020,39.78163624,-86.13826325
Indiana,Marshall,1,1,0,0,3/26/2020,41.32467367,-86.26185087
Indiana,Martin,0,0,0,0,3/26/2020,38.7099921,-86.80373186
Indiana,Miami,1,0,0,0,3/26/2020,40.76940965,-86.04525048
Indiana,Monroe,6,2,0,0,3/26/2020,39.16130004,-86.52414358
Indiana,Montgomery,2,1,0,0,3/26/2020,40.04034823,-86.89335024
Indiana,Morgan,7,2,0,0,3/26/2020,39.47899078,-86.44573375
Indiana,Newton,0,0,0,0,3/26/2020,40.95610449,-87.39635768
Indiana,Noble,1,0,0,0,3/26/2020,41.39672484,-85.41966713
Indiana,Ohio,1,0,0,0,3/26/2020,38.955305,-84.96515993
Indiana,Orange,1,1,0,0,3/26/2020,38.5411892,-86.49523093
Indiana,Owen,4,0,0,0,3/26/2020,39.31145587,-86.83900724
Indiana,Parke,0,0,0,0,3/26/2020,39.77202286,-87.20375833
Indiana,Perry,0,0,0,0,3/26/2020,38.07809328,-86.63741946
Indiana,Pike,0,0,0,0,3/26/2020,38.40112197,-87.23574907
Indiana,Porter,5,2,0,0,3/26/2020,41.45986947,-87.06848888
Indiana,Posey,1,1,0,0,3/26/2020,38.02097333,-87.86480429
Indiana,Pulaski,0,0,0,0,3/26/2020,41.04166107,-86.69890683
Indiana,Putnam,2,0,1,1,3/26/2020,39.66437981,-86.84517605
Indiana,Randolph,0,0,0,0,3/26/2020,40.15734772,-85.01139319
Indiana,Ripley,11,4,0,0,3/26/2020,39.10235626,-85.26212744
Indiana,Rush,1,0,0,0,3/26/2020,39.62002287,-85.4655599
Indiana,St. Joseph,21,2,0,0,3/26/2020,41.61756781,-86.29040834
Indiana,Scott,1,0,1,0,3/26/2020,38.68672078,-85.74627859
Indiana,Shelby,2,0,0,0,3/26/2020,39.52305623,-85.7915857
Indiana,Spencer,0,0,0,0,3/26/2020,38.01519732,-87.0079644
Indiana,Starke,1,0,0,0,3/26/2020,41.27890281,-86.64686895
Indiana,Steuben,0,0,0,0,3/26/2020,41.64423868,-85.00101094
Indiana,Sullivan,1,0,0,0,3/26/2020,39.08952258,-87.41414469
Indiana,Switzerland,0,0,0,0,3/26/2020,38.82767338,-85.03022429
Indiana,Tippecanoe,7,3,0,0,3/26/2020,40.38872739,-86.89413959
Indiana,Tipton,2,0,0,0,3/26/2020,40.31123252,-86.05234925
Indiana,Union,0,0,0,0,3/26/2020,39.62550777,-84.92497066
Indiana,Vanderburgh,4,3,0,0,3/26/2020,38.02658833,-87.58763124
Indiana,Vermillion,0,0,0,0,3/26/2020,39.8523352,-87.46160542
Indiana,Vigo,3,0,0,0,3/26/2020,39.42944561,-87.39169027
Indiana,Wabash,0,0,0,0,3/26/2020,40.84704239,-85.79328272
Indiana,Warren,1,1,0,0,3/26/2020,40.34728141,-87.35602659
Indiana,Warrick,3,3,0,0,3/26/2020,38.08922676,-87.2716085
Indiana,Washington,3,1,0,0,3/26/2020,38.60219804,-86.1049363
Indiana,Wayne,1,1,0,0,3/26/2020,39.8633444,-85.01044989
Indiana,Wells,1,0,0,0,3/26/2020,40.72934187,-85.22132966
Indiana,White,0,0,0,0,3/26/2020,40.74911165,-86.86492015
Indiana,Whitley,0,0,0,0,3/26/2020,41.13863784,-85.50791236
California,Alameda,220,42,4,0,3/27/2020,37.64629437,-121.8929271
California,Alpine,0,0,0,0,3/27/2020,38.59678594,-119.8223594
California,Amador,2,0,0,0,3/27/2020,38.44583082,-120.65696
California,Butte,5,0,0,0,3/27/2020,39.66727762,-121.6005252
California,Calaveras,3,0,0,0,3/27/2020,38.20537103,-120.552913
California,Colusa,0,0,0,0,3/27/2020,39.17881957,-122.2331726
California,Contra Costa,147,16,1,0,3/27/2020,37.91923498,-121.9289527
California,Del Norte,0,0,0,0,3/27/2020,41.74228275,-123.8974063
California,El Dorado,9,6,0,0,3/27/2020,38.77965956,-120.5233166
California,Fresno,27,8,0,0,3/27/2020,36.75733899,-119.6466953
California,Glenn,0,0,0,0,3/27/2020,39.59875897,-122.3938452
California,Humboldt,12,2,0,0,3/27/2020,40.69923009,-123.876044
California,Imperial,17,8,0,0,3/27/2020,33.0393082,-115.3669042
California,Inyo,3,1,0,0,3/27/2020,36.51112084,-117.4111978
California,Kern,33,4,1,1,3/27/2020,35.34329425,-118.7277796
California,Kings,0,0,0,0,3/27/2020,36.07409056,-119.8159973
California,Lake,0,0,0,0,3/27/2020,39.10124298,-122.7536244
California,Lassen,0,0,0,0,3/27/2020,40.67311306,-120.5935099
California,Los Angeles,1465,236,26,5,3/27/2020,34.30828379,-118.2282411
California,Madera,10,3,0,0,3/27/2020,37.21513971,-119.7665589
California,Marin,65,5,0,0,3/27/2020,38.07122463,-122.7210631
California,Mariposa,0,0,0,0,3/27/2020,37.57978556,-119.9073334
California,Mendocino,2,0,0,0,3/27/2020,39.4381191,-123.3911313
California,Merced,4,2,0,0,3/27/2020,37.18922369,-120.7209035
California,Modoc,0,0,0,0,3/27/2020,41.58965602,-120.7244817
California,Mono,6,2,0,0,3/27/2020,37.93899289,-118.8872409
California,Monterey,24,0,1,0,3/27/2020,36.21862405,-121.2413397
California,Napa,6,0,0,0,3/27/2020,38.50735751,-122.332839
California,Nevada,8,1,0,0,3/27/2020,39.30394768,-120.7627281
California,Orange,321,65,3,2,3/27/2020,33.70147516,-117.7645998
California,Placer,30,0,1,0,3/27/2020,39.06167234,-120.7240569
California,Plumas,0,0,0,0,3/27/2020,40.00355989,-120.8395236
California,Riverside,149,44,8,0,3/27/2020,33.74314981,-115.9933578
California,Sacramento,164,51,6,1,3/27/2020,38.45106826,-121.3425374
California,San Benito,13,4,1,0,3/27/2020,36.60308176,-121.069975
California,San Bernardino,54,0,3,1,3/27/2020,34.84060306,-116.1774685
California,San Diego,341,48,3,0,3/27/2020,33.03484597,-116.7365326
California,San Joaquin,90,19,3,0,3/27/2020,37.93433732,-121.2730061
California,San Luis Obispo,59,5,0,0,3/27/2020,35.38822029,-120.4039028
California,San Mateo,239,44,6,1,3/27/2020,37.4228808,-122.3275546
California,Santa Barbara,32,6,0,0,3/27/2020,34.65329488,-120.0188492
California,Santa Clara,574,32,20,1,3/27/2020,37.23104908,-121.6970462
California,Santa Cruz,32,7,0,0,3/27/2020,37.05580291,-122.0066524
California,Shasta,3,0,1,0,3/27/2020,40.76391419,-122.0396884
California,Sierra,0,0,0,0,3/27/2020,39.57713498,-120.5200701
California,Siskiyou,3,0,0,0,3/27/2020,41.59198861,-122.5407434
California,Solano,34,3,0,0,3/27/2020,38.26827353,-121.9357113
California,Sonoma,44,7,1,0,3/27/2020,38.52746429,-122.8862506
California,Stanislaus,17,4,0,0,3/27/2020,37.55862499,-120.9970722
California,Sutter,2,0,0,0,3/27/2020,39.03417539,-121.6945899
California,Tehama,0,0,0,0,3/27/2020,40.12570935,-122.2370171
California,Trinity,0,0,0,0,3/27/2020,40.6491767,-123.114713
California,Tulare,20,2,0,0,3/27/2020,36.22026558,-118.8020203
California,Tuolumne,0,0,0,0,3/27/2020,38.02644018,-119.9525093
California,Ventura,61,11,1,0,3/27/2020,34.44465746,-119.0910613
California,Yolo,13,2,1,0,3/27/2020,38.68278902,-121.9018288
California,Yuba,3,0,0,0,3/27/2020,39.26255932,-121.3535644
Indiana,Adams,1,0,0,0,3/27/2020,40.7457653,-84.93671406
Indiana,Allen,21,13,1,0,3/27/2020,41.09194313,-85.06800636
Indiana,Bartholomew,6,0,0,0,3/27/2020,39.20744865,-85.89558181
Indiana,Benton,0,0,0,0,3/27/2020,40.60626947,-87.31093999
Indiana,Blackford,0,0,0,0,3/27/2020,40.47388153,-85.32499702
Indiana,Boone,7,0,0,0,3/27/2020,40.0509304,-86.46841646
Indiana,Brown,2,1,0,0,3/27/2020,39.19605589,-86.22868909
Indiana,Carroll,0,0,0,0,3/27/2020,40.5807832,-86.56198812
Indiana,Cass,0,0,0,0,3/27/2020,40.76135835,-86.34830753
Indiana,Clark,12,2,0,0,3/27/2020,38.48015445,-85.70510334
Indiana,Clay,0,0,0,0,3/27/2020,39.39561833,-87.11723506
Indiana,Clinton,1,1,0,0,3/27/2020,40.30319754,-86.47277257
Indiana,Crawford,0,0,0,0,3/27/2020,38.28814402,-86.44518825
Indiana,Daviess,0,0,0,0,3/27/2020,38.70186039,-87.07185406
Indiana,Dearborn,4,1,1,1,3/27/2020,39.14647946,-84.97333539
Indiana,Decatur,26,13,0,0,3/27/2020,39.30712658,-85.50087166
Indiana,DeKalb,1,0,0,0,3/27/2020,41.39804622,-84.99906934
Indiana,Delaware,8,1,1,0,3/27/2020,40.22787247,-85.39732772
Indiana,Dubois,1,0,0,0,3/27/2020,38.36597551,-86.8792417
Indiana,Elkhart,9,2,0,0,3/27/2020,41.59761169,-85.85875695
Indiana,Fayette,3,0,0,0,3/27/2020,39.63684962,-85.17797541
Indiana,Floyd,11,4,0,0,3/27/2020,38.32117957,-85.90385377
Indiana,Fountain,1,0,0,0,3/27/2020,40.12361933,-87.24217689
Indiana,Franklin,21,8,1,0,3/27/2020,39.4142482,-85.06062647
Indiana,Fulton,1,1,0,0,3/27/2020,41.0469907,-86.26252745
Indiana,Gibson,3,0,0,0,3/27/2020,38.30393723,-87.58054938
Indiana,Grant,5,2,0,0,3/27/2020,40.51587228,-85.65468702
Indiana,Greene,0,0,0,0,3/27/2020,39.03630547,-86.96223202
Indiana,Hamilton,52,12,0,0,3/27/2020,40.07306535,-86.05244729
Indiana,Hancock,13,4,1,0,3/27/2020,39.82304555,-85.77566351
Indiana,Harrison,4,2,0,0,3/27/2020,38.19467379,-86.10948271
Indiana,Hendricks,28,7,2,2,3/27/2020,39.76719009,-86.51037283
Indiana,Henry,1,1,0,0,3/27/2020,39.93029017,-85.39625719
Indiana,Howard,7,1,1,0,3/27/2020,40.48527731,-86.11351892
Indiana,Huntington,1,1,0,0,3/27/2020,40.82907273,-85.48822092
Indiana,Jackson,4,2,0,0,3/27/2020,38.9091582,-86.03851889
Indiana,Jasper,4,1,1,0,3/27/2020,41.02078733,-87.11553319
Indiana,Jay,0,0,0,0,3/27/2020,40.43781032,-85.00576229
Indiana,Jefferson,0,0,0,0,3/27/2020,38.78576239,-85.43633383
Indiana,Jennings,5,1,0,0,3/27/2020,38.99588883,-85.62710784
Indiana,Johnson,42,6,3,0,3/27/2020,39.48994426,-86.10149107
Indiana,Knox,0,0,0,0,3/27/2020,38.68861576,-87.4194665
Indiana,Kosciusko,1,1,0,0,3/27/2020,41.24521668,-85.86312322
Indiana,LaGrange,2,2,0,0,3/27/2020,41.64232188,-85.42674232
Indiana,Lake,47,16,0,0,3/27/2020,41.41874274,-87.38277575
Indiana,LaPorte,2,0,0,0,3/27/2020,41.54366008,-86.74072188
Indiana,Lawrence,5,3,0,0,3/27/2020,38.84112637,-86.48361629
Indiana,Madison,7,3,1,1,3/27/2020,40.16143691,-85.71964711
Indiana,Marion,484,191,8,2,3/27/2020,39.78163624,-86.13826325
Indiana,Marshall,4,3,0,0,3/27/2020,41.32467367,-86.26185087
Indiana,Martin,0,0,0,0,3/27/2020,38.7099921,-86.80373186
Indiana,Miami,1,0,0,0,3/27/2020,40.76940965,-86.04525048
Indiana,Monroe,8,2,0,0,3/27/2020,39.16130004,-86.52414358
Indiana,Montgomery,3,1,0,0,3/27/2020,40.04034823,-86.89335024
Indiana,Morgan,10,3,0,0,3/27/2020,39.47899078,-86.44573375
Indiana,Newton,0,0,0,0,3/27/2020,40.95610449,-87.39635768
Indiana,Noble,1,0,0,0,3/27/2020,41.39672484,-85.41966713
Indiana,Ohio,1,0,0,0,3/27/2020,38.955305,-84.96515993
Indiana,Orange,1,0,0,0,3/27/2020,38.5411892,-86.49523093
Indiana,Owen,5,1,0,0,3/27/2020,39.31145587,-86.83900724
Indiana,Parke,0,0,0,0,3/27/2020,39.77202286,-87.20375833
Indiana,Perry,0,0,0,0,3/27/2020,38.07809328,-86.63741946
Indiana,Pike,0,0,0,0,3/27/2020,38.40112197,-87.23574907
Indiana,Porter,6,1,0,0,3/27/2020,41.45986947,-87.06848888
Indiana,Posey,1,0,0,0,3/27/2020,38.02097333,-87.86480429
Indiana,Pulaski,0,0,0,0,3/27/2020,41.04166107,-86.69890683
Indiana,Putnam,2,0,1,0,3/27/2020,39.66437981,-86.84517605
Indiana,Randolph,0,0,0,0,3/27/2020,40.15734772,-85.01139319
Indiana,Ripley,14,3,0,0,3/27/2020,39.10235626,-85.26212744
Indiana,Rush,3,2,0,0,3/27/2020,39.62002287,-85.4655599
Indiana,St. Joseph,27,6,1,1,3/27/2020,41.61756781,-86.29040834
Indiana,Scott,1,0,1,0,3/27/2020,38.68672078,-85.74627859
Indiana,Shelby,6,4,0,0,3/27/2020,39.52305623,-85.7915857
Indiana,Spencer,0,0,0,0,3/27/2020,38.01519732,-87.0079644
Indiana,Starke,1,0,0,0,3/27/2020,41.27890281,-86.64686895
Indiana,Steuben,0,0,0,0,3/27/2020,41.64423868,-85.00101094
Indiana,Sullivan,1,0,0,0,3/27/2020,39.08952258,-87.41414469
Indiana,Switzerland,0,0,0,0,3/27/2020,38.82767338,-85.03022429
Indiana,Tippecanoe,8,1,1,1,3/27/2020,40.38872739,-86.89413959
Indiana,Tipton,2,0,0,0,3/27/2020,40.31123252,-86.05234925
Indiana,Union,0,0,0,0,3/27/2020,39.62550777,-84.92497066
Indiana,Vanderburgh,6,2,0,0,3/27/2020,38.02658833,-87.58763124
Indiana,Vermillion,0,0,0,0,3/27/2020,39.8523352,-87.46160542
Indiana,Vigo,3,0,0,0,3/27/2020,39.42944561,-87.39169027
Indiana,Wabash,1,1,0,0,3/27/2020,40.84704239,-85.79328272
Indiana,Warren,1,0,0,0,3/27/2020,40.34728141,-87.35602659
Indiana,Warrick,3,0,0,0,3/27/2020,38.08922676,-87.2716085
Indiana,Washington,4,1,0,0,3/27/2020,38.60219804,-86.1049363
Indiana,Wayne,1,0,0,0,3/27/2020,39.8633444,-85.01044989
Indiana,Wells,1,0,0,0,3/27/2020,40.72934187,-85.22132966
Indiana,White,0,0,0,0,3/27/2020,40.74911165,-86.86492015
Indiana,Whitley,0,0,0,0,3/27/2020,41.13863784,-85.50791236
California,Alameda,220,0,4,0,3/28/2020,37.64629437,-121.8929271
California,Alpine,0,0,0,0,3/28/2020,38.59678594,-119.8223594
California,Amador,2,0,0,0,3/28/2020,38.44583082,-120.65696
California,Butte,5,0,0,0,3/28/2020,39.66727762,-121.6005252
California,Calaveras,3,0,0,0,3/28/2020,38.20537103,-120.552913
California,Colusa,1,1,0,0,3/28/2020,39.17881957,-122.2331726
California,Contra Costa,168,21,2,1,3/28/2020,37.91923498,-121.9289527
California,Del Norte,0,0,0,0,3/28/2020,41.74228275,-123.8974063
California,El Dorado,12,3,0,0,3/28/2020,38.77965956,-120.5233166
California,Fresno,31,4,0,0,3/28/2020,36.75733899,-119.6466953
California,Glenn,0,0,0,0,3/28/2020,39.59875897,-122.3938452
California,Humboldt,14,2,0,0,3/28/2020,40.69923009,-123.876044
California,Imperial,21,4,0,0,3/28/2020,33.0393082,-115.3669042
California,Inyo,5,2,0,0,3/28/2020,36.51112084,-117.4111978
California,Kern,47,14,1,0,3/28/2020,35.34329425,-118.7277796
California,Kings,2,2,0,0,3/28/2020,36.07409056,-119.8159973
California,Lake,0,0,0,0,3/28/2020,39.10124298,-122.7536244
California,Lassen,0,0,0,0,3/28/2020,40.67311306,-120.5935099
California,Los Angeles,1465,0,26,0,3/28/2020,34.30828379,-118.2282411
California,Madera,11,1,1,1,3/28/2020,37.21513971,-119.7665589
California,Marin,68,3,1,1,3/28/2020,38.07122463,-122.7210631
California,Mariposa,0,0,0,0,3/28/2020,37.57978556,-119.9073334
California,Mendocino,2,0,0,0,3/28/2020,39.4381191,-123.3911313
California,Merced,7,3,0,0,3/28/2020,37.18922369,-120.7209035
California,Modoc,0,0,0,0,3/28/2020,41.58965602,-120.7244817
California,Mono,8,2,0,0,3/28/2020,37.93899289,-118.8872409
California,Monterey,32,8,1,0,3/28/2020,36.21862405,-121.2413397
California,Napa,9,3,0,0,3/28/2020,38.50735751,-122.332839
California,Nevada,12,4,0,0,3/28/2020,39.30394768,-120.7627281
California,Orange,403,82,4,1,3/28/2020,33.70147516,-117.7645998
California,Placer,41,11,1,0,3/28/2020,39.06167234,-120.7240569
California,Plumas,0,0,0,0,3/28/2020,40.00355989,-120.8395236
California,Riverside,183,34,8,0,3/28/2020,33.74314981,-115.9933578
California,Sacramento,164,0,6,0,3/28/2020,38.45106826,-121.3425374
California,San Benito,14,1,1,0,3/28/2020,36.60308176,-121.069975
California,San Bernardino,76,22,3,0,3/28/2020,34.84060306,-116.1774685
California,San Diego,413,72,6,3,3/28/2020,33.03484597,-116.7365326
California,San Joaquin,93,3,4,1,3/28/2020,37.93433732,-121.2730061
California,San Luis Obispo,67,8,0,0,3/28/2020,35.38822029,-120.4039028
California,San Mateo,274,35,6,0,3/28/2020,37.4228808,-122.3275546
California,Santa Barbara,47,15,0,0,3/28/2020,34.65329488,-120.0188492
California,Santa Clara,591,17,25,5,3/28/2020,37.23104908,-121.6970462
California,Santa Cruz,34,2,0,0,3/28/2020,37.05580291,-122.0066524
California,Shasta,3,0,1,0,3/28/2020,40.76391419,-122.0396884
California,Sierra,0,0,0,0,3/28/2020,39.57713498,-120.5200701
California,Siskiyou,3,0,0,0,3/28/2020,41.59198861,-122.5407434
California,Solano,34,0,0,0,3/28/2020,38.26827353,-121.9357113
California,Sonoma,50,6,1,0,3/28/2020,38.52746429,-122.8862506
California,Stanislaus,23,6,0,0,3/28/2020,37.55862499,-120.9970722
California,Sutter,3,1,0,0,3/28/2020,39.03417539,-121.6945899
California,Tehama,0,0,0,0,3/28/2020,40.12570935,-122.2370171
California,Trinity,0,0,0,0,3/28/2020,40.6491767,-123.114713
California,Tulare,24,4,0,0,3/28/2020,36.22026558,-118.8020203
California,Tuolumne,0,0,0,0,3/28/2020,38.02644018,-119.9525093
California,Ventura,83,22,3,2,3/28/2020,34.44465746,-119.0910613
California,Yolo,16,3,1,0,3/28/2020,38.68278902,-121.9018288
California,Yuba,3,0,0,0,3/28/2020,39.26255932,-121.3535644
Indiana,Adams,1,0,0,0,3/28/2020,40.7457653,-84.93671406
Indiana,Allen,23,2,1,0,3/28/2020,41.09194313,-85.06800636
Indiana,Bartholomew,7,1,0,0,3/28/2020,39.20744865,-85.89558181
Indiana,Benton,0,0,0,0,3/28/2020,40.60626947,-87.31093999
Indiana,Blackford,0,0,0,0,3/28/2020,40.47388153,-85.32499702
Indiana,Boone,8,1,0,0,3/28/2020,40.0509304,-86.46841646
Indiana,Brown,2,0,0,0,3/28/2020,39.19605589,-86.22868909
Indiana,Carroll,1,1,0,0,3/28/2020,40.5807832,-86.56198812
Indiana,Cass,0,0,0,0,3/28/2020,40.76135835,-86.34830753
Indiana,Clark,18,6,0,0,3/28/2020,38.48015445,-85.70510334
Indiana,Clay,0,0,0,0,3/28/2020,39.39561833,-87.11723506
Indiana,Clinton,1,0,0,0,3/28/2020,40.30319754,-86.47277257
Indiana,Crawford,1,1,0,0,3/28/2020,38.28814402,-86.44518825
Indiana,Daviess,0,0,0,0,3/28/2020,38.70186039,-87.07185406
Indiana,Dearborn,8,4,1,0,3/28/2020,39.14647946,-84.97333539
Indiana,Decatur,30,4,0,0,3/28/2020,39.30712658,-85.50087166
Indiana,DeKalb,1,0,0,0,3/28/2020,41.39804622,-84.99906934
Indiana,Delaware,8,0,1,0,3/28/2020,40.22787247,-85.39732772
Indiana,Dubois,1,0,0,0,3/28/2020,38.36597551,-86.8792417
Indiana,Elkhart,11,2,0,0,3/28/2020,41.59761169,-85.85875695
Indiana,Fayette,4,1,1,1,3/28/2020,39.63684962,-85.17797541
Indiana,Floyd,13,2,0,0,3/28/2020,38.32117957,-85.90385377
Indiana,Fountain,1,0,0,0,3/28/2020,40.12361933,-87.24217689
Indiana,Franklin,23,2,2,1,3/28/2020,39.4142482,-85.06062647
Indiana,Fulton,1,0,0,0,3/28/2020,41.0469907,-86.26252745
Indiana,Gibson,4,1,0,0,3/28/2020,38.30393723,-87.58054938
Indiana,Grant,5,0,0,0,3/28/2020,40.51587228,-85.65468702
Indiana,Greene,0,0,0,0,3/28/2020,39.03630547,-86.96223202
Indiana,Hamilton,64,12,0,0,3/28/2020,40.07306535,-86.05244729
Indiana,Hancock,19,6,1,0,3/28/2020,39.82304555,-85.77566351
Indiana,Harrison,7,3,0,0,3/28/2020,38.19467379,-86.10948271
Indiana,Hendricks,36,8,2,0,3/28/2020,39.76719009,-86.51037283
Indiana,Henry,1,0,0,0,3/28/2020,39.93029017,-85.39625719
Indiana,Howard,9,2,1,0,3/28/2020,40.48527731,-86.11351892
Indiana,Huntington,1,0,0,0,3/28/2020,40.82907273,-85.48822092
Indiana,Jackson,7,3,0,0,3/28/2020,38.9091582,-86.03851889
Indiana,Jasper,5,1,1,0,3/28/2020,41.02078733,-87.11553319
Indiana,Jay,0,0,0,0,3/28/2020,40.43781032,-85.00576229
Indiana,Jefferson,0,0,0,0,3/28/2020,38.78576239,-85.43633383
Indiana,Jennings,10,5,0,0,3/28/2020,38.99588883,-85.62710784
Indiana,Johnson,52,10,3,0,3/28/2020,39.48994426,-86.10149107
Indiana,Knox,0,0,0,0,3/28/2020,38.68861576,-87.4194665
Indiana,Kosciusko,2,1,0,0,3/28/2020,41.24521668,-85.86312322
Indiana,LaGrange,2,0,0,0,3/28/2020,41.64232188,-85.42674232
Indiana,Lake,68,21,1,1,3/28/2020,41.41874274,-87.38277575
Indiana,LaPorte,4,2,0,0,3/28/2020,41.54366008,-86.74072188
Indiana,Lawrence,5,0,0,0,3/28/2020,38.84112637,-86.48361629
Indiana,Madison,12,5,1,0,3/28/2020,40.16143691,-85.71964711
Indiana,Marion,584,100,10,2,3/28/2020,39.78163624,-86.13826325
Indiana,Marshall,3,-1,0,0,3/28/2020,41.32467367,-86.26185087
Indiana,Martin,0,0,0,0,3/28/2020,38.7099921,-86.80373186
Indiana,Miami,1,0,0,0,3/28/2020,40.76940965,-86.04525048
Indiana,Monroe,16,8,0,0,3/28/2020,39.16130004,-86.52414358
Indiana,Montgomery,4,1,0,0,3/28/2020,40.04034823,-86.89335024
Indiana,Morgan,14,4,0,0,3/28/2020,39.47899078,-86.44573375
Indiana,Newton,1,1,0,0,3/28/2020,40.95610449,-87.39635768
Indiana,Noble,2,1,0,0,3/28/2020,41.39672484,-85.41966713
Indiana,Ohio,1,0,0,0,3/28/2020,38.955305,-84.96515993
Indiana,Orange,1,0,0,0,3/28/2020,38.5411892,-86.49523093
Indiana,Owen,7,2,0,0,3/28/2020,39.31145587,-86.83900724
Indiana,Parke,0,0,0,0,3/28/2020,39.77202286,-87.20375833
Indiana,Perry,0,0,0,0,3/28/2020,38.07809328,-86.63741946
Indiana,Pike,0,0,0,0,3/28/2020,38.40112197,-87.23574907
Indiana,Porter,9,3,0,0,3/28/2020,41.45986947,-87.06848888
Indiana,Posey,2,1,0,0,3/28/2020,38.02097333,-87.86480429
Indiana,Pulaski,0,0,0,0,3/28/2020,41.04166107,-86.69890683
Indiana,Putnam,5,3,1,0,3/28/2020,39.66437981,-86.84517605
Indiana,Randolph,1,1,0,0,3/28/2020,40.15734772,-85.01139319
Indiana,Ripley,15,1,0,0,3/28/2020,39.10235626,-85.26212744
Indiana,Rush,3,0,0,0,3/28/2020,39.62002287,-85.4655599
Indiana,St. Joseph,31,4,1,0,3/28/2020,41.61756781,-86.29040834
Indiana,Scott,1,0,1,0,3/28/2020,38.68672078,-85.74627859
Indiana,Shelby,10,4,0,0,3/28/2020,39.52305623,-85.7915857
Indiana,Spencer,0,0,0,0,3/28/2020,38.01519732,-87.0079644
Indiana,Starke,1,0,0,0,3/28/2020,41.27890281,-86.64686895
Indiana,Steuben,0,0,0,0,3/28/2020,41.64423868,-85.00101094
Indiana,Sullivan,1,0,0,0,3/28/2020,39.08952258,-87.41414469
Indiana,Switzerland,1,1,0,0,3/28/2020,38.82767338,-85.03022429
Indiana,Tippecanoe,11,3,1,0,3/28/2020,40.38872739,-86.89413959
Indiana,Tipton,2,0,0,0,3/28/2020,40.31123252,-86.05234925
Indiana,Union,0,0,0,0,3/28/2020,39.62550777,-84.92497066
Indiana,Vanderburgh,10,4,0,0,3/28/2020,38.02658833,-87.58763124
Indiana,Vermillion,0,0,0,0,3/28/2020,39.8523352,-87.46160542
Indiana,Vigo,4,1,1,1,3/28/2020,39.42944561,-87.39169027
Indiana,Wabash,1,0,0,0,3/28/2020,40.84704239,-85.79328272
Indiana,Warren,1,0,0,0,3/28/2020,40.34728141,-87.35602659
Indiana,Warrick,6,3,0,0,3/28/2020,38.08922676,-87.2716085
Indiana,Washington,4,0,0,0,3/28/2020,38.60219804,-86.1049363
Indiana,Wayne,1,0,0,0,3/28/2020,39.8633444,-85.01044989
Indiana,Wells,1,0,0,0,3/28/2020,40.72934187,-85.22132966
Indiana,White,1,1,0,0,3/28/2020,40.74911165,-86.86492015
Indiana,Whitley,1,1,0,0,3/28/2020,41.13863784,-85.50791236
California,Alameda,270,50,6,2,3/29/2020,37.64629437,-121.8929271
California,Alpine,0,0,0,0,3/29/2020,38.59678594,-119.8223594
California,Amador,2,0,0,0,3/29/2020,38.44583082,-120.65696
California,Butte,5,0,0,0,3/29/2020,39.66727762,-121.6005252
California,Calaveras,3,0,0,0,3/29/2020,38.20537103,-120.552913
California,Colusa,1,0,0,0,3/29/2020,39.17881957,-122.2331726
California,Contra Costa,168,0,3,1,3/29/2020,37.91923498,-121.9289527
California,Del Norte,0,0,0,0,3/29/2020,41.74228275,-123.8974063
California,El Dorado,12,0,0,0,3/29/2020,38.77965956,-120.5233166
California,Fresno,43,12,0,0,3/29/2020,36.75733899,-119.6466953
California,Glenn,1,1,0,0,3/29/2020,39.59875897,-122.3938452
California,Humboldt,18,4,0,0,3/29/2020,40.69923009,-123.876044
California,Imperial,25,4,0,0,3/29/2020,33.0393082,-115.3669042
California,Inyo,8,3,0,0,3/29/2020,36.51112084,-117.4111978
California,Kern,51,4,1,0,3/29/2020,35.34329425,-118.7277796
California,Kings,2,0,0,0,3/29/2020,36.07409056,-119.8159973
California,Lake,0,0,0,0,3/29/2020,39.10124298,-122.7536244
California,Lassen,0,0,0,0,3/29/2020,40.67311306,-120.5935099
California,Los Angeles,1829,364,32,6,3/29/2020,34.30828379,-118.2282411
California,Madera,15,4,1,0,3/29/2020,37.21513971,-119.7665589
California,Marin,74,6,1,0,3/29/2020,38.07122463,-122.7210631
California,Mariposa,0,0,0,0,3/29/2020,37.57978556,-119.9073334
California,Mendocino,3,1,0,0,3/29/2020,39.4381191,-123.3911313
California,Merced,8,1,0,0,3/29/2020,37.18922369,-120.7209035
California,Modoc,0,0,0,0,3/29/2020,41.58965602,-120.7244817
California,Mono,11,3,0,0,3/29/2020,37.93899289,-118.8872409
California,Monterey,36,4,1,0,3/29/2020,36.21862405,-121.2413397
California,Napa,10,1,0,0,3/29/2020,38.50735751,-122.332839
California,Nevada,12,0,0,0,3/29/2020,39.30394768,-120.7627281
California,Orange,431,28,4,0,3/29/2020,33.70147516,-117.7645998
California,Placer,53,12,2,1,3/29/2020,39.06167234,-120.7240569
California,Plumas,0,0,0,0,3/29/2020,40.00355989,-120.8395236
California,Riverside,195,12,8,0,3/29/2020,33.74314981,-115.9933578
California,Sacramento,164,0,6,0,3/29/2020,38.45106826,-121.3425374
California,San Benito,14,0,1,0,3/29/2020,36.60308176,-121.069975
California,San Bernardino,76,0,3,0,3/29/2020,34.84060306,-116.1774685
California,San Diego,484,71,7,1,3/29/2020,33.03484597,-116.7365326
California,San Joaquin,113,20,4,0,3/29/2020,37.93433732,-121.2730061
California,San Luis Obispo,67,0,0,0,3/29/2020,35.38822029,-120.4039028
California,San Mateo,277,3,6,0,3/29/2020,37.4228808,-122.3275546
California,Santa Barbara,64,17,0,0,3/29/2020,34.65329488,-120.0188492
California,Santa Clara,646,55,25,0,3/29/2020,37.23104908,-121.6970462
California,Santa Cruz,41,7,1,1,3/29/2020,37.05580291,-122.0066524
California,Shasta,4,1,1,0,3/29/2020,40.76391419,-122.0396884
California,Sierra,0,0,0,0,3/29/2020,39.57713498,-120.5200701
California,Siskiyou,3,0,0,0,3/29/2020,41.59198861,-122.5407434
California,Solano,34,0,0,0,3/29/2020,38.26827353,-121.9357113
California,Sonoma,58,8,1,0,3/29/2020,38.52746429,-122.8862506
California,Stanislaus,29,6,0,0,3/29/2020,37.55862499,-120.9970722
California,Sutter,6,3,0,0,3/29/2020,39.03417539,-121.6945899
California,Tehama,0,0,0,0,3/29/2020,40.12570935,-122.2370171
California,Trinity,0,0,0,0,3/29/2020,40.6491767,-123.114713
California,Tulare,29,5,1,1,3/29/2020,36.22026558,-118.8020203
California,Tuolumne,0,0,0,0,3/29/2020,38.02644018,-119.9525093
California,Ventura,98,15,3,0,3/29/2020,34.44465746,-119.0910613
California,Yolo,16,0,1,0,3/29/2020,38.68278902,-121.9018288
California,Yuba,3,0,0,0,3/29/2020,39.26255932,-121.3535644
Indiana,Adams,1,0,0,0,3/29/2020,40.7457653,-84.93671406
Indiana,Allen,26,3,1,0,3/29/2020,41.09194313,-85.06800636
Indiana,Bartholomew,10,3,0,0,3/29/2020,39.20744865,-85.89558181
Indiana,Benton,0,0,0,0,3/29/2020,40.60626947,-87.31093999
Indiana,Blackford,0,0,0,0,3/29/2020,40.47388153,-85.32499702
Indiana,Boone,13,5,0,0,3/29/2020,40.0509304,-86.46841646
Indiana,Brown,3,1,0,0,3/29/2020,39.19605589,-86.22868909
Indiana,Carroll,1,0,0,0,3/29/2020,40.5807832,-86.56198812
Indiana,Cass,0,0,0,0,3/29/2020,40.76135835,-86.34830753
Indiana,Clark,20,2,0,0,3/29/2020,38.48015445,-85.70510334
Indiana,Clay,1,1,0,0,3/29/2020,39.39561833,-87.11723506
Indiana,Clinton,1,0,0,0,3/29/2020,40.30319754,-86.47277257
Indiana,Crawford,1,0,0,0,3/29/2020,38.28814402,-86.44518825
Indiana,Daviess,0,0,0,0,3/29/2020,38.70186039,-87.07185406
Indiana,Dearborn,10,2,1,0,3/29/2020,39.14647946,-84.97333539
Indiana,Decatur,40,10,0,0,3/29/2020,39.30712658,-85.50087166
Indiana,DeKalb,1,0,0,0,3/29/2020,41.39804622,-84.99906934
Indiana,Delaware,14,6,1,0,3/29/2020,40.22787247,-85.39732772
Indiana,Dubois,2,1,0,0,3/29/2020,38.36597551,-86.8792417
Indiana,Elkhart,12,1,0,0,3/29/2020,41.59761169,-85.85875695
Indiana,Fayette,5,1,1,0,3/29/2020,39.63684962,-85.17797541
Indiana,Floyd,14,1,0,0,3/29/2020,38.32117957,-85.90385377
Indiana,Fountain,1,0,0,0,3/29/2020,40.12361933,-87.24217689
Indiana,Franklin,26,3,2,0,3/29/2020,39.4142482,-85.06062647
Indiana,Fulton,1,0,0,0,3/29/2020,41.0469907,-86.26252745
Indiana,Gibson,4,0,0,0,3/29/2020,38.30393723,-87.58054938
Indiana,Grant,7,2,0,0,3/29/2020,40.51587228,-85.65468702
Indiana,Greene,1,1,0,0,3/29/2020,39.03630547,-86.96223202
Indiana,Hamilton,83,19,0,0,3/29/2020,40.07306535,-86.05244729
Indiana,Hancock,22,3,1,0,3/29/2020,39.82304555,-85.77566351
Indiana,Harrison,14,7,0,0,3/29/2020,38.19467379,-86.10948271
Indiana,Hendricks,48,12,2,0,3/29/2020,39.76719009,-86.51037283
Indiana,Henry,2,1,0,0,3/29/2020,39.93029017,-85.39625719
Indiana,Howard,12,3,1,0,3/29/2020,40.48527731,-86.11351892
Indiana,Huntington,1,0,0,0,3/29/2020,40.82907273,-85.48822092
Indiana,Jackson,7,0,0,0,3/29/2020,38.9091582,-86.03851889
Indiana,Jasper,6,1,1,0,3/29/2020,41.02078733,-87.11553319
Indiana,Jay,0,0,0,0,3/29/2020,40.43781032,-85.00576229
Indiana,Jefferson,0,0,0,0,3/29/2020,38.78576239,-85.43633383
Indiana,Jennings,13,3,0,0,3/29/2020,38.99588883,-85.62710784
Indiana,Johnson,71,19,3,0,3/29/2020,39.48994426,-86.10149107
Indiana,Knox,2,2,0,0,3/29/2020,38.68861576,-87.4194665
Indiana,Kosciusko,3,1,0,0,3/29/2020,41.24521668,-85.86312322
Indiana,LaGrange,2,0,0,0,3/29/2020,41.64232188,-85.42674232
Indiana,Lake,85,17,1,0,3/29/2020,41.41874274,-87.38277575
Indiana,LaPorte,6,2,0,0,3/29/2020,41.54366008,-86.74072188
Indiana,Lawrence,8,3,0,0,3/29/2020,38.84112637,-86.48361629
Indiana,Madison,18,6,1,0,3/29/2020,40.16143691,-85.71964711
Indiana,Marion,676,92,10,0,3/29/2020,39.78163624,-86.13826325
Indiana,Marshall,3,0,0,0,3/29/2020,41.32467367,-86.26185087
Indiana,Martin,0,0,0,0,3/29/2020,38.7099921,-86.80373186
Indiana,Miami,1,0,0,0,3/29/2020,40.76940965,-86.04525048
Indiana,Monroe,22,6,0,0,3/29/2020,39.16130004,-86.52414358
Indiana,Montgomery,5,1,0,0,3/29/2020,40.04034823,-86.89335024
Indiana,Morgan,20,6,1,1,3/29/2020,39.47899078,-86.44573375
Indiana,Newton,1,0,0,0,3/29/2020,40.95610449,-87.39635768
Indiana,Noble,2,0,0,0,3/29/2020,41.39672484,-85.41966713
Indiana,Ohio,1,0,0,0,3/29/2020,38.955305,-84.96515993
Indiana,Orange,1,0,0,0,3/29/2020,38.5411892,-86.49523093
Indiana,Owen,9,2,0,0,3/29/2020,39.31145587,-86.83900724
Indiana,Parke,0,0,0,0,3/29/2020,39.77202286,-87.20375833
Indiana,Perry,0,0,0,0,3/29/2020,38.07809328,-86.63741946
Indiana,Pike,0,0,0,0,3/29/2020,38.40112197,-87.23574907
Indiana,Porter,14,5,0,0,3/29/2020,41.45986947,-87.06848888
Indiana,Posey,3,1,0,0,3/29/2020,38.02097333,-87.86480429
Indiana,Pulaski,0,0,0,0,3/29/2020,41.04166107,-86.69890683
Indiana,Putnam,5,0,1,0,3/29/2020,39.66437981,-86.84517605
Indiana,Randolph,1,0,0,0,3/29/2020,40.15734772,-85.01139319
Indiana,Ripley,19,4,0,0,3/29/2020,39.10235626,-85.26212744
Indiana,Rush,2,-1,0,0,3/29/2020,39.62002287,-85.4655599
Indiana,St. Joseph,32,1,1,0,3/29/2020,41.61756781,-86.29040834
Indiana,Scott,1,0,1,0,3/29/2020,38.68672078,-85.74627859
Indiana,Shelby,12,2,0,0,3/29/2020,39.52305623,-85.7915857
Indiana,Spencer,0,0,0,0,3/29/2020,38.01519732,-87.0079644
Indiana,Starke,1,0,0,0,3/29/2020,41.27890281,-86.64686895
Indiana,Steuben,1,1,0,0,3/29/2020,41.64423868,-85.00101094
Indiana,Sullivan,1,0,0,0,3/29/2020,39.08952258,-87.41414469
Indiana,Switzerland,3,2,0,0,3/29/2020,38.82767338,-85.03022429
Indiana,Tippecanoe,11,0,1,0,3/29/2020,40.38872739,-86.89413959
Indiana,Tipton,4,2,0,0,3/29/2020,40.31123252,-86.05234925
Indiana,Union,0,0,0,0,3/29/2020,39.62550777,-84.92497066
Indiana,Vanderburgh,17,7,0,0,3/29/2020,38.02658833,-87.58763124
Indiana,Vermillion,0,0,0,0,3/29/2020,39.8523352,-87.46160542
Indiana,Vigo,7,3,1,0,3/29/2020,39.42944561,-87.39169027
Indiana,Wabash,1,0,0,0,3/29/2020,40.84704239,-85.79328272
Indiana,Warren,2,1,0,0,3/29/2020,40.34728141,-87.35602659
Indiana,Warrick,8,2,0,0,3/29/2020,38.08922676,-87.2716085
Indiana,Washington,5,1,0,0,3/29/2020,38.60219804,-86.1049363
Indiana,Wayne,1,0,0,0,3/29/2020,39.8633444,-85.01044989
Indiana,Wells,1,0,0,0,3/29/2020,40.72934187,-85.22132966
Indiana,White,1,0,0,0,3/29/2020,40.74911165,-86.86492015
Indiana,Whitley,1,0,0,0,3/29/2020,41.13863784,-85.50791236
California,Alameda,283,13,7,1,3/30/2020,37.64629437,-121.8929271
California,Alpine,0,0,0,0,3/30/2020,38.59678594,-119.8223594
California,Amador,2,0,0,0,3/30/2020,38.44583082,-120.65696
California,Butte,5,0,0,0,3/30/2020,39.66727762,-121.6005252
California,Calaveras,3,0,0,0,3/30/2020,38.20537103,-120.552913
California,Colusa,1,0,0,0,3/30/2020,39.17881957,-122.2331726
California,Contra Costa,187,19,3,0,3/30/2020,37.91923498,-121.9289527
California,Del Norte,0,0,0,0,3/30/2020,41.74228275,-123.8974063
California,El Dorado,12,0,0,0,3/30/2020,38.77965956,-120.5233166
California,Fresno,43,0,0,0,3/30/2020,36.75733899,-119.6466953
California,Glenn,1,0,0,0,3/30/2020,39.59875897,-122.3938452
California,Humboldt,18,0,0,0,3/30/2020,40.69923009,-123.876044
California,Imperial,25,0,0,0,3/30/2020,33.0393082,-115.3669042
California,Inyo,8,0,0,0,3/30/2020,36.51112084,-117.4111978
California,Kern,60,9,1,0,3/30/2020,35.34329425,-118.7277796
California,Kings,2,0,0,0,3/30/2020,36.07409056,-119.8159973
California,Lake,0,0,0,0,3/30/2020,39.10124298,-122.7536244
California,Lassen,0,0,0,0,3/30/2020,40.67311306,-120.5935099
California,Los Angeles,2474,645,44,12,3/30/2020,34.30828379,-118.2282411
California,Madera,18,3,1,0,3/30/2020,37.21513971,-119.7665589
California,Marin,93,19,1,0,3/30/2020,38.07122463,-122.7210631
California,Mariposa,0,0,0,0,3/30/2020,37.57978556,-119.9073334
California,Mendocino,4,1,0,0,3/30/2020,39.4381191,-123.3911313
California,Merced,9,1,0,0,3/30/2020,37.18922369,-120.7209035
California,Modoc,0,0,0,0,3/30/2020,41.58965602,-120.7244817
California,Mono,13,2,0,0,3/30/2020,37.93899289,-118.8872409
California,Monterey,36,0,1,0,3/30/2020,36.21862405,-121.2413397
California,Napa,14,4,0,0,3/30/2020,38.50735751,-122.332839
California,Nevada,17,5,0,0,3/30/2020,39.30394768,-120.7627281
California,Orange,464,33,4,0,3/30/2020,33.70147516,-117.7645998
California,Placer,53,0,2,0,3/30/2020,39.06167234,-120.7240569
California,Plumas,0,0,0,0,3/30/2020,40.00355989,-120.8395236
California,Riverside,291,96,9,1,3/30/2020,33.74314981,-115.9933578
California,Sacramento,224,60,7,1,3/30/2020,38.45106826,-121.3425374
California,San Benito,14,0,1,0,3/30/2020,36.60308176,-121.069975
California,San Bernardino,111,35,3,0,3/30/2020,34.84060306,-116.1774685
California,San Diego,515,31,7,0,3/30/2020,33.03484597,-116.7365326
California,San Joaquin,123,10,6,2,3/30/2020,37.93433732,-121.2730061
California,San Luis Obispo,71,4,0,0,3/30/2020,35.38822029,-120.4039028
California,San Mateo,309,32,6,0,3/30/2020,37.4228808,-122.3275546
California,Santa Barbara,68,4,0,0,3/30/2020,34.65329488,-120.0188492
California,Santa Clara,848,202,28,3,3/30/2020,37.23104908,-121.6970462
California,Santa Cruz,44,3,1,0,3/30/2020,37.05580291,-122.0066524
California,Shasta,4,0,1,0,3/30/2020,40.76391419,-122.0396884
California,Sierra,0,0,0,0,3/30/2020,39.57713498,-120.5200701
California,Siskiyou,4,1,0,0,3/30/2020,41.59198861,-122.5407434
California,Solano,34,0,0,0,3/30/2020,38.26827353,-121.9357113
California,Sonoma,58,0,1,0,3/30/2020,38.52746429,-122.8862506
California,Stanislaus,31,2,0,0,3/30/2020,37.55862499,-120.9970722
California,Sutter,6,0,0,0,3/30/2020,39.03417539,-121.6945899
California,Tehama,0,0,0,0,3/30/2020,40.12570935,-122.2370171
California,Trinity,0,0,0,0,3/30/2020,40.6491767,-123.114713
California,Tulare,35,6,1,0,3/30/2020,36.22026558,-118.8020203
California,Tuolumne,0,0,0,0,3/30/2020,38.02644018,-119.9525093
California,Ventura,109,11,4,1,3/30/2020,34.44465746,-119.0910613
California,Yolo,16,0,1,0,3/30/2020,38.68278902,-121.9018288
California,Yuba,4,1,0,0,3/30/2020,39.26255932,-121.3535644
Indiana,Adams,1,0,0,0,3/30/2020,40.7457653,-84.93671406
Indiana,Allen,28,2,1,0,3/30/2020,41.09194313,-85.06800636
Indiana,Bartholomew,10,0,0,0,3/30/2020,39.20744865,-85.89558181
Indiana,Benton,0,0,0,0,3/30/2020,40.60626947,-87.31093999
Indiana,Blackford,0,0,0,0,3/30/2020,40.47388153,-85.32499702
Indiana,Boone,20,7,0,0,3/30/2020,40.0509304,-86.46841646
Indiana,Brown,3,0,0,0,3/30/2020,39.19605589,-86.22868909
Indiana,Carroll,2,1,0,0,3/30/2020,40.5807832,-86.56198812
Indiana,Cass,1,1,0,0,3/30/2020,40.76135835,-86.34830753
Indiana,Clark,27,7,0,0,3/30/2020,38.48015445,-85.70510334
Indiana,Clay,1,0,0,0,3/30/2020,39.39561833,-87.11723506
Indiana,Clinton,1,0,0,0,3/30/2020,40.30319754,-86.47277257
Indiana,Crawford,1,0,0,0,3/30/2020,38.28814402,-86.44518825
Indiana,Daviess,0,0,0,0,3/30/2020,38.70186039,-87.07185406
Indiana,Dearborn,10,0,1,0,3/30/2020,39.14647946,-84.97333539
Indiana,Decatur,42,2,0,0,3/30/2020,39.30712658,-85.50087166
Indiana,DeKalb,1,0,0,0,3/30/2020,41.39804622,-84.99906934
Indiana,Delaware,15,1,1,0,3/30/2020,40.22787247,-85.39732772
Indiana,Dubois,2,0,0,0,3/30/2020,38.36597551,-86.8792417
Indiana,Elkhart,12,0,0,0,3/30/2020,41.59761169,-85.85875695
Indiana,Fayette,8,3,1,0,3/30/2020,39.63684962,-85.17797541
Indiana,Floyd,20,6,0,0,3/30/2020,38.32117957,-85.90385377
Indiana,Fountain,1,0,0,0,3/30/2020,40.12361933,-87.24217689
Indiana,Franklin,28,2,4,2,3/30/2020,39.4142482,-85.06062647
Indiana,Fulton,1,0,0,0,3/30/2020,41.0469907,-86.26252745
Indiana,Gibson,4,0,0,0,3/30/2020,38.30393723,-87.58054938
Indiana,Grant,7,0,0,0,3/30/2020,40.51587228,-85.65468702
Indiana,Greene,1,0,0,0,3/30/2020,39.03630547,-86.96223202
Indiana,Hamilton,106,23,0,0,3/30/2020,40.07306535,-86.05244729
Indiana,Hancock,28,6,1,0,3/30/2020,39.82304555,-85.77566351
Indiana,Harrison,15,1,0,0,3/30/2020,38.19467379,-86.10948271
Indiana,Hendricks,58,10,1,-1,3/30/2020,39.76719009,-86.51037283
Indiana,Henry,2,0,0,0,3/30/2020,39.93029017,-85.39625719
Indiana,Howard,14,2,1,0,3/30/2020,40.48527731,-86.11351892
Indiana,Huntington,2,1,0,0,3/30/2020,40.82907273,-85.48822092
Indiana,Jackson,8,1,0,0,3/30/2020,38.9091582,-86.03851889
Indiana,Jasper,6,0,1,0,3/30/2020,41.02078733,-87.11553319
Indiana,Jay,0,0,0,0,3/30/2020,40.43781032,-85.00576229
Indiana,Jefferson,0,0,0,0,3/30/2020,38.78576239,-85.43633383
Indiana,Jennings,14,1,0,0,3/30/2020,38.99588883,-85.62710784
Indiana,Johnson,81,10,3,0,3/30/2020,39.48994426,-86.10149107
Indiana,Knox,2,0,0,0,3/30/2020,38.68861576,-87.4194665
Indiana,Kosciusko,4,1,0,0,3/30/2020,41.24521668,-85.86312322
Indiana,LaGrange,2,0,0,0,3/30/2020,41.64232188,-85.42674232
Indiana,Lake,97,12,1,0,3/30/2020,41.41874274,-87.38277575
Indiana,LaPorte,6,0,0,0,3/30/2020,41.54366008,-86.74072188
Indiana,Lawrence,9,1,0,0,3/30/2020,38.84112637,-86.48361629
Indiana,Madison,29,11,1,0,3/30/2020,40.16143691,-85.71964711
Indiana,Marion,804,128,12,2,3/30/2020,39.78163624,-86.13826325
Indiana,Marshall,3,0,0,0,3/30/2020,41.32467367,-86.26185087
Indiana,Martin,0,0,0,0,3/30/2020,38.7099921,-86.80373186
Indiana,Miami,3,2,0,0,3/30/2020,40.76940965,-86.04525048
Indiana,Monroe,26,4,0,0,3/30/2020,39.16130004,-86.52414358
Indiana,Montgomery,6,1,0,0,3/30/2020,40.04034823,-86.89335024
Indiana,Morgan,23,3,1,0,3/30/2020,39.47899078,-86.44573375
Indiana,Newton,1,0,0,0,3/30/2020,40.95610449,-87.39635768
Indiana,Noble,2,0,0,0,3/30/2020,41.39672484,-85.41966713
Indiana,Ohio,1,0,0,0,3/30/2020,38.955305,-84.96515993
Indiana,Orange,2,1,0,0,3/30/2020,38.5411892,-86.49523093
Indiana,Owen,10,1,0,0,3/30/2020,39.31145587,-86.83900724
Indiana,Parke,0,0,0,0,3/30/2020,39.77202286,-87.20375833
Indiana,Perry,0,0,0,0,3/30/2020,38.07809328,-86.63741946
Indiana,Pike,0,0,0,0,3/30/2020,38.40112197,-87.23574907
Indiana,Porter,15,1,0,0,3/30/2020,41.45986947,-87.06848888
Indiana,Posey,3,0,0,0,3/30/2020,38.02097333,-87.86480429
Indiana,Pulaski,0,0,0,0,3/30/2020,41.04166107,-86.69890683
Indiana,Putnam,7,2,1,0,3/30/2020,39.66437981,-86.84517605
Indiana,Randolph,1,0,0,0,3/30/2020,40.15734772,-85.01139319
Indiana,Ripley,25,6,0,0,3/30/2020,39.10235626,-85.26212744
Indiana,Rush,4,2,0,0,3/30/2020,39.62002287,-85.4655599
Indiana,St. Joseph,36,4,1,0,3/30/2020,41.61756781,-86.29040834
Indiana,Scott,1,0,1,0,3/30/2020,38.68672078,-85.74627859
Indiana,Shelby,13,1,0,0,3/30/2020,39.52305623,-85.7915857
Indiana,Spencer,0,0,0,0,3/30/2020,38.01519732,-87.0079644
Indiana,Starke,1,0,0,0,3/30/2020,41.27890281,-86.64686895
Indiana,Steuben,1,0,0,0,3/30/2020,41.64423868,-85.00101094
Indiana,Sullivan,1,0,0,0,3/30/2020,39.08952258,-87.41414469
Indiana,Switzerland,3,0,0,0,3/30/2020,38.82767338,-85.03022429
Indiana,Tippecanoe,14,3,1,0,3/30/2020,40.38872739,-86.89413959
Indiana,Tipton,4,0,0,0,3/30/2020,40.31123252,-86.05234925
Indiana,Union,0,0,0,0,3/30/2020,39.62550777,-84.92497066
Indiana,Vanderburgh,17,0,0,0,3/30/2020,38.02658833,-87.58763124
Indiana,Vermillion,0,0,0,0,3/30/2020,39.8523352,-87.46160542
Indiana,Vigo,7,0,1,0,3/30/2020,39.42944561,-87.39169027
Indiana,Wabash,1,0,0,0,3/30/2020,40.84704239,-85.79328272
Indiana,Warren,2,0,0,0,3/30/2020,40.34728141,-87.35602659
Indiana,Warrick,8,0,0,0,3/30/2020,38.08922676,-87.2716085
Indiana,Washington,6,1,0,0,3/30/2020,38.60219804,-86.1049363
Indiana,Wayne,1,0,0,0,3/30/2020,39.8633444,-85.01044989
Indiana,Wells,1,0,0,0,3/30/2020,40.72934187,-85.22132966
Indiana,White,2,1,0,0,3/30/2020,40.74911165,-86.86492015
Indiana,Whitley,1,0,0,0,3/30/2020,41.13863784,-85.50791236
California,Alameda,313,30,7,0,3/31/2020,37.64629437,-121.8929271
California,Amador,2,0,0,0,3/31/2020,38.44583082,-120.65696
California,Butte,8,3,0,0,3/31/2020,39.66727762,-121.6005252
California,Calaveras,3,0,0,0,3/31/2020,38.20537103,-120.552913
California,Colusa,1,0,0,0,3/31/2020,39.17881957,-122.2331726
California,Contra Costa,212,25,3,0,3/31/2020,37.91923498,-121.9289527
California,El Dorado,15,3,0,0,3/31/2020,38.77965956,-120.5233166
California,Fresno,53,10,0,0,3/31/2020,36.75733899,-119.6466953
California,Glenn,2,1,0,0,3/31/2020,39.59875897,-122.3938452
California,Humboldt,21,3,0,0,3/31/2020,40.69923009,-123.876044
California,Imperial,33,8,0,0,3/31/2020,33.0393082,-115.3669042
California,Inyo,8,0,0,0,3/31/2020,36.51112084,-117.4111978
California,Kern,83,23,1,0,3/31/2020,35.34329425,-118.7277796
California,Kings,3,1,0,0,3/31/2020,36.07409056,-119.8159973
California,Los Angeles,3019,545,54,10,3/31/2020,34.30828379,-118.2282411
California,Madera,21,3,1,0,3/31/2020,37.21513971,-119.7665589
California,Marin,99,6,4,3,3/31/2020,38.07122463,-122.7210631
California,Mendocino,4,0,0,0,3/31/2020,39.4381191,-123.3911313
California,Merced,10,1,0,0,3/31/2020,37.18922369,-120.7209035
California,Mono,13,0,0,0,3/31/2020,37.93899289,-118.8872409
California,Monterey,40,4,1,0,3/31/2020,36.21862405,-121.2413397
California,Napa,14,0,0,0,3/31/2020,38.50735751,-122.332839
California,Nevada,21,4,0,0,3/31/2020,39.30394768,-120.7627281
California,Orange,502,38,7,3,3/31/2020,33.70147516,-117.7645998
California,Placer,57,4,2,0,3/31/2020,39.06167234,-120.7240569
California,Riverside,371,80,13,4,3/31/2020,33.74314981,-115.9933578
California,Sacramento,224,0,7,0,3/31/2020,38.45106826,-121.3425374
California,San Benito,17,3,1,0,3/31/2020,36.60308176,-121.069975
California,San Bernardino,125,14,4,1,3/31/2020,34.84060306,-116.1774685
California,San Diego,603,88,7,0,3/31/2020,33.03484597,-116.7365326
California,San Joaquin,136,13,6,0,3/31/2020,37.93433732,-121.2730061
California,San Luis Obispo,80,9,0,0,3/31/2020,35.38822029,-120.4039028
California,San Mateo,309,0,10,4,3/31/2020,37.4228808,-122.3275546
California,Santa Barbara,88,20,0,0,3/31/2020,34.65329488,-120.0188492
California,Santa Clara,890,42,30,2,3/31/2020,37.23104908,-121.6970462
California,Santa Cruz,45,1,1,0,3/31/2020,37.05580291,-122.0066524
California,Shasta,6,2,1,0,3/31/2020,40.76391419,-122.0396884
California,Siskiyou,3,-1,0,0,3/31/2020,41.59198861,-122.5407434
California,Solano,43,9,0,0,3/31/2020,38.26827353,-121.9357113
California,Sonoma,73,15,1,0,3/31/2020,38.52746429,-122.8862506
California,Stanislaus,33,2,0,0,3/31/2020,37.55862499,-120.9970722
California,Sutter,9,3,0,0,3/31/2020,39.03417539,-121.6945899
California,Tulare,43,8,1,0,3/31/2020,36.22026558,-118.8020203
California,Tuolumne,2,2,0,0,3/31/2020,38.02644018,-119.9525093
California,Ventura,126,17,4,0,3/31/2020,34.44465746,-119.0910613
California,Yolo,24,8,1,0,3/31/2020,38.68278902,-121.9018288
California,Yuba,6,2,0,0,3/31/2020,39.26255932,-121.3535644
Indiana,Adams,1,0,0,0,3/31/2020,40.7457653,-84.93671406
Indiana,Allen,30,2,1,0,3/31/2020,41.09194313,-85.06800636
Indiana,Bartholomew,13,3,0,0,3/31/2020,39.20744865,-85.89558181
Indiana,Boone,22,2,0,0,3/31/2020,40.0509304,-86.46841646
Indiana,Brown,3,0,0,0,3/31/2020,39.19605589,-86.22868909
Indiana,Carroll,2,0,0,0,3/31/2020,40.5807832,-86.56198812
Indiana,Cass,1,0,0,0,3/31/2020,40.76135835,-86.34830753
Indiana,Clark,33,6,0,0,3/31/2020,38.48015445,-85.70510334
Indiana,Clay,1,0,0,0,3/31/2020,39.39561833,-87.11723506
Indiana,Clinton,1,0,0,0,3/31/2020,40.30319754,-86.47277257
Indiana,Crawford,1,0,0,0,3/31/2020,38.28814402,-86.44518825
Indiana,Dearborn,14,4,1,0,3/31/2020,39.14647946,-84.97333539
Indiana,Decatur,47,5,1,1,3/31/2020,39.30712658,-85.50087166
Indiana,DeKalb,1,0,0,0,3/31/2020,41.39804622,-84.99906934
Indiana,Delaware,18,3,1,0,3/31/2020,40.22787247,-85.39732772
Indiana,Dubois,3,1,0,0,3/31/2020,38.36597551,-86.8792417
Indiana,Elkhart,20,8,1,1,3/31/2020,41.59761169,-85.85875695
Indiana,Fayette,9,1,1,0,3/31/2020,39.63684962,-85.17797541
Indiana,Floyd,21,1,0,0,3/31/2020,38.32117957,-85.90385377
Indiana,Fountain,1,0,0,0,3/31/2020,40.12361933,-87.24217689
Indiana,Franklin,35,7,4,0,3/31/2020,39.4142482,-85.06062647
Indiana,Fulton,1,0,0,0,3/31/2020,41.0469907,-86.26252745
Indiana,Gibson,4,0,0,0,3/31/2020,38.30393723,-87.58054938
Indiana,Grant,7,0,0,0,3/31/2020,40.51587228,-85.65468702
Indiana,Greene,2,1,0,0,3/31/2020,39.03630547,-86.96223202
Indiana,Hamilton,127,21,0,0,3/31/2020,40.07306535,-86.05244729
Indiana,Hancock,26,-2,2,1,3/31/2020,39.82304555,-85.77566351
Indiana,Harrison,15,0,0,0,3/31/2020,38.19467379,-86.10948271
Indiana,Hendricks,70,12,1,0,3/31/2020,39.76719009,-86.51037283
Indiana,Henry,1,-1,0,0,3/31/2020,39.93029017,-85.39625719
Indiana,Howard,16,2,1,0,3/31/2020,40.48527731,-86.11351892
Indiana,Huntington,2,0,0,0,3/31/2020,40.82907273,-85.48822092
Indiana,Jackson,8,0,0,0,3/31/2020,38.9091582,-86.03851889
Indiana,Jasper,8,2,1,0,3/31/2020,41.02078733,-87.11553319
Indiana,Jefferson,1,1,0,0,3/31/2020,38.78576239,-85.43633383
Indiana,Jennings,15,1,0,0,3/31/2020,38.99588883,-85.62710784
Indiana,Johnson,101,20,3,0,3/31/2020,39.48994426,-86.10149107
Indiana,Knox,2,0,0,0,3/31/2020,38.68861576,-87.4194665
Indiana,Kosciusko,5,1,0,0,3/31/2020,41.24521668,-85.86312322
Indiana,LaGrange,2,0,0,0,3/31/2020,41.64232188,-85.42674232
Indiana,Lake,146,49,5,4,3/31/2020,41.41874274,-87.38277575
Indiana,LaPorte,8,2,0,0,3/31/2020,41.54366008,-86.74072188
Indiana,Lawrence,9,0,0,0,3/31/2020,38.84112637,-86.48361629
Indiana,Madison,38,9,1,0,3/31/2020,40.16143691,-85.71964711
Indiana,Marion,964,160,17,5,3/31/2020,39.78163624,-86.13826325
Indiana,Marshall,3,0,0,0,3/31/2020,41.32467367,-86.26185087
Indiana,Miami,3,0,0,0,3/31/2020,40.76940965,-86.04525048
Indiana,Monroe,30,4,0,0,3/31/2020,39.16130004,-86.52414358
Indiana,Montgomery,6,0,0,0,3/31/2020,40.04034823,-86.89335024
Indiana,Morgan,32,9,1,0,3/31/2020,39.47899078,-86.44573375
Indiana,Newton,1,0,0,0,3/31/2020,40.95610449,-87.39635768
Indiana,Noble,2,0,0,0,3/31/2020,41.39672484,-85.41966713
Indiana,Ohio,1,0,0,0,3/31/2020,38.955305,-84.96515993
Indiana,Orange,3,1,0,0,3/31/2020,38.5411892,-86.49523093
Indiana,Owen,11,1,0,0,3/31/2020,39.31145587,-86.83900724
Indiana,Porter,21,6,0,0,3/31/2020,41.45986947,-87.06848888
Indiana,Posey,4,1,0,0,3/31/2020,38.02097333,-87.86480429
Indiana,Putnam,7,0,1,0,3/31/2020,39.66437981,-86.84517605
Indiana,Randolph,3,2,0,0,3/31/2020,40.15734772,-85.01139319
Indiana,Ripley,31,6,1,1,3/31/2020,39.10235626,-85.26212744
Indiana,Rush,4,0,0,0,3/31/2020,39.62002287,-85.4655599
Indiana,St. Joseph,49,13,1,0,3/31/2020,41.61756781,-86.29040834
Indiana,Scott,1,0,1,0,3/31/2020,38.68672078,-85.74627859
Indiana,Shelby,15,2,0,0,3/31/2020,39.52305623,-85.7915857
Indiana,Starke,1,0,0,0,3/31/2020,41.27890281,-86.64686895
Indiana,Steuben,1,0,0,0,3/31/2020,41.64423868,-85.00101094
Indiana,Sullivan,2,1,0,0,3/31/2020,39.08952258,-87.41414469
Indiana,Switzerland,3,0,0,0,3/31/2020,38.82767338,-85.03022429
Indiana,Tippecanoe,14,0,1,0,3/31/2020,40.38872739,-86.89413959
Indiana,Tipton,4,0,0,0,3/31/2020,40.31123252,-86.05234925
Indiana,Vanderburgh,18,1,0,0,3/31/2020,38.02658833,-87.58763124
Indiana,Vigo,8,1,1,0,3/31/2020,39.42944561,-87.39169027
Indiana,Wabash,1,0,0,0,3/31/2020,40.84704239,-85.79328272
Indiana,Warren,2,0,1,1,3/31/2020,40.34728141,-87.35602659
Indiana,Warrick,8,0,0,0,3/31/2020,38.08922676,-87.2716085
Indiana,Washington,6,0,0,0,3/31/2020,38.60219804,-86.1049363
Indiana,Wayne,2,1,0,0,3/31/2020,39.8633444,-85.01044989
Indiana,Wells,2,1,0,0,3/31/2020,40.72934187,-85.22132966
Indiana,White,2,0,0,0,3/31/2020,40.74911165,-86.86492015
Indiana,Whitley,2,1,0,0,3/31/2020,41.13863784,-85.50791236
California,Alameda,313,0,7,0,4/1/2020,37.64629437,-121.8929271
California,Alpine,1,1,0,0,4/1/2020,38.59678594,-119.8223594
California,Amador,2,0,0,0,4/1/2020,38.44583082,-120.65696
California,Butte,8,0,0,0,4/1/2020,39.66727762,-121.6005252
California,Calaveras,3,0,0,0,4/1/2020,38.20537103,-120.552913
California,Colusa,1,0,0,0,4/1/2020,39.17881957,-122.2331726
California,Contra Costa,249,37,3,0,4/1/2020,37.91923498,-121.9289527
California,El Dorado,18,3,0,0,4/1/2020,38.77965956,-120.5233166
California,Fresno,68,15,0,0,4/1/2020,36.75733899,-119.6466953
California,Glenn,2,0,0,0,4/1/2020,39.59875897,-122.3938452
California,Humboldt,27,6,0,0,4/1/2020,40.69923009,-123.876044
California,Imperial,38,5,0,0,4/1/2020,33.0393082,-115.3669042
California,Inyo,9,1,0,0,4/1/2020,36.51112084,-117.4111978
California,Kern,110,27,1,0,4/1/2020,35.34329425,-118.7277796
California,Kings,4,1,0,0,4/1/2020,36.07409056,-119.8159973
California,Los Angeles,3518,499,64,10,4/1/2020,34.30828379,-118.2282411
California,Madera,23,2,1,0,4/1/2020,37.21513971,-119.7665589
California,Marin,107,8,4,0,4/1/2020,38.07122463,-122.7210631
California,Mendocino,4,0,0,0,4/1/2020,39.4381191,-123.3911313
California,Merced,10,0,0,0,4/1/2020,37.18922369,-120.7209035
California,Mono,13,0,1,1,4/1/2020,37.93899289,-118.8872409
California,Monterey,42,2,1,0,4/1/2020,36.21862405,-121.2413397
California,Napa,15,1,0,0,4/1/2020,38.50735751,-122.332839
California,Nevada,26,5,0,0,4/1/2020,39.30394768,-120.7627281
California,Orange,606,104,10,3,4/1/2020,33.70147516,-117.7645998
California,Placer,78,21,2,0,4/1/2020,39.06167234,-120.7240569
California,Plumas,1,1,0,0,4/1/2020,40.00355989,-120.8395236
California,Riverside,371,0,13,0,4/1/2020,33.74314981,-115.9933578
California,Sacramento,224,0,7,0,4/1/2020,38.45106826,-121.3425374
California,San Benito,21,4,1,0,4/1/2020,36.60308176,-121.069975
California,San Bernardino,183,58,6,2,4/1/2020,34.84060306,-116.1774685
California,San Diego,733,130,9,2,4/1/2020,33.03484597,-116.7365326
California,San Joaquin,151,15,8,2,4/1/2020,37.93433732,-121.2730061
California,San Luis Obispo,80,0,0,0,4/1/2020,35.38822029,-120.4039028
California,San Mateo,388,79,10,0,4/1/2020,37.4228808,-122.3275546
California,Santa Barbara,99,11,0,0,4/1/2020,34.65329488,-120.0188492
California,Santa Clara,956,66,32,2,4/1/2020,37.23104908,-121.6970462
California,Santa Cruz,49,4,1,0,4/1/2020,37.05580291,-122.0066524
California,Shasta,7,1,1,0,4/1/2020,40.76391419,-122.0396884
California,Siskiyou,3,0,0,0,4/1/2020,41.59198861,-122.5407434
California,Solano,49,6,0,0,4/1/2020,38.26827353,-121.9357113
California,Sonoma,78,5,2,1,4/1/2020,38.52746429,-122.8862506
California,Stanislaus,39,6,0,0,4/1/2020,37.55862499,-120.9970722
California,Sutter,10,1,0,0,4/1/2020,39.03417539,-121.6945899
California,Tulare,45,2,1,0,4/1/2020,36.22026558,-118.8020203
California,Tuolumne,2,0,0,0,4/1/2020,38.02644018,-119.9525093
California,Ventura,149,23,5,1,4/1/2020,34.44465746,-119.0910613
California,Yolo,25,1,1,0,4/1/2020,38.68278902,-121.9018288
California,Yuba,7,1,0,0,4/1/2020,39.26255932,-121.3535644
Indiana,Adams,1,0,0,0,4/1/2020,40.7457653,-84.93671406
Indiana,Allen,39,9,2,1,4/1/2020,41.09194313,-85.06800636
Indiana,Bartholomew,13,0,0,0,4/1/2020,39.20744865,-85.89558181
Indiana,Benton,1,1,0,0,4/1/2020,40.60626947,-87.31093999
Indiana,Boone,29,7,0,0,4/1/2020,40.0509304,-86.46841646
Indiana,Brown,3,0,0,0,4/1/2020,39.19605589,-86.22868909
Indiana,Carroll,2,0,0,0,4/1/2020,40.5807832,-86.56198812
Indiana,Cass,1,0,0,0,4/1/2020,40.76135835,-86.34830753
Indiana,Clark,38,5,0,0,4/1/2020,38.48015445,-85.70510334
Indiana,Clay,1,0,0,0,4/1/2020,39.39561833,-87.11723506
Indiana,Clinton,1,0,0,0,4/1/2020,40.30319754,-86.47277257
Indiana,Crawford,1,0,0,0,4/1/2020,38.28814402,-86.44518825
Indiana,Dearborn,17,3,1,0,4/1/2020,39.14647946,-84.97333539
Indiana,Decatur,48,1,1,0,4/1/2020,39.30712658,-85.50087166
Indiana,DeKalb,2,1,0,0,4/1/2020,41.39804622,-84.99906934
Indiana,Delaware,22,4,1,0,4/1/2020,40.22787247,-85.39732772
Indiana,Dubois,3,0,0,0,4/1/2020,38.36597551,-86.8792417
Indiana,Elkhart,23,3,2,1,4/1/2020,41.59761169,-85.85875695
Indiana,Fayette,10,1,2,1,4/1/2020,39.63684962,-85.17797541
Indiana,Floyd,21,0,0,0,4/1/2020,38.32117957,-85.90385377
Indiana,Fountain,1,0,0,0,4/1/2020,40.12361933,-87.24217689
Indiana,Franklin,39,4,5,1,4/1/2020,39.4142482,-85.06062647
Indiana,Fulton,1,0,0,0,4/1/2020,41.0469907,-86.26252745
Indiana,Gibson,4,0,0,0,4/1/2020,38.30393723,-87.58054938
Indiana,Grant,9,2,0,0,4/1/2020,40.51587228,-85.65468702
Indiana,Greene,3,1,0,0,4/1/2020,39.03630547,-86.96223202
Indiana,Hamilton,179,52,4,4,4/1/2020,40.07306535,-86.05244729
Indiana,Hancock,33,7,2,0,4/1/2020,39.82304555,-85.77566351
Indiana,Harrison,15,0,0,0,4/1/2020,38.19467379,-86.10948271
Indiana,Hendricks,91,21,1,0,4/1/2020,39.76719009,-86.51037283
Indiana,Henry,4,3,0,0,4/1/2020,39.93029017,-85.39625719
Indiana,Howard,20,4,1,0,4/1/2020,40.48527731,-86.11351892
Indiana,Huntington,2,0,0,0,4/1/2020,40.82907273,-85.48822092
Indiana,Jackson,10,2,0,0,4/1/2020,38.9091582,-86.03851889
Indiana,Jasper,9,1,1,0,4/1/2020,41.02078733,-87.11553319
Indiana,Jay,1,1,0,0,4/1/2020,40.43781032,-85.00576229
Indiana,Jefferson,1,0,0,0,4/1/2020,38.78576239,-85.43633383
Indiana,Jennings,17,2,0,0,4/1/2020,38.99588883,-85.62710784
Indiana,Johnson,118,17,3,0,4/1/2020,39.48994426,-86.10149107
Indiana,Knox,3,1,0,0,4/1/2020,38.68861576,-87.4194665
Indiana,Kosciusko,5,0,0,0,4/1/2020,41.24521668,-85.86312322
Indiana,LaGrange,2,0,0,0,4/1/2020,41.64232188,-85.42674232
Indiana,Lake,180,34,6,1,4/1/2020,41.41874274,-87.38277575
Indiana,LaPorte,11,3,0,0,4/1/2020,41.54366008,-86.74072188
Indiana,Lawrence,11,2,1,1,4/1/2020,38.84112637,-86.48361629
Indiana,Madison,46,8,2,1,4/1/2020,40.16143691,-85.71964711
Indiana,Marion,1117,153,21,4,4/1/2020,39.78163624,-86.13826325
Indiana,Marshall,3,0,0,0,4/1/2020,41.32467367,-86.26185087
Indiana,Miami,3,0,0,0,4/1/2020,40.76940965,-86.04525048
Indiana,Monroe,33,3,0,0,4/1/2020,39.16130004,-86.52414358
Indiana,Montgomery,6,0,0,0,4/1/2020,40.04034823,-86.89335024
Indiana,Morgan,41,9,1,0,4/1/2020,39.47899078,-86.44573375
Indiana,Newton,1,0,0,0,4/1/2020,40.95610449,-87.39635768
Indiana,Noble,3,1,0,0,4/1/2020,41.39672484,-85.41966713
Indiana,Ohio,1,0,0,0,4/1/2020,38.955305,-84.96515993
Indiana,Orange,3,0,0,0,4/1/2020,38.5411892,-86.49523093
Indiana,Owen,12,1,0,0,4/1/2020,39.31145587,-86.83900724
Indiana,Porter,27,6,0,0,4/1/2020,41.45986947,-87.06848888
Indiana,Posey,4,0,0,0,4/1/2020,38.02097333,-87.86480429
Indiana,Putnam,11,4,1,0,4/1/2020,39.66437981,-86.84517605
Indiana,Randolph,3,0,0,0,4/1/2020,40.15734772,-85.01139319
Indiana,Ripley,33,2,1,0,4/1/2020,39.10235626,-85.26212744
Indiana,Rush,5,1,0,0,4/1/2020,39.62002287,-85.4655599
Indiana,St. Joseph,57,8,1,0,4/1/2020,41.61756781,-86.29040834
Indiana,Scott,1,0,1,0,4/1/2020,38.68672078,-85.74627859
Indiana,Shelby,19,4,0,0,4/1/2020,39.52305623,-85.7915857
Indiana,Starke,1,0,0,0,4/1/2020,41.27890281,-86.64686895
Indiana,Steuben,2,1,0,0,4/1/2020,41.64423868,-85.00101094
Indiana,Sullivan,3,1,0,0,4/1/2020,39.08952258,-87.41414469
Indiana,Switzerland,3,0,0,0,4/1/2020,38.82767338,-85.03022429
Indiana,Tippecanoe,18,4,1,0,4/1/2020,40.38872739,-86.89413959
Indiana,Tipton,5,1,0,0,4/1/2020,40.31123252,-86.05234925
Indiana,Vanderburgh,20,2,0,0,4/1/2020,38.02658833,-87.58763124
Indiana,Vigo,8,0,2,1,4/1/2020,39.42944561,-87.39169027
Indiana,Wabash,1,0,0,0,4/1/2020,40.84704239,-85.79328272
Indiana,Warren,2,0,1,0,4/1/2020,40.34728141,-87.35602659
Indiana,Warrick,8,0,0,0,4/1/2020,38.08922676,-87.2716085
Indiana,Washington,9,3,0,0,4/1/2020,38.60219804,-86.1049363
Indiana,Wayne,3,1,0,0,4/1/2020,39.8633444,-85.01044989
Indiana,Wells,2,0,0,0,4/1/2020,40.72934187,-85.22132966
Indiana,White,2,0,0,0,4/1/2020,40.74911165,-86.86492015
Indiana,Whitley,3,1,0,0,4/1/2020,41.13863784,-85.50791236
California,Alameda,359,46,8,1,4/2/2020,37.64629437,-121.8929271
California,Alpine,1,0,0,0,4/2/2020,38.59678594,-119.8223594
California,Amador,3,1,0,0,4/2/2020,38.44583082,-120.65696
California,Butte,9,1,0,0,4/2/2020,39.66727762,-121.6005252
California,Calaveras,3,0,0,0,4/2/2020,38.20537103,-120.552913
California,Colusa,1,0,0,0,4/2/2020,39.17881957,-122.2331726
California,Contra Costa,250,1,3,0,4/2/2020,37.91923498,-121.9289527
California,El Dorado,18,0,0,0,4/2/2020,38.77965956,-120.5233166
California,Fresno,82,14,0,0,4/2/2020,36.75733899,-119.6466953
California,Glenn,2,0,0,0,4/2/2020,39.59875897,-122.3938452
California,Humboldt,28,1,0,0,4/2/2020,40.69923009,-123.876044
California,Imperial,43,5,1,1,4/2/2020,33.0393082,-115.3669042
California,Inyo,9,0,0,0,4/2/2020,36.51112084,-117.4111978
California,Kern,142,32,1,0,4/2/2020,35.34329425,-118.7277796
California,Kings,5,1,0,0,4/2/2020,36.07409056,-119.8159973
California,Los Angeles,4045,527,78,14,4/2/2020,34.30828379,-118.2282411
California,Madera,25,2,1,0,4/2/2020,37.21513971,-119.7665589
California,Marin,108,1,6,2,4/2/2020,38.07122463,-122.7210631
California,Mendocino,4,0,0,0,4/2/2020,39.4381191,-123.3911313
California,Merced,12,2,0,0,4/2/2020,37.18922369,-120.7209035
California,Mono,18,5,1,0,4/2/2020,37.93899289,-118.8872409
California,Monterey,48,6,2,1,4/2/2020,36.21862405,-121.2413397
California,Napa,18,3,1,1,4/2/2020,38.50735751,-122.332839
California,Nevada,26,0,0,0,4/2/2020,39.30394768,-120.7627281
California,Orange,656,50,13,3,4/2/2020,33.70147516,-117.7645998
California,Placer,90,12,2,0,4/2/2020,39.06167234,-120.7240569
California,Plumas,1,0,0,0,4/2/2020,40.00355989,-120.8395236
California,Riverside,493,122,14,1,4/2/2020,33.74314981,-115.9933578
California,Sacramento,314,90,9,2,4/2/2020,38.45106826,-121.3425374
California,San Benito,23,2,1,0,4/2/2020,36.60308176,-121.069975
California,San Bernardino,254,71,6,0,4/2/2020,34.84060306,-116.1774685
California,San Diego,849,116,15,6,4/2/2020,33.03484597,-116.7365326
California,San Joaquin,173,22,9,1,4/2/2020,37.93433732,-121.2730061
California,San Luis Obispo,89,9,0,0,4/2/2020,35.38822029,-120.4039028
California,San Mateo,453,65,10,0,4/2/2020,37.4228808,-122.3275546
California,Santa Barbara,111,12,1,1,4/2/2020,34.65329488,-120.0188492
California,Santa Clara,1019,63,36,4,4/2/2020,37.23104908,-121.6970462
California,Santa Cruz,54,5,1,0,4/2/2020,37.05580291,-122.0066524
California,Shasta,7,0,1,0,4/2/2020,40.76391419,-122.0396884
California,Siskiyou,3,0,0,0,4/2/2020,41.59198861,-122.5407434
California,Solano,54,5,0,0,4/2/2020,38.26827353,-121.9357113
California,Sonoma,91,13,2,0,4/2/2020,38.52746429,-122.8862506
California,Stanislaus,44,5,0,0,4/2/2020,37.55862499,-120.9970722
California,Sutter,14,4,1,1,4/2/2020,39.03417539,-121.6945899
California,Tulare,74,29,2,1,4/2/2020,36.22026558,-118.8020203
California,Tuolumne,2,0,0,0,4/2/2020,38.02644018,-119.9525093
California,Ventura,160,11,5,0,4/2/2020,34.44465746,-119.0910613
California,Yolo,28,3,1,0,4/2/2020,38.68278902,-121.9018288
California,Yuba,8,1,0,0,4/2/2020,39.26255932,-121.3535644
Indiana,Adams,1,0,0,0,4/2/2020,40.7457653,-84.93671406
Indiana,Allen,46,7,2,0,4/2/2020,41.09194313,-85.06800636
Indiana,Bartholomew,15,2,0,0,4/2/2020,39.20744865,-85.89558181
Indiana,Benton,0,-1,0,0,4/2/2020,40.60626947,-87.31093999
Indiana,Blackford,1,1,0,0,4/2/2020,40.47388153,-85.32499702
Indiana,Boone,32,3,0,0,4/2/2020,40.0509304,-86.46841646
Indiana,Brown,3,0,0,0,4/2/2020,39.19605589,-86.22868909
