State,County,Total Cases,New Cases,Total Deaths,New Deaths,Date,Latitude,Longitude
Alabama,Autauga,2873,55,42,0,2020-12-02,32.53952745,-86.64408227
Alabama,Baldwin,9163,112,137,0,2020-12-02,30.72774991,-87.72207058
Alabama,Barbour,1206,17,29,18,2020-12-02,31.868263,-85.3871286
Alabama,Bibb,1239,35,38,20,2020-12-02,32.99642064,-87.12511459999997
Alabama,Blount,3100,39,43,3,2020-12-02,33.98210918,-86.56790593
Alabama,Bullock,709,8,19,0,2020-12-02,32.10030533,-85.71265535
Alabama,Butler,1188,2,42,0,2020-12-02,31.75300095,-86.68057478
Alabama,Calhoun,6695,97,121,0,2020-12-02,33.77483727,-85.82630386
Alabama,Chambers,1859,32,50,0,2020-12-02,32.91360079,-85.39072749
Alabama,Cherokee,1055,4,24,0,2020-12-02,34.17805983,-85.60638968
Alabama,Chilton,2308,19,41,2,2020-12-02,32.85044126,-86.7173256
Alabama,Choctaw,435,4,19,5,2020-12-02,32.02227341,-88.26564429999998
Alabama,Clarke,1618,8,19,0,2020-12-02,31.68099859,-87.83548597
Alabama,Clay,935,7,25,1,2020-12-02,33.26984193,-85.85836077
Alabama,Cleburne,799,11,14,0,2020-12-02,33.67679204,-85.52005899
Alabama,Coffee,2541,41,15,0,2020-12-02,31.39932826,-85.98901039
Alabama,Colbert,3364,44,43,1,2020-12-02,34.69847452,-87.80168544
Alabama,Conecuh,724,24,14,0,2020-12-02,31.43401703,-86.99320044
Alabama,Coosa,372,6,4,0,2020-12-02,32.93690146,-86.24847739
Alabama,Covington,2279,29,34,0,2020-12-02,31.2477854,-86.45050893
Alabama,Crenshaw,729,7,30,0,2020-12-02,31.72941803,-86.31593104
Alabama,Cullman,4720,96,43,0,2020-12-02,34.13020303,-86.86888037
Alabama,Dale,2420,30,54,0,2020-12-02,31.43037123,-85.61095742
Alabama,Dallas,2329,14,32,0,2020-12-02,32.32688101,-87.10866709999998
Alabama,DeKalb,5047,66,38,1,2020-12-02,34.45946862,-85.80782906
Alabama,Elmore,4275,64,64,0,2020-12-02,32.59785413,-86.14415284
Alabama,Escambia,2061,38,31,0,2020-12-02,31.1256789,-87.15918694
Alabama,Etowah,6774,213,67,0,2020-12-02,34.04567266,-86.04051873
Alabama,Fayette,963,17,16,0,2020-12-02,33.72076938,-87.73886638
Alabama,Franklin,2597,23,34,0,2020-12-02,34.44235334,-87.84289505
Alabama,Geneva,1263,13,8,0,2020-12-02,31.09389027,-85.83572839
Alabama,Greene,442,7,18,0,2020-12-02,32.85504247,-87.95684022
Alabama,Hale,997,16,32,1,2020-12-02,32.76039258,-87.63284988
Alabama,Henry,894,5,6,0,2020-12-02,31.51148016,-85.24267944
Alabama,Houston,5482,72,39,1,2020-12-02,31.15197924,-85.29939599
Alabama,Jackson,3507,103,23,0,2020-12-02,34.78144169,-85.99750489
Alabama,Jefferson,34214,688,511,10,2020-12-02,33.55554728,-86.89506300000002
Alabama,Lamar,713,12,8,0,2020-12-02,33.77995024,-88.09668032
Alabama,Lauderdale,4360,93,54,0,2020-12-02,34.90171875,-87.65624729
Alabama,Lawrence,1353,19,36,0,2020-12-02,34.52041498,-87.31069453
Alabama,Lee,7925,53,66,0,2020-12-02,32.60154883,-85.35132246
Alabama,Limestone,4475,71,46,1,2020-12-02,34.81185586,-86.98310072
Alabama,Lowndes,821,12,29,0,2020-12-02,32.1597283,-86.65158371
Alabama,Macon,765,10,22,0,2020-12-02,32.38759944,-85.69267724
Alabama,Madison,13925,202,150,-1,2020-12-02,34.76327133,-86.55069633
Alabama,Marengo,1252,18,24,0,2020-12-02,32.24767634,-87.78796182
Alabama,Marion,1461,14,36,0,2020-12-02,34.13697363,-87.88704173
Alabama,Marshall,6657,184,57,0,2020-12-02,34.36975964,-86.30486727
Alabama,Mobile,20299,196,366,1,2020-12-02,30.78472347,-88.20842409
Alabama,Monroe,838,8,11,0,2020-12-02,31.56729412,-87.36995001
Alabama,Montgomery,12659,107,238,2,2020-12-02,32.2206831,-86.20969272
Alabama,Morgan,7108,144,51,0,2020-12-02,34.45500589,-86.85475946
Alabama,Perry,692,1,7,1,2020-12-02,32.64048341,-87.29770589
Alabama,Pickens,1277,12,20,2,2020-12-02,33.28094866,-88.08818103
Alabama,Pike,1622,7,14,0,2020-12-02,31.80396383,-85.9408295
Alabama,Randolph,1059,4,22,0,2020-12-02,33.29526734,-85.45708831
Alabama,Russell,2281,15,3,0,2020-12-02,32.28725256,-85.18415324
Alabama,St. Clair,4518,99,57,1,2020-12-02,33.71902176,-86.31029372
Alabama,Shelby,10958,162,77,0,2020-12-02,33.26879845,-86.66232561
Alabama,Sumter,589,3,22,0,2020-12-02,32.59117397,-88.19916205
Alabama,Talladega,3744,43,57,0,2020-12-02,33.37823223,-86.16886178
Alabama,Tallapoosa,1891,19,91,0,2020-12-02,32.86698258,-85.79833053
Alabama,Tuscaloosa,13591,225,156,2,2020-12-02,33.28726072,-87.52556818
Alabama,Walker,3818,83,111,0,2020-12-02,33.80270512,-87.30027177
Alabama,Washington,933,1,19,0,2020-12-02,31.4092794,-88.20689944
Alabama,Wilcox,649,1,18,0,2020-12-02,31.98773215,-87.30891118
Alabama,Winston,1419,44,24,1,2020-12-02,34.15030532,-87.37325922
Alaska,Aleutians East,40,2,0,0,2020-12-02,55.32222414,-161.9722021
Alaska,Bristol Bay,0,0,0,0,2020-12-02,58.74513976,-156.701064
Alaska,Denali,44,1,0,0,2020-12-02,63.67264044,-150.0076108
Alaska,Fairbanks North Star,3507,15,17,0,2020-12-02,64.80726247,-146.5692662
Alaska,Haines,17,0,0,0,2020-12-02,59.09893571,-135.4679843
Alaska,Kenai Peninsula,2740,82,9,0,2020-12-02,60.24429722,-151.53888840000005
Alaska,Ketchikan Gateway,199,1,0,0,2020-12-02,55.57445008,-130.975561
Alaska,Kodiak Island,320,24,0,0,2020-12-02,57.65529415,-153.7493579
Alaska,Matanuska-Susitna,4026,256,6,0,2020-12-02,62.31305045,-149.5741743
Alaska,North Slope,505,30,0,0,2020-12-02,69.31479216,-153.4836093
Alaska,Northwest Arctic,361,0,0,0,2020-12-02,67.04919196,-159.7503946
Arizona,Apache,5548,56,198,2,2020-12-02,35.39465006,-109.4892383
Arizona,Cochise,3863,82,83,4,2020-12-02,31.87934684,-109.7516088
Arizona,Coconino,7644,69,175,2,2020-12-02,35.83883429,-111.7707178
Arizona,Gila,3117,41,95,2,2020-12-02,33.80190085,-110.8132779
Arizona,Graham,2256,14,36,0,2020-12-02,32.93166885,-109.8882178
Arizona,Greenlee,248,9,3,0,2020-12-02,33.21498827,-109.2405279
Arizona,La Paz,902,19,20,0,2020-12-02,33.72854224,-113.9810029
Arizona,Maricopa,215386,2265,4036,26,2020-12-02,33.34835867,-112.4918154
Arizona,Mohave,6608,131,264,2,2020-12-02,35.70471703,-113.7577902
Arizona,Navajo,8323,40,273,1,2020-12-02,35.3997715,-110.3218983
Arizona,Pima,41313,510,697,2,2020-12-02,32.0971334,-111.7890033
Arizona,Pinal,17372,248,264,1,2020-12-02,32.90525627,-111.3449483
Arizona,Santa Cruz,4067,42,72,2,2020-12-02,31.52508998,-110.8479088
Arizona,Yavapai,5814,148,127,4,2020-12-02,34.59933926,-112.5538588
Arizona,Yuma,18518,166,396,4,2020-12-02,32.76895712,-113.90666740000002
Arkansas,Arkansas,987,14,22,1,2020-12-02,34.29145151,-91.37277296
Arkansas,Ashley,886,15,15,0,2020-12-02,33.19153461,-91.7698471
Arkansas,Baxter,1446,11,29,0,2020-12-02,36.28784385,-92.33782872
Arkansas,Benton,12496,208,163,3,2020-12-02,36.33644656,-94.25680817
Arkansas,Boone,1862,31,44,0,2020-12-02,36.3084504,-93.09374925
Arkansas,Bradley,527,11,7,0,2020-12-02,33.46755808,-92.15980837
Arkansas,Calhoun,155,2,1,0,2020-12-02,33.55598792,-92.49974403
Arkansas,Carroll,1503,40,23,0,2020-12-02,36.34038560000001,-93.54270261
Arkansas,Chicot,1205,10,28,0,2020-12-02,33.26458973,-91.29539209
Arkansas,Clark,851,10,11,0,2020-12-02,34.04613432,-93.17484713
Arkansas,Clay,943,29,21,0,2020-12-02,36.36826212,-90.4148172
Arkansas,Cleburne,770,18,24,0,2020-12-02,35.53864922,-92.02640019
Arkansas,Cleveland,388,9,15,0,2020-12-02,33.89723187,-92.18537045
Arkansas,Columbia,1141,14,24,0,2020-12-02,33.21230701,-93.22642793
Arkansas,Conway,711,16,8,0,2020-12-02,35.26205537,-92.70506566
Arkansas,Craighead,7363,128,82,0,2020-12-02,35.83018283,-90.63235729
Arkansas,Crawford,3163,37,38,0,2020-12-02,35.58928601,-94.2446814
Arkansas,Crittenden,3352,64,57,0,2020-12-02,35.21247318,-90.30839406
Arkansas,Cross,887,6,26,0,2020-12-02,35.29631396,-90.77185818
Arkansas,Dallas,317,14,6,0,2020-12-02,33.97042763,-92.65167437
Arkansas,Desha,585,11,8,0,2020-12-02,33.83011025,-91.25500948
Arkansas,Drew,798,35,8,0,2020-12-02,33.59035001,-91.71777921
Arkansas,Faulkner,4998,91,56,0,2020-12-02,35.14719007,-92.33717519
Arkansas,Franklin,812,9,13,0,2020-12-02,35.51202821,-93.89299569
Arkansas,Fulton,563,2,12,0,2020-12-02,36.38177105,-91.81729127
Arkansas,Garland,3949,39,105,0,2020-12-02,34.57692074,-93.14921604
Arkansas,Grant,641,17,6,0,2020-12-02,34.29017991,-92.42320562
Arkansas,Greene,3096,52,28,1,2020-12-02,36.11735460000001,-90.55832668
Arkansas,Hempstead,890,8,8,0,2020-12-02,33.73325583,-93.66935133
Arkansas,Hot Spring,2971,17,42,0,2020-12-02,34.31709259,-92.95396325
Arkansas,Howard,841,5,15,0,2020-12-02,34.09007427,-93.9934871
Arkansas,Independence,2147,22,71,0,2020-12-02,35.74242707,-91.57001641
Arkansas,Izard,1013,6,6,0,2020-12-02,36.09604046,-91.90847954
Arkansas,Jackson,1868,48,9,1,2020-12-02,35.59802983,-91.21494602
Arkansas,Jefferson,5263,25,111,0,2020-12-02,34.26767081,-91.92619839
Arkansas,Johnson,1285,7,13,1,2020-12-02,35.56759135,-93.46036368
Arkansas,Lafayette,271,4,3,0,2020-12-02,33.24116713,-93.60677071
Arkansas,Lawrence,1207,26,30,1,2020-12-02,36.04188196,-91.10867198
Arkansas,Lee,1209,12,18,0,2020-12-02,34.78498904,-90.78383866
Arkansas,Lincoln,2519,42,18,0,2020-12-02,33.95317155,-91.74002806
Arkansas,Little River,656,5,37,0,2020-12-02,33.70375665,-94.23468591
Arkansas,Logan,983,8,6,0,2020-12-02,35.21413234,-93.71951016
Arkansas,Lonoke,2800,22,56,0,2020-12-02,34.75392199,-91.88742357
Arkansas,Madison,665,25,8,0,2020-12-02,36.01038185,-93.72524943
Arkansas,Marion,464,16,6,0,2020-12-02,36.26844485,-92.68451899
Arkansas,Miller,2190,12,22,0,2020-12-02,33.31403423,-93.89285258
Arkansas,Mississippi,3316,51,82,1,2020-12-02,35.76271485,-90.05194370000002
Arkansas,Monroe,315,5,4,0,2020-12-02,34.6815935,-91.20540287
Arkansas,Montgomery,321,7,10,0,2020-12-02,34.53704874,-93.65824478
Arkansas,Nevada,471,3,14,0,2020-12-02,33.66340119,-93.30632432
Arkansas,Newton,454,4,22,0,2020-12-02,35.91947491,-93.21612969
Arkansas,Ouachita,815,21,14,0,2020-12-02,33.58839816,-92.87795984
Arkansas,Perry,265,2,4,0,2020-12-02,34.9459153,-92.94372564
Arkansas,Phillips,968,8,17,0,2020-12-02,34.43268455,-90.84800154
Arkansas,Pike,397,7,3,0,2020-12-02,34.16250414,-93.65789349
Arkansas,Poinsett,1706,17,43,0,2020-12-02,35.57433534,-90.66268713
Arkansas,Polk,849,19,11,0,2020-12-02,34.48254879,-94.22728802
Arkansas,Pope,3779,18,43,0,2020-12-02,35.44871474,-93.03212219
Arkansas,Prairie,366,5,8,0,2020-12-02,34.83624419,-91.55162157
Arkansas,Pulaski,17354,254,277,1,2020-12-02,34.77054088,-92.31355101
Arkansas,Randolph,1032,25,31,0,2020-12-02,36.3415714,-91.02455531
Arkansas,St. Francis,2082,15,15,0,2020-12-02,35.02201976,-90.74828138
Arkansas,Saline,5117,121,57,0,2020-12-02,34.64916145,-92.67583224
Arkansas,Scott,396,8,3,0,2020-12-02,34.85588887,-94.0632176
Arkansas,Searcy,309,0,1,0,2020-12-02,35.9109364,-92.69936482
Arkansas,Sebastian,7189,67,119,0,2020-12-02,35.19605503,-94.27162713
Arkansas,Sevier,1751,15,18,0,2020-12-02,33.99780401,-94.2424869
Arkansas,Sharp,739,11,15,0,2020-12-02,36.16258158,-91.47819342
Arkansas,Stone,495,9,25,0,2020-12-02,35.86251946,-92.15684085
Arkansas,Union,1606,21,59,0,2020-12-02,33.16887091,-92.59746952
Arkansas,Van Buren,407,11,4,0,2020-12-02,35.58095779,-92.51295036
Arkansas,Washington,15866,174,178,0,2020-12-02,35.976844,-94.21800746
Arkansas,White,3133,49,51,0,2020-12-02,35.25688493,-91.74908296
Arkansas,Woodruff,206,1,1,0,2020-12-02,35.18902527,-91.2439489
Arkansas,Yell,1681,14,34,0,2020-12-02,35.00292371,-93.41171338
California,Alameda,30330,358,520,6,2020-12-02,37.64629437,-121.8929271
California,Alpine,51,0,0,0,2020-12-02,38.59678594,-119.8223594
California,Amador,666,28,16,0,2020-12-02,38.44583082,-120.65696
California,Butte,4195,47,60,0,2020-12-02,39.66727762,-121.6005252
California,Calaveras,544,66,22,0,2020-12-02,38.20537103,-120.552913
California,Colusa,747,10,6,0,2020-12-02,39.17881957,-122.2331726
California,Contra Costa,24914,439,261,0,2020-12-02,37.91923498,-121.9289527
California,Del Norte,357,18,1,0,2020-12-02,41.74228275,-123.8974063
California,El Dorado,2581,35,4,0,2020-12-02,38.77965956,-120.5233166
California,Fresno,39004,292,488,0,2020-12-02,36.75733899,-119.6466953
California,Glenn,989,35,10,0,2020-12-02,39.59875897,-122.3938452
California,Humboldt,949,30,9,0,2020-12-02,40.69923009,-123.876044
California,Imperial,16429,65,356,0,2020-12-02,33.0393082,-115.3669042
California,Inyo,308,4,16,0,2020-12-02,36.51112084,-117.41119779999998
California,Kern,42614,657,449,1,2020-12-02,35.34329425,-118.7277796
California,Kings,11434,68,89,2,2020-12-02,36.07409056,-119.8159973
California,Lake,971,20,20,0,2020-12-02,39.10124298,-122.7536244
California,Lassen,2182,22,3,0,2020-12-02,40.67311306,-120.59350990000002
California,Los Angeles,414185,5789,7740,40,2020-12-02,34.30828379,-118.2282411
California,Madera,6427,81,86,0,2020-12-02,37.21513971,-119.76655890000002
California,Marin,7840,32,129,0,2020-12-02,38.07122463,-122.7210631
California,Mariposa,144,1,3,0,2020-12-02,37.57978556,-119.9073334
California,Mendocino,1632,38,23,0,2020-12-02,39.4381191,-123.3911313
California,Merced,12281,106,182,1,2020-12-02,37.18922369,-120.7209035
California,Modoc,156,5,0,0,2020-12-02,41.58965602,-120.7244817
California,Mono,550,1,3,0,2020-12-02,37.93899289,-118.8872409
California,Monterey,15835,-2,123,1,2020-12-02,36.21862405,-121.2413397
California,Napa,3124,33,18,0,2020-12-02,38.50735751,-122.332839
California,Nevada,1414,66,10,1,2020-12-02,39.30394768,-120.7627281
California,Orange,80551,1208,1578,1,2020-12-02,33.70147516,-117.76459979999998
California,Placer,6794,130,71,0,2020-12-02,39.06167234,-120.7240569
California,Plumas,230,10,0,0,2020-12-02,40.00355989,-120.8395236
California,Riverside,88530,808,1444,1,2020-12-02,33.74314981,-115.9933578
California,Sacramento,38999,1115,586,5,2020-12-02,38.45106826,-121.3425374
California,San Benito,1968,39,17,0,2020-12-02,36.60308176,-121.069975
California,San Bernardino,96657,2551,1136,7,2020-12-02,34.84060306,-116.1774685
California,San Diego,84638,1217,1035,16,2020-12-02,33.03484597,-116.7365326
California,San Joaquin,26432,512,510,1,2020-12-02,37.93433732,-121.2730061
California,San Luis Obispo,6345,34,38,0,2020-12-02,35.38822029,-120.4039028
California,San Mateo,14812,198,170,0,2020-12-02,37.4228808,-122.32755459999998
California,Santa Barbara,11631,29,137,1,2020-12-02,34.65329488,-120.0188492
California,Santa Clara,35945,488,486,4,2020-12-02,37.23104908,-121.6970462
California,Santa Cruz,4638,80,29,1,2020-12-02,37.05580291,-122.0066524
California,Shasta,5187,55,50,0,2020-12-02,40.76391419,-122.0396884
California,Sierra,23,0,0,0,2020-12-02,39.57713498,-120.52007009999998
California,Siskiyou,737,15,3,0,2020-12-02,41.59198861,-122.5407434
California,Solano,10957,226,81,0,2020-12-02,38.26827353,-121.9357113
California,Sonoma,12662,343,160,3,2020-12-02,38.52746429,-122.8862506
California,Stanislaus,22624,225,430,4,2020-12-02,37.55862499,-120.9970722
California,Sutter,3637,72,19,2,2020-12-02,39.03417539,-121.6945899
California,Tehama,1773,49,26,1,2020-12-02,40.12570935,-122.2370171
California,Trinity,168,4,0,0,2020-12-02,40.64917670000001,-123.114713
California,Tulare,21645,732,312,0,2020-12-02,36.22026558,-118.8020203
California,Tuolumne,1104,49,9,1,2020-12-02,38.02644018,-119.9525093
California,Ventura,20604,296,185,2,2020-12-02,34.44465746,-119.0910613
California,Yolo,5020,90,81,4,2020-12-02,38.68278902,-121.9018288
California,Yuba,2221,63,10,0,2020-12-02,39.26255932,-121.3535644
Colorado,Adams,30538,297,346,6,2020-12-02,39.87432092,-104.3362578
Colorado,Alamosa,631,2,13,0,2020-12-02,37.57250606,-105.7885451
Colorado,Arapahoe,28064,337,446,1,2020-12-02,39.64977461,-104.3353617
Colorado,Archuleta,259,16,0,0,2020-12-02,37.19474156,-107.0476867
Colorado,Baca,108,1,0,0,2020-12-02,37.31940883,-102.5603223
Colorado,Bent,203,6,1,0,2020-12-02,37.95474293,-103.0720195
Colorado,Boulder,11454,125,121,0,2020-12-02,40.09313619,-105.3546767
Colorado,Chaffee,668,5,21,0,2020-12-02,38.74745778,-106.19265729999998
Colorado,Cheyenne,69,6,0,0,2020-12-02,38.82777431,-102.6032558
Colorado,Clear Creek,198,5,2,0,2020-12-02,39.68864463,-105.6463118
Colorado,Conejos,181,8,3,0,2020-12-02,37.201606,-106.19174879999998
Colorado,Costilla,84,0,2,0,2020-12-02,37.27732493,-105.4276548
Colorado,Crowley,1242,1,3,0,2020-12-02,38.32608609,-103.7844965
Colorado,Custer,78,2,0,0,2020-12-02,38.10883162,-105.3683478
Colorado,Delta,690,17,11,0,2020-12-02,38.86246243,-107.8631342
Colorado,Dolores,21,-1,0,0,2020-12-02,37.75208676,-108.5211585
Colorado,Douglas,11188,151,114,4,2020-12-02,39.33133796,-104.930001
Colorado,Eagle,2438,35,11,0,2020-12-02,39.62754308,-106.6933637
Colorado,Elbert,633,9,5,0,2020-12-02,39.28656773,-104.1358721
Colorado,El Paso,28394,565,300,12,2020-12-02,38.83240149,-104.5251411
Colorado,Fremont,2998,139,7,1,2020-12-02,38.47362326,-105.4399667
Colorado,Garfield,2321,41,10,1,2020-12-02,39.59921777,-107.902708
Colorado,Gilpin,87,0,1,0,2020-12-02,39.85646523,-105.5252597
Colorado,Grand,421,6,1,0,2020-12-02,40.10603347,-106.1178042
Colorado,Gunnison,477,1,7,0,2020-12-02,38.66611652,-107.0320729
Colorado,Hinsdale,9,1,0,0,2020-12-02,37.82247444,-107.3004345
Colorado,Huerfano,182,3,7,0,2020-12-02,37.68473101,-104.9612585
Colorado,Jackson,22,0,0,0,2020-12-02,40.66593870000001,-106.3408905
Colorado,Jefferson,21476,320,477,22,2020-12-02,39.58635604,-105.2517692
Colorado,Kiowa,26,0,0,0,2020-12-02,38.43260896,-102.7392145
Colorado,Kit Carson,312,9,8,0,2020-12-02,39.30497777,-102.6022199
Colorado,Lake,291,10,0,0,2020-12-02,39.20278823,-106.3555697
Colorado,La Plata,1412,24,5,0,2020-12-02,37.28632032,-107.8429014
Colorado,Larimer,10627,200,76,1,2020-12-02,40.66671597,-105.4625784
Colorado,Las Animas,274,8,0,0,2020-12-02,37.3153406,-104.0376458
Colorado,Lincoln,388,235,0,0,2020-12-02,38.98749519,-103.5136649
Colorado,Logan,2355,108,34,1,2020-12-02,40.7249637,-103.110817
Colorado,Mesa,6172,136,67,4,2020-12-02,39.01787888,-108.469799
Colorado,Mineral,36,0,0,0,2020-12-02,37.66954283,-106.9281698
Colorado,Moffat,324,5,10,1,2020-12-02,40.61810999,-108.2070876
Colorado,Montezuma,741,8,7,0,2020-12-02,37.33859579,-108.5958857
Colorado,Montrose,1159,13,15,0,2020-12-02,38.40214114,-108.26390220000002
Colorado,Morgan,1691,10,54,2,2020-12-02,40.26279810000001,-103.8093302
Colorado,Otero,769,60,12,0,2020-12-02,37.9014485,-103.7173385
Colorado,Ouray,118,0,2,0,2020-12-02,38.14717457,-107.7675136
Colorado,Park,240,2,4,0,2020-12-02,39.120926,-105.7182065
Colorado,Phillips,190,1,3,1,2020-12-02,40.59414277,-102.3577703
Colorado,Pitkin,530,17,2,0,2020-12-02,39.21720112,-106.9310027
Colorado,Prowers,672,15,13,1,2020-12-02,37.95544985,-102.3926052
Colorado,Pueblo,9048,192,140,9,2020-12-02,38.17359144,-104.5127437
Colorado,Rio Blanco,149,1,1,0,2020-12-02,39.97913541,-108.2179009
Colorado,Rio Grande,244,1,4,0,2020-12-02,37.5836865,-106.3847838
Colorado,Routt,708,23,15,1,2020-12-02,40.48596505,-106.9905548
Colorado,Saguache,224,2,3,1,2020-12-02,38.08054629,-106.282466
Colorado,San Juan,19,0,0,0,2020-12-02,37.76248981,-107.67632890000002
Colorado,San Miguel,216,3,0,0,2020-12-02,38.00450883,-108.4020725
Colorado,Sedgwick,112,0,2,0,2020-12-02,40.87595412,-102.3519227
Colorado,Summit,1582,29,4,0,2020-12-02,39.63803232,-106.1150762
Colorado,Teller,654,1,4,0,2020-12-02,38.88133511,-105.1614893
Colorado,Washington,257,6,9,0,2020-12-02,39.97015535,-103.202587
Colorado,Weld,14509,212,204,8,2020-12-02,40.55499405,-104.3929621
Colorado,Yuma,345,7,2,0,2020-12-02,40.00346839,-102.4258673
Connecticut,Fairfield,39773,1017,1532,16,2020-12-02,41.26809896,-73.3881171
Connecticut,Hartford,29575,526,1617,8,2020-12-02,41.80283011,-72.73103891
Connecticut,Litchfield,4669,122,170,3,2020-12-02,41.7937534,-73.2451475
Connecticut,Middlesex,3799,46,208,1,2020-12-02,41.45949668,-72.53714864
Connecticut,New Haven,30819,676,1275,16,2020-12-02,41.4080325,-72.93620426
Connecticut,New London,6250,102,178,2,2020-12-02,41.48896435,-72.10430976
Connecticut,Tolland,3126,58,79,3,2020-12-02,41.85853803,-72.3308481
Connecticut,Windham,2682,46,32,3,2020-12-02,41.82972709,-71.98182316
Delaware,Kent,5283,93,132,0,2020-12-02,39.08646628,-75.56884914
Delaware,New Castle,20700,199,383,1,2020-12-02,39.57992638,-75.64054974
Delaware,Sussex,10620,62,264,1,2020-12-02,38.66143781,-75.39031349
Florida,Alachua,13017,106,102,0,2020-12-02,29.67866525,-82.35928158
Florida,Baker,2063,17,32,0,2020-12-02,30.33060121,-82.28467476
Florida,Bay,8731,188,159,2,2020-12-02,30.26548745,-85.62122584
Florida,Bradford,1427,10,19,0,2020-12-02,29.95079741,-82.16611613
Florida,Brevard,15953,209,445,1,2020-12-02,28.29409504,-80.73091022
Florida,Broward,109360,1035,1673,9,2020-12-02,26.15184651,-80.48725556
Florida,Calhoun,885,10,22,0,2020-12-02,30.40666734,-85.19394153
Florida,Charlotte,5220,70,197,0,2020-12-02,26.90131002,-81.92949121
Florida,Citrus,4899,109,174,3,2020-12-02,28.84804315,-82.47614748
Florida,Clay,8195,88,149,1,2020-12-02,29.98319144,-81.85609986
Florida,Collier,18132,221,284,3,2020-12-02,26.11091986,-81.34687065
Florida,Columbia,4843,22,96,2,2020-12-02,30.22509788,-82.62160164
Florida,DeSoto,2432,15,34,0,2020-12-02,27.18677893,-81.80941373
Florida,Dixie,968,3,11,0,2020-12-02,29.60631086,-83.15724673
Florida,Duval,44969,519,634,8,2020-12-02,30.33225875,-81.66976468
Florida,Escambia,17007,135,307,1,2020-12-02,30.67652764,-87.37284571
Florida,Flagler,2786,22,42,0,2020-12-02,29.45933576,-81.31508595
Florida,Franklin,832,2,4,0,2020-12-02,29.83791238,-84.82731662
Florida,Gadsden,3353,19,57,0,2020-12-02,30.57796289,-84.61915825
Florida,Gilchrist,782,16,20,0,2020-12-02,29.72856978,-82.79880657
Florida,Glades,679,4,10,0,2020-12-02,26.95635849,-81.18996211
Florida,Gulf,1079,11,20,1,2020-12-02,29.93543004,-85.24270990000002
Florida,Hamilton,999,17,11,0,2020-12-02,30.49673973,-82.94998918
Florida,Hardee,1778,5,18,0,2020-12-02,27.49293939,-81.80956574
Florida,Hendry,2540,32,45,0,2020-12-02,26.55386945,-81.16469006
Florida,Hernando,5110,58,220,-1,2020-12-02,28.55364461,-82.42700204
Florida,Highlands,3847,45,149,1,2020-12-02,27.34254618,-81.34071957
Florida,Hillsborough,59270,521,938,5,2020-12-02,27.9276559,-82.32013172
Florida,Holmes,1199,30,15,0,2020-12-02,30.86747479,-85.81319222
Florida,Indian River,5081,40,140,2,2020-12-02,27.69308961,-80.60556721
Florida,Jackson,3932,29,94,0,2020-12-02,30.7954597,-85.21500423
Florida,Jefferson,789,4,11,0,2020-12-02,30.43669112,-83.89442308
Florida,Lafayette,1332,3,20,0,2020-12-02,29.98484137,-83.18166636
Florida,Lake,10809,66,258,3,2020-12-02,28.76202069,-81.7125123
Florida,Lee,30856,399,588,1,2020-12-02,26.58410348,-81.88399313
Florida,Leon,15362,109,142,1,2020-12-02,30.45955727,-84.27491114
Florida,Levy,1431,9,14,0,2020-12-02,29.31829741,-82.74007147
Florida,Liberty,611,8,14,0,2020-12-02,30.23766008,-84.8829258
Florida,Madison,1276,5,27,0,2020-12-02,30.44396917,-83.47398594
Florida,Manatee,17164,158,383,8,2020-12-02,27.47196942,-82.31831044
Florida,Marion,13280,104,382,3,2020-12-02,29.21227113,-82.05803627
Florida,Martin,6355,67,176,2,2020-12-02,27.0772071,-80.43109784
Florida,Miami-Dade,234054,2293,3860,21,2020-12-02,25.6112362,-80.55170587
Florida,Monroe,3426,34,28,0,2020-12-02,25.20904673,-81.07812416
Florida,Nassau,3291,70,57,0,2020-12-02,30.61037141,-81.80297522
Florida,Okaloosa,9231,238,160,0,2020-12-02,30.69143028,-86.59267105
Florida,Okeechobee,2061,11,44,1,2020-12-02,27.386336199999995,-80.88944347
Florida,Orange,59218,356,648,2,2020-12-02,28.51367621,-81.31799498
Florida,Osceola,18817,219,245,0,2020-12-02,28.06312234,-81.14882926
Florida,Palm Beach,66427,491,1699,2,2020-12-02,26.64676272,-80.46536002
Florida,Pasco,15248,207,280,4,2020-12-02,28.30810945,-82.40227529
Florida,Pinellas,33493,247,911,0,2020-12-02,27.93130349,-82.72239666
Florida,Polk,28101,279,690,2,2020-12-02,27.95027105,-81.69732947
Florida,Putnam,2814,31,60,2,2020-12-02,29.60779729,-81.74230285
Florida,St. Johns,9085,154,97,1,2020-12-02,29.90096506,-81.43589967
Florida,St. Lucie,10962,87,371,0,2020-12-02,27.37763908,-80.47106649
Florida,Santa Rosa,7660,110,103,1,2020-12-02,30.693414500000006,-87.02458128
Florida,Sarasota,14093,176,393,0,2020-12-02,27.18546175,-82.33174248
Florida,Seminole,13194,122,279,3,2020-12-02,28.7158582,-81.24060348
Florida,Sumter,3535,32,98,0,2020-12-02,28.70181754,-82.0794267
Florida,Suwannee,3315,21,87,1,2020-12-02,30.19746066,-82.99099670000003
Florida,Taylor,1660,10,21,0,2020-12-02,30.04848048,-83.60445406
Florida,Union,1240,2,61,0,2020-12-02,30.04412971,-82.37497443
Florida,Volusia,16773,140,369,-1,2020-12-02,29.05858895,-81.18263252
Florida,Wakulla,1667,10,15,1,2020-12-02,30.16548905,-84.39895211
Florida,Walton,3759,44,38,1,2020-12-02,30.64204028,-86.16935664
Florida,Washington,1552,16,26,0,2020-12-02,30.61359259,-85.66002461
Georgia,Appling,1343,9,41,1,2020-12-02,31.74847232,-82.28909114
Georgia,Atkinson,606,7,9,0,2020-12-02,31.29633502,-82.87545866
Georgia,Bacon,756,6,24,0,2020-12-02,31.55456473,-82.45936528
Georgia,Baker,127,1,6,0,2020-12-02,31.32669878,-84.44218806
Georgia,Baldwin,2698,20,71,0,2020-12-02,33.06882326,-83.24701748
Georgia,Banks,814,10,13,0,2020-12-02,34.35607081,-83.49644388
Georgia,Barrow,3573,41,57,0,2020-12-02,33.99148694,-83.71436292
Georgia,Bartow,5350,68,108,0,2020-12-02,34.23732119,-84.83887523
Georgia,Ben Hill,1037,23,40,1,2020-12-02,31.76095874,-83.22145359
Georgia,Berrien,755,11,28,0,2020-12-02,31.27590016,-83.22529920000002
Georgia,Bibb,7803,65,238,2,2020-12-02,32.80904227,-83.70489165
Georgia,Bleckley,717,1,33,0,2020-12-02,32.43829035,-83.33035166
Georgia,Brantley,806,8,19,0,2020-12-02,31.19576557,-81.97743999
Georgia,Brooks,711,26,30,0,2020-12-02,30.83922642,-83.58303423
Georgia,Bryan,1524,6,18,0,2020-12-02,32.00979311,-81.44002948
Georgia,Bulloch,3787,19,55,0,2020-12-02,32.39577406,-81.74811421
Georgia,Burke,1258,4,15,0,2020-12-02,33.05917989,-81.99928721
Georgia,Butts,1112,10,46,0,2020-12-02,33.283094500000004,-83.95435040000002
Georgia,Calhoun,304,5,11,0,2020-12-02,31.53169785,-84.62725131
Georgia,Camden,1883,26,20,0,2020-12-02,30.92951916,-81.66601818
Georgia,Candler,616,0,35,0,2020-12-02,32.40209349,-82.07702563
Georgia,Carroll,5774,82,97,1,2020-12-02,33.58138199,-85.07976677
Georgia,Catoosa,2177,35,30,0,2020-12-02,34.89872298,-85.13757014
Georgia,Charlton,809,4,18,0,2020-12-02,30.78371028,-82.13951596
Georgia,Chatham,11072,91,210,0,2020-12-02,32.00043026,-81.12489526
Georgia,Chattahoochee,2029,1,3,0,2020-12-02,32.34341231,-84.78809239
Georgia,Chattooga,1280,14,33,0,2020-12-02,34.47197698,-85.34535662
Georgia,Cherokee,11013,176,117,0,2020-12-02,34.24393976,-84.47431861
Georgia,Clarke,8121,89,56,1,2020-12-02,33.95436462,-83.37124007
Georgia,Clay,150,0,3,0,2020-12-02,31.62221166,-84.97713865
Georgia,Clayton,10683,98,203,0,2020-12-02,33.54187245,-84.35594188
Georgia,Clinch,540,5,13,0,2020-12-02,30.91395822,-82.70432472
Georgia,Cobb,30827,416,515,4,2020-12-02,33.94243204,-84.5761255
Georgia,Coffee,3041,50,81,0,2020-12-02,31.54892966,-82.85492059999999
Georgia,Colquitt,2617,29,47,0,2020-12-02,31.18810588,-83.7677946
Georgia,Columbia,6671,72,77,0,2020-12-02,33.54534185,-82.263524
Georgia,Cook,925,15,20,0,2020-12-02,31.16068491,-83.42947229
Georgia,Coweta,5578,82,73,1,2020-12-02,33.35334302,-84.76129976
Georgia,Crawford,261,2,7,0,2020-12-02,32.71391813,-83.98061238
Georgia,Crisp,949,9,35,0,2020-12-02,31.92289565,-83.76811843
Georgia,Dade,527,4,7,0,2020-12-02,34.854916700000004,-85.50490424
Georgia,Dawson,1192,14,11,0,2020-12-02,34.44244079,-84.16964071
Georgia,Decatur,1620,15,46,0,2020-12-02,30.87967778,-84.57619536
Georgia,DeKalb,28195,319,462,3,2020-12-02,33.76944049,-84.22396017
Georgia,Dodge,1075,2,53,2,2020-12-02,32.17265114,-83.16948926
Georgia,Dooly,493,1,19,0,2020-12-02,32.15630737,-83.79746561
Georgia,Dougherty,3819,46,204,0,2020-12-02,31.53328528,-84.21722377
Georgia,Douglas,5875,59,89,0,2020-12-02,33.70291126,-84.77026156
Georgia,Early,702,4,36,0,2020-12-02,31.32155345,-84.90255207
Georgia,Echols,294,10,3,0,2020-12-02,30.71101099,-82.89687287
Georgia,Effingham,2230,11,33,0,2020-12-02,32.36616021,-81.34280942
Georgia,Elbert,1226,14,28,1,2020-12-02,34.11302332,-82.83936148
Georgia,Emanuel,1449,15,47,0,2020-12-02,32.59221302,-82.30239915
Georgia,Evans,556,0,13,0,2020-12-02,32.15328841,-81.8870105
Georgia,Fannin,1045,6,38,2,2020-12-02,34.86430205,-84.316964
Georgia,Fayette,3400,41,62,0,2020-12-02,33.41357794,-84.49089434
Georgia,Floyd,5705,61,85,0,2020-12-02,34.26268279,-85.21577392
Georgia,Forsyth,7169,138,64,1,2020-12-02,34.22604035,-84.12315129999998
Georgia,Franklin,1280,22,23,0,2020-12-02,34.37525597,-83.23159927
Georgia,Fulton,41629,398,707,3,2020-12-02,33.79216944,-84.46319413
Georgia,Gilmer,1312,13,33,0,2020-12-02,34.69316688,-84.45802506
Georgia,Glascock,84,4,2,0,2020-12-02,33.22879932,-82.61297636
Georgia,Glynn,4366,33,121,0,2020-12-02,31.23279254,-81.53811412
Georgia,Gordon,3572,40,60,0,2020-12-02,34.50487351,-84.87296253
Georgia,Grady,1035,7,31,0,2020-12-02,30.87454847,-84.23418364
Georgia,Greene,744,8,28,-1,2020-12-02,33.5769205,-83.17139104
Georgia,Gwinnett,40884,552,534,6,2020-12-02,33.96044201,-84.02137802
Georgia,Habersham,2432,34,82,0,2020-12-02,34.63331566,-83.53094677
Georgia,Hall,13042,135,204,1,2020-12-02,34.32207823,-83.81896936
Georgia,Hancock,533,3,46,0,2020-12-02,33.2721566,-82.99766919
Georgia,Haralson,1370,15,27,1,2020-12-02,33.79602175,-85.21005667
Georgia,Harris,1063,11,28,0,2020-12-02,32.73709786,-84.90538572
Georgia,Hart,877,15,29,0,2020-12-02,34.34626973,-82.96567682
Georgia,Heard,411,16,7,0,2020-12-02,33.29686567,-85.12886832
Georgia,Henry,9017,130,139,0,2020-12-02,33.4533428,-84.14814659999998
Georgia,Houston,4989,70,107,0,2020-12-02,32.45802497,-83.66879087
Georgia,Irwin,453,6,13,0,2020-12-02,31.60213036,-83.27501387
Georgia,Jackson,3532,54,57,0,2020-12-02,34.13794553,-83.56814788
Georgia,Jasper,511,15,7,0,2020-12-02,33.31535543,-83.68844964
Georgia,Jeff Davis,977,5,33,0,2020-12-02,31.80405727,-82.63724870000001
Georgia,Jefferson,1014,10,40,1,2020-12-02,33.05867328,-82.41609057
Georgia,Jenkins,501,1,34,0,2020-12-02,32.79248718,-81.96040187
Georgia,Johnson,530,0,31,0,2020-12-02,32.70211082,-82.66166794
Georgia,Jones,820,16,21,1,2020-12-02,33.02512137,-83.56019163
Georgia,Lamar,734,10,26,0,2020-12-02,33.07841647,-84.14263877
Georgia,Lanier,407,4,10,0,2020-12-02,31.038285700000007,-83.06472457
Georgia,Laurens,2673,20,116,0,2020-12-02,32.46325233,-82.92221316
Georgia,Lee,1010,25,33,0,2020-12-02,31.779330600000005,-84.14324253
Georgia,Liberty,1580,7,29,0,2020-12-02,31.82588896,-81.49251135
Georgia,Lincoln,328,1,10,0,2020-12-02,33.79201475,-82.45024131
Georgia,Long,345,5,5,0,2020-12-02,31.75218791,-81.74952375
Georgia,Lowndes,6509,58,127,1,2020-12-02,30.83568832,-83.27056716
Georgia,Lumpkin,1320,11,20,0,2020-12-02,34.57286511,-84.00425681
Georgia,McDuffie,953,13,22,1,2020-12-02,33.47851918,-82.48252774
Georgia,McIntosh,391,3,9,0,2020-12-02,31.49683595,-81.40163426
Georgia,Macon,343,1,16,0,2020-12-02,32.35207048,-84.04234127
Georgia,Madison,1204,29,19,0,2020-12-02,34.12920917,-83.21218732
Georgia,Marion,251,2,10,0,2020-12-02,32.3483402,-84.52733571
Georgia,Meriwether,811,11,19,0,2020-12-02,33.04163534,-84.68859732
Georgia,Miller,418,2,3,0,2020-12-02,31.16568912,-84.73151117
Georgia,Mitchell,1013,10,50,-1,2020-12-02,31.22483255,-84.19381821
Georgia,Monroe,1080,15,61,0,2020-12-02,33.014289,-83.92097166
Georgia,Montgomery,433,6,10,0,2020-12-02,32.17201038,-82.53527476
Georgia,Morgan,844,7,8,0,2020-12-02,33.59232073,-83.49129491
Georgia,Murray,1937,48,24,0,2020-12-02,34.78897608,-84.74993177
Georgia,Muscogee,7465,58,192,0,2020-12-02,32.50931999,-84.87142262
Georgia,Newton,3976,49,109,1,2020-12-02,33.55514538,-83.84547140000002
Georgia,Oconee,1438,17,35,0,2020-12-02,33.83749973,-83.43679568
Georgia,Oglethorpe,577,7,14,0,2020-12-02,33.878629600000004,-83.08278123
Georgia,Paulding,5384,118,85,2,2020-12-02,33.91969522,-84.86848792
Georgia,Peach,1100,11,28,0,2020-12-02,32.56934316,-83.82937
Georgia,Pickens,1164,12,18,1,2020-12-02,34.46589159,-84.46406611
Georgia,Pierce,1221,5,29,0,2020-12-02,31.35928155,-82.21598442
Georgia,Pike,835,11,17,0,2020-12-02,33.09310242,-84.38790389
Georgia,Polk,2521,27,34,0,2020-12-02,34.00267074,-85.18677781
Georgia,Pulaski,458,3,27,0,2020-12-02,32.23334561,-83.47549959999998
Georgia,Putnam,1011,15,30,0,2020-12-02,33.32056115,-83.37552891
Georgia,Quitman,80,0,1,0,2020-12-02,31.86728114,-85.01773177
Georgia,Rabun,617,17,11,0,2020-12-02,34.88389445,-83.40304637
Georgia,Randolph,370,0,30,0,2020-12-02,31.76622818,-84.75732369
Georgia,Richmond,10583,132,221,1,2020-12-02,33.35777107,-82.07026432
Georgia,Rockdale,2832,26,59,1,2020-12-02,33.65145002,-84.02202167
Georgia,Schley,172,5,2,0,2020-12-02,32.2654021,-84.31258912
Georgia,Screven,501,1,15,1,2020-12-02,32.74976524,-81.60779441
Georgia,Seminole,549,4,12,0,2020-12-02,30.93464824,-84.86823924
Georgia,Spalding,2501,30,80,1,2020-12-02,33.26310031,-84.28013991
Georgia,Stephens,1593,27,47,0,2020-12-02,34.55151201,-83.29405315
Georgia,Stewart,625,0,17,0,2020-12-02,32.07996777,-84.83208037
Georgia,Sumter,1286,21,71,0,2020-12-02,32.03650571,-84.19821492
Georgia,Talbot,232,2,8,0,2020-12-02,32.69642758,-84.53351366
Georgia,Taliaferro,42,0,0,0,2020-12-02,33.56543317,-82.88136816
Georgia,Tattnall,1154,7,27,1,2020-12-02,32.04785085,-82.05539188
Georgia,Taylor,396,9,13,0,2020-12-02,32.55792548,-84.25077141
Georgia,Telfair,653,2,28,0,2020-12-02,31.92829517,-82.93491155
Georgia,Terrell,407,6,33,0,2020-12-02,31.77527543,-84.44069698
Georgia,Thomas,1978,20,81,0,2020-12-02,30.86392347,-83.91847289
Georgia,Tift,2632,36,75,0,2020-12-02,31.45743864,-83.5236119
Georgia,Toombs,1722,5,68,0,2020-12-02,32.12059861,-82.32957247
Georgia,Towns,590,7,29,0,2020-12-02,34.91369188,-83.74107459999998
Georgia,Treutlen,385,0,14,0,2020-12-02,32.40422134,-82.56904553
Georgia,Troup,4009,39,121,1,2020-12-02,33.03349196,-85.02812115
Georgia,Turner,461,6,25,0,2020-12-02,31.71612656,-83.62069378
Georgia,Twiggs,263,1,18,0,2020-12-02,32.67435595,-83.43078662
Georgia,Union,1115,11,36,0,2020-12-02,34.82995757,-83.98967069
Georgia,Upson,1561,25,79,0,2020-12-02,32.87920671,-84.30024826
Georgia,Walker,2735,32,53,1,2020-12-02,34.73376362,-85.30165174
Georgia,Walton,3430,52,81,1,2020-12-02,33.78017694,-83.73552314
Georgia,Ware,2635,11,82,1,2020-12-02,31.05449097,-82.42224148
Georgia,Warren,218,2,8,0,2020-12-02,33.41146451,-82.67795848
Georgia,Washington,1131,10,35,1,2020-12-02,32.96711864,-82.79357039
Georgia,Wayne,1680,5,48,0,2020-12-02,31.5521809,-81.91894878
Georgia,Webster,62,0,2,0,2020-12-02,32.04066113,-84.54742852
Georgia,Wheeler,424,1,19,0,2020-12-02,32.12009104,-82.72574721
Georgia,White,1356,17,28,0,2020-12-02,34.64624278,-83.74905525
Georgia,Whitfield,8045,97,85,1,2020-12-02,34.80987459,-84.96093476
Georgia,Wilcox,391,6,28,0,2020-12-02,31.97496928,-83.43438555
Georgia,Wilkes,468,4,9,0,2020-12-02,33.78290391,-82.74286107
Georgia,Wilkinson,446,6,18,0,2020-12-02,32.80291082,-83.17140684
Georgia,Worth,765,14,38,0,2020-12-02,31.55162306,-83.85090513
Idaho,Ada,26524,383,250,5,2020-12-02,43.4526575,-116.24155159999998
Idaho,Adams,115,2,2,0,2020-12-02,44.89333571,-116.4545247
Idaho,Bannock,4677,116,33,0,2020-12-02,42.67002716,-112.2233311
Idaho,Bear Lake,197,3,1,0,2020-12-02,42.28269683,-111.32892379999998
Idaho,Benewah,288,2,3,0,2020-12-02,47.21754179,-116.6586851
Idaho,Bingham,2872,64,30,1,2020-12-02,43.21672879999999,-112.3978437
Idaho,Blaine,1321,24,7,0,2020-12-02,43.4085812,-113.9752658
Idaho,Boise,145,2,2,0,2020-12-02,43.98829931,-115.7309284
Idaho,Bonner,1028,26,6,2,2020-12-02,48.29996017,-116.6017932
Idaho,Bonneville,7900,117,69,3,2020-12-02,43.38713372,-111.6161537
Idaho,Boundary,363,8,4,0,2020-12-02,48.76684761,-116.4630179
Idaho,Butte,125,1,0,0,2020-12-02,43.72592209,-113.1735463
Idaho,Camas,54,0,0,0,2020-12-02,43.46665742,-114.8065892
Idaho,Canyon,15869,145,146,4,2020-12-02,43.61970148,-116.7095499
Idaho,Caribou,450,4,10,0,2020-12-02,42.77149116,-111.5597683
Idaho,Cassia,2172,2,18,0,2020-12-02,42.28347888,-113.6012409
Idaho,Clark,49,0,0,0,2020-12-02,44.28496071,-112.3505704
Idaho,Clearwater,571,11,0,0,2020-12-02,46.67459924,-115.6622393
Idaho,Custer,153,3,1,0,2020-12-02,44.24186819,-114.2855494
Idaho,Elmore,935,19,7,0,2020-12-02,43.3507101,-115.4701578
Idaho,Franklin,713,5,6,0,2020-12-02,42.18332217,-111.8149666
Idaho,Fremont,737,6,10,0,2020-12-02,44.22800938,-111.4809943
Idaho,Gem,1023,12,5,0,2020-12-02,44.06482372,-116.398376
Idaho,Gooding,974,13,10,0,2020-12-02,42.96927962,-114.8108306
Idaho,Idaho,782,11,12,3,2020-12-02,45.84721541,-115.4634436
Idaho,Jefferson,1601,21,11,0,2020-12-02,43.82078483,-112.3131749
Idaho,Jerome,1925,20,14,0,2020-12-02,42.68891267,-114.2655033
Idaho,Kootenai,7815,155,86,3,2020-12-02,47.67282258,-116.7020872
Idaho,Latah,1750,20,3,0,2020-12-02,46.81587887,-116.7113698
Idaho,Lemhi,433,0,8,1,2020-12-02,44.9438088,-113.9309747
Idaho,Lewis,212,2,4,0,2020-12-02,46.23315327,-116.434146
Idaho,Lincoln,362,5,8,0,2020-12-02,43.0012336,-114.1358773
Idaho,Madison,4322,46,8,0,2020-12-02,43.78141028,-111.65384740000002
Idaho,Minidoka,1765,-1,18,0,2020-12-02,42.85518524,-113.6357257
Idaho,Nez Perce,2382,40,36,1,2020-12-02,46.32638236,-116.7500975
Idaho,Oneida,153,6,0,0,2020-12-02,42.19494279999999,-112.5407838
Idaho,Owyhee,709,4,9,4,2020-12-02,42.58016894,-116.1693871
Idaho,Payette,1685,28,15,0,2020-12-02,44.00545243,-116.7647695
Idaho,Power,475,8,4,0,2020-12-02,42.69254894,-112.83957420000002
Idaho,Shoshone,524,3,23,1,2020-12-02,47.35364087,-115.8916749
Idaho,Teton,570,5,2,0,2020-12-02,43.75303583,-111.2056773
Idaho,Twin Falls,6963,72,97,3,2020-12-02,42.35440512,-114.6685381
Idaho,Valley,257,4,1,0,2020-12-02,44.76728382,-115.5676773
Idaho,Washington,787,6,12,0,2020-12-02,44.45275475,-116.7847688
Illinois,Adams,4886,48,54,4,2020-12-02,39.98815591,-91.18786813
Illinois,Alexander,266,1,4,2,2020-12-02,37.18049267,-89.32910838
Illinois,Bond,1108,22,10,0,2020-12-02,38.88829622,-89.43534887
Illinois,Boone,4027,29,35,2,2020-12-02,42.32359279,-88.82345779
Illinois,Brown,336,6,6,1,2020-12-02,39.96209138,-90.75068024
Illinois,Bureau,2192,29,48,4,2020-12-02,41.40385234,-89.5283051
Illinois,Calhoun,266,4,1,1,2020-12-02,39.16840183,-90.66330078
Illinois,Carroll,1090,6,25,0,2020-12-02,42.06823429,-89.93395545
Illinois,Cass,1030,38,23,0,2020-12-02,39.96991073,-90.24734436
Illinois,Champaign,11181,151,60,0,2020-12-02,40.13919438,-88.20046615
Illinois,Christian,1940,26,43,0,2020-12-02,39.54581621,-89.27780482
Illinois,Clark,823,8,20,0,2020-12-02,39.33425789,-87.78705622
Illinois,Clay,909,36,22,1,2020-12-02,38.75388572,-88.48914513
Illinois,Clinton,3453,73,62,1,2020-12-02,38.60704876,-89.42385254
Illinois,Coles,3415,46,60,1,2020-12-02,39.51949084,-88.22358557
Illinois,Cook,314134,3412,6768,73,2020-12-02,41.84144849,-87.81658794
Illinois,Crawford,1160,10,13,0,2020-12-02,39.0032229,-87.75954624
Illinois,Cumberland,667,36,17,1,2020-12-02,39.27432424,-88.2401158
Illinois,DeKalb,5201,41,48,0,2020-12-02,41.89373302,-88.76958483
Illinois,De Witt,644,7,18,0,2020-12-02,40.17514519,-88.90959682
Illinois,Douglas,1406,21,16,0,2020-12-02,39.76768052,-88.21854195
Illinois,DuPage,47742,563,808,11,2020-12-02,41.85116968,-88.08642662
Illinois,Edgar,867,24,17,2,2020-12-02,39.6809186,-87.74759563
Illinois,Edwards,234,6,3,0,2020-12-02,38.41353228,-88.05720863
Illinois,Effingham,2933,73,23,1,2020-12-02,39.05935711,-88.58969584
Illinois,Fayette,1860,48,33,2,2020-12-02,39.00072038,-89.02452658
Illinois,Ford,805,24,24,0,2020-12-02,40.59706922,-88.22350769
Illinois,Franklin,2145,36,27,1,2020-12-02,37.99189086,-88.92567818
Illinois,Fulton,1571,61,13,0,2020-12-02,40.47289135,-90.20862357
Illinois,Gallatin,202,6,3,0,2020-12-02,37.76430935,-88.22953869
Illinois,Greene,872,22,32,1,2020-12-02,39.35907414,-90.388865
Illinois,Grundy,2927,45,24,3,2020-12-02,41.28569601,-88.41905692
Illinois,Hamilton,405,6,4,1,2020-12-02,38.08163641,-88.53883373
Illinois,Hancock,994,13,15,1,2020-12-02,40.40423981,-91.16313899
Illinois,Hardin,160,0,2,1,2020-12-02,37.51810645,-88.26873022
Illinois,Henderson,303,4,1,0,2020-12-02,40.81908672,-90.92491462
Illinois,Henry,2809,63,18,3,2020-12-02,41.3533994,-90.13296166
Illinois,Iroquois,1782,38,29,2,2020-12-02,40.74717633,-87.82466784
Illinois,Jackson,2788,36,36,0,2020-12-02,37.78595185,-89.38232563
Illinois,Jasper,685,10,12,1,2020-12-02,39.01054275,-88.15437049
Illinois,Jefferson,1991,50,62,3,2020-12-02,38.29980057,-88.9240025
Illinois,Jersey,1361,41,24,0,2020-12-02,39.08869046,-90.35393073
Illinois,Jo Daviess,1123,29,20,2,2020-12-02,42.36542373,-90.21094405
Illinois,Johnson,751,14,6,0,2020-12-02,37.45939802,-88.88165419
Illinois,Kane,32910,377,483,11,2020-12-02,41.93842729,-88.42861412
Illinois,Kankakee,8975,139,109,5,2020-12-02,41.13746989,-87.86205334
Illinois,Kendall,6580,85,52,3,2020-12-02,41.59081014,-88.42869583
Illinois,Knox,2933,43,71,3,2020-12-02,40.93148779,-90.21330340000002
Illinois,Lake,38638,565,655,14,2020-12-02,42.3224907,-88.00367925
Illinois,LaSalle,6358,84,144,5,2020-12-02,41.34426129999999,-88.88633881
Illinois,Lawrence,1147,29,13,1,2020-12-02,38.71987914,-87.72884035
Illinois,Lee,2059,13,37,1,2020-12-02,41.74583951,-89.29977132
Illinois,Livingston,2348,36,36,7,2020-12-02,40.89188292,-88.55784752
Illinois,Logan,1798,14,18,2,2020-12-02,40.12581572,-89.36638784
Illinois,McDonough,1625,16,43,1,2020-12-02,40.45674722,-90.67775541
Illinois,McHenry,14817,162,167,8,2020-12-02,42.32451172,-88.45248227
Illinois,McLean,8791,80,59,0,2020-12-02,40.48996987,-88.84621113
Illinois,Macon,6738,69,140,5,2020-12-02,39.86064913,-88.96342505
Illinois,Macoupin,2385,64,21,1,2020-12-02,39.26119767,-89.92424028
Illinois,Madison,15129,297,263,1,2020-12-02,38.83042506,-89.90422563
Illinois,Marion,2613,55,61,7,2020-12-02,38.64963204,-88.91899208
Illinois,Marshall,427,6,7,1,2020-12-02,41.0327901,-89.34510444
Illinois,Mason,759,10,22,0,2020-12-02,40.23917274,-89.91824452
Illinois,Massac,626,16,4,1,2020-12-02,37.22078441,-88.71036614
Illinois,Menard,502,16,2,1,2020-12-02,40.02742725,-89.80246001
Illinois,Mercer,781,8,12,1,2020-12-02,41.20596782,-90.74290052
Illinois,Monroe,2167,41,48,1,2020-12-02,38.27594376,-90.17761038
Illinois,Montgomery,1212,23,20,1,2020-12-02,39.23198845,-89.47809254
Illinois,Morgan,2270,27,42,3,2020-12-02,39.71654544,-90.20255104
Illinois,Moultrie,948,19,11,1,2020-12-02,39.64187451,-88.62099969
Illinois,Ogle,2969,46,43,2,2020-12-02,42.04165196,-89.32184679
Illinois,Peoria,9593,147,137,2,2020-12-02,40.78702156,-89.76078901
Illinois,Perry,1161,33,29,1,2020-12-02,38.08510853,-89.36856219
Illinois,Piatt,820,12,5,0,2020-12-02,40.01360584,-88.59319339
Illinois,Pike,1051,10,29,2,2020-12-02,39.62265059,-90.8877017
Illinois,Pope,109,4,1,0,2020-12-02,37.41391284,-88.56152109
Illinois,Pulaski,443,5,2,0,2020-12-02,37.22631423,-89.13085001
Illinois,Putnam,252,2,0,0,2020-12-02,41.2013541,-89.2869272
Illinois,Randolph,2378,73,26,0,2020-12-02,38.05095369,-89.82512254
Illinois,Richland,850,32,19,0,2020-12-02,38.71240969,-88.08475366
Illinois,Rock Island,8864,114,146,6,2020-12-02,41.46613806,-90.57042164
Illinois,St. Clair,14020,258,266,4,2020-12-02,38.46996033,-89.93063427
Illinois,Saline,1150,17,28,1,2020-12-02,37.75332999,-88.54119706
Illinois,Sangamon,10553,170,104,1,2020-12-02,39.75836914,-89.65872023
Illinois,Schuyler,296,6,1,0,2020-12-02,40.1571798,-90.61114163
Illinois,Scott,244,0,0,0,2020-12-02,39.6429169,-90.47814431
Illinois,Shelby,1439,32,26,0,2020-12-02,39.39133527,-88.80611122
Illinois,Stark,283,9,4,0,2020-12-02,41.09309773,-89.79745866
Illinois,Stephenson,2537,28,37,1,2020-12-02,42.35129217,-89.662598
Illinois,Tazewell,7251,157,113,4,2020-12-02,40.50716185,-89.51404662
Illinois,Union,1240,31,28,0,2020-12-02,37.47119609,-89.25548938
Illinois,Vermilion,4146,89,56,2,2020-12-02,40.18417171,-87.73384359
Illinois,Wabash,632,24,8,0,2020-12-02,38.44272901,-87.84922065
Illinois,Warren,1125,5,22,0,2020-12-02,40.84925021,-90.6147432
Illinois,Washington,756,30,2,0,2020-12-02,38.35309213,-89.40982703
Illinois,Wayne,952,27,33,0,2020-12-02,38.42955355,-88.42586459
Illinois,White,651,12,10,0,2020-12-02,38.08706198,-88.17657461
Illinois,Whiteside,3829,21,123,2,2020-12-02,41.75509713,-89.91556058
Illinois,Will,40611,519,578,11,2020-12-02,41.44619267,-87.97862712
Illinois,Williamson,3785,68,83,0,2020-12-02,37.73033511,-88.92994027
Illinois,Winnebago,19547,171,277,13,2020-12-02,42.33641854,-89.16085327
Illinois,Woodford,1873,34,31,2,2020-12-02,40.78579374,-89.20973757
Indiana,Adams,1874,29,24,0,2020-12-02,40.7457653,-84.93671406
Indiana,Allen,20256,420,333,1,2020-12-02,41.09194313,-85.06800636
Indiana,Bartholomew,3675,59,65,0,2020-12-02,39.20744865,-85.89558181
Indiana,Benton,442,31,3,0,2020-12-02,40.60626947,-87.31093999
Indiana,Blackford,627,26,15,1,2020-12-02,40.47388153,-85.32499702
Indiana,Boone,2746,43,56,0,2020-12-02,40.0509304,-86.46841646
Indiana,Brown,399,5,5,0,2020-12-02,39.19605589,-86.22868909
Indiana,Carroll,793,24,13,0,2020-12-02,40.580783200000006,-86.56198812
Indiana,Cass,3191,33,32,0,2020-12-02,40.76135835,-86.34830753
Indiana,Clark,5648,100,84,3,2020-12-02,38.48015445,-85.70510334
Indiana,Clay,1380,14,26,0,2020-12-02,39.39561833,-87.11723506
Indiana,Clinton,2022,45,24,1,2020-12-02,40.30319754,-86.47277257
Indiana,Crawford,342,12,1,0,2020-12-02,38.28814402,-86.44518825
Indiana,Daviess,1742,39,46,1,2020-12-02,38.70186039,-87.07185406
Indiana,Dearborn,2497,55,33,1,2020-12-02,39.14647946,-84.97333539
Indiana,Decatur,1418,11,46,1,2020-12-02,39.30712658,-85.50087166
Indiana,DeKalb,2044,68,38,0,2020-12-02,41.39804622,-84.99906934
Indiana,Delaware,5434,135,108,1,2020-12-02,40.22787247,-85.39732772
Indiana,Dubois,2629,55,34,2,2020-12-02,38.36597551,-86.87924170000002
Indiana,Elkhart,18510,245,245,3,2020-12-02,41.59761169,-85.85875695
Indiana,Fayette,1638,21,37,2,2020-12-02,39.63684962,-85.17797541
Indiana,Floyd,3488,69,78,0,2020-12-02,38.32117957,-85.90385377
Indiana,Fountain,922,25,8,0,2020-12-02,40.12361933,-87.24217689
Indiana,Franklin,795,11,28,1,2020-12-02,39.4142482,-85.06062647
Indiana,Fulton,942,22,19,0,2020-12-02,41.0469907,-86.26252745
Indiana,Gibson,2170,59,33,3,2020-12-02,38.30393723,-87.58054938
Indiana,Grant,3156,66,52,0,2020-12-02,40.51587228,-85.65468702
Indiana,Greene,1179,34,54,1,2020-12-02,39.03630547,-86.96223202
Indiana,Hamilton,14971,354,181,6,2020-12-02,40.07306535,-86.05244729
Indiana,Hancock,3077,101,62,0,2020-12-02,39.82304555,-85.77566351
Indiana,Harrison,1620,24,24,0,2020-12-02,38.19467379,-86.10948271
Indiana,Hendricks,7143,182,163,1,2020-12-02,39.76719009,-86.51037283
Indiana,Henry,2721,34,41,1,2020-12-02,39.93029017,-85.39625719
Indiana,Howard,4005,100,78,0,2020-12-02,40.48527731,-86.11351892
Indiana,Huntington,1472,44,11,1,2020-12-02,40.82907273,-85.48822092
Indiana,Jackson,2552,74,37,3,2020-12-02,38.90915820000001,-86.03851889
Indiana,Jasper,1650,30,15,2,2020-12-02,41.02078733,-87.11553319
Indiana,Jay,1133,29,15,0,2020-12-02,40.43781032,-85.00576229
Indiana,Jefferson,1376,29,18,2,2020-12-02,38.78576239,-85.43633383
Indiana,Jennings,1024,20,15,0,2020-12-02,38.99588883,-85.62710784
Indiana,Johnson,7484,217,177,2,2020-12-02,39.48994426,-86.10149107
Indiana,Knox,2077,78,22,0,2020-12-02,38.68861576,-87.4194665
Indiana,Kosciusko,5018,101,46,1,2020-12-02,41.24521668,-85.86312322
Indiana,LaGrange,1565,25,33,0,2020-12-02,41.64232188,-85.42674232
Indiana,Lake,30007,364,480,5,2020-12-02,41.41874274,-87.38277575
Indiana,LaPorte,5171,71,104,3,2020-12-02,41.54366008,-86.74072188
Indiana,Lawrence,2005,30,49,0,2020-12-02,38.84112637,-86.48361629
Indiana,Madison,5732,152,125,1,2020-12-02,40.16143691,-85.71964711
Indiana,Marion,47763,877,893,8,2020-12-02,39.78163624,-86.13826325
Indiana,Marshall,3339,106,49,1,2020-12-02,41.32467367,-86.26185087
Indiana,Martin,389,6,6,0,2020-12-02,38.7099921,-86.80373186
Indiana,Miami,1881,50,18,1,2020-12-02,40.76940965,-86.04525048
Indiana,Monroe,5914,88,53,0,2020-12-02,39.16130004,-86.52414358
Indiana,Montgomery,1670,27,29,0,2020-12-02,40.04034823,-86.89335024
Indiana,Morgan,2518,77,45,1,2020-12-02,39.47899078,-86.44573375
Indiana,Newton,621,13,13,0,2020-12-02,40.95610449,-87.39635768
Indiana,Noble,2847,58,50,1,2020-12-02,41.39672484,-85.41966713
Indiana,Ohio,247,1,7,0,2020-12-02,38.955305,-84.96515993
Indiana,Orange,744,5,28,0,2020-12-02,38.54118920000001,-86.49523093
Indiana,Owen,714,27,10,1,2020-12-02,39.31145587,-86.83900724
Indiana,Parke,679,16,6,0,2020-12-02,39.77202286,-87.20375833
Indiana,Perry,880,3,21,0,2020-12-02,38.07809328,-86.63741946
Indiana,Pike,574,22,21,1,2020-12-02,38.40112197,-87.23574907
Indiana,Porter,9153,119,92,1,2020-12-02,41.45986947,-87.06848888
Indiana,Posey,1336,20,20,2,2020-12-02,38.02097333,-87.86480429
Indiana,Pulaski,480,10,20,2,2020-12-02,41.04166107,-86.69890683
Indiana,Putnam,1425,19,30,1,2020-12-02,39.66437981,-86.84517605
Indiana,Randolph,1395,27,24,1,2020-12-02,40.15734772,-85.01139319
Indiana,Ripley,1645,39,21,0,2020-12-02,39.10235626,-85.26212744
Indiana,Rush,627,8,8,0,2020-12-02,39.62002287,-85.4655599
Indiana,St. Joseph,18319,197,243,1,2020-12-02,41.61756781,-86.29040834
Indiana,Scott,1240,33,24,1,2020-12-02,38.68672078,-85.74627859
Indiana,Shelby,2128,42,61,2,2020-12-02,39.52305623,-85.79158570000001
Indiana,Spencer,957,16,8,0,2020-12-02,38.01519732,-87.0079644
Indiana,Starke,1008,17,28,2,2020-12-02,41.27890281,-86.64686895
Indiana,Steuben,1630,22,16,1,2020-12-02,41.64423868,-85.00101094
Indiana,Sullivan,1090,13,18,0,2020-12-02,39.08952258,-87.41414469
Indiana,Switzerland,276,2,5,0,2020-12-02,38.82767338,-85.03022429
Indiana,Tippecanoe,9911,263,33,0,2020-12-02,40.38872739,-86.89413959
Indiana,Tipton,665,9,27,0,2020-12-02,40.31123252,-86.05234925
Indiana,Union,297,1,2,0,2020-12-02,39.62550777,-84.92497066
Indiana,Vanderburgh,10862,190,134,5,2020-12-02,38.02658833,-87.58763124
Indiana,Vermillion,728,22,10,1,2020-12-02,39.8523352,-87.46160542
Indiana,Vigo,6580,67,105,2,2020-12-02,39.42944561,-87.39169027
Indiana,Wabash,1906,31,23,0,2020-12-02,40.84704239,-85.79328272
Indiana,Warren,276,8,3,0,2020-12-02,40.34728141,-87.35602659
Indiana,Warrick,3605,69,74,1,2020-12-02,38.08922676,-87.2716085
Indiana,Washington,878,13,9,1,2020-12-02,38.60219804,-86.1049363
Indiana,Wayne,3551,40,92,2,2020-12-02,39.8633444,-85.01044989
Indiana,Wells,1425,33,33,0,2020-12-02,40.72934187,-85.22132966
Indiana,White,1470,34,24,0,2020-12-02,40.74911165,-86.86492015
Indiana,Whitley,1565,42,16,0,2020-12-02,41.13863784,-85.50791236
Iowa,Adair,448,4,9,1,2020-12-02,41.33075609,-94.47105874
Iowa,Adams,179,8,2,0,2020-12-02,41.02903567,-94.69932645
Iowa,Allamakee,870,20,13,2,2020-12-02,43.28383218,-91.37860922
Iowa,Appanoose,807,3,13,1,2020-12-02,40.74324454,-92.86865906
Iowa,Audubon,305,4,2,0,2020-12-02,41.6844628,-94.90581859
Iowa,Benton,1740,12,23,2,2020-12-02,42.08011739,-92.06463573
Iowa,Black Hawk,11194,64,139,2,2020-12-02,42.4704581,-92.30524729
Iowa,Boone,1424,20,12,1,2020-12-02,42.03657094,-93.9313999
Iowa,Bremer,2002,18,12,0,2020-12-02,42.77461496,-92.31795937
Iowa,Buchanan,1220,11,10,0,2020-12-02,42.4709188,-91.83510825
Iowa,Buena Vista,3131,39,14,0,2020-12-02,42.73545875,-95.15100162
Iowa,Butler,1057,11,6,0,2020-12-02,42.73172833,-92.79015971
Iowa,Calhoun,1090,2,7,0,2020-12-02,42.38521079,-94.64046046
Iowa,Carroll,2036,24,24,2,2020-12-02,42.03617207,-94.86032705
Iowa,Cass,835,13,24,0,2020-12-02,41.33149454,-94.92792482
Iowa,Cedar,1125,14,13,0,2020-12-02,41.77233777,-91.13246684
Iowa,Cerro Gordo,3676,51,49,1,2020-12-02,43.08177563,-93.2612239
Iowa,Cherokee,947,29,4,0,2020-12-02,42.73538914,-95.62389402
Iowa,Chickasaw,908,25,4,0,2020-12-02,43.06001295,-92.31773347
Iowa,Clarke,500,6,4,0,2020-12-02,41.02868181,-93.78499767
Iowa,Clay,1225,25,4,0,2020-12-02,43.08247182,-95.15096481
Iowa,Clayton,1139,7,9,1,2020-12-02,42.84443388,-91.34133693
Iowa,Clinton,3414,24,44,0,2020-12-02,41.89981633,-90.53275096
Iowa,Crawford,1810,20,16,0,2020-12-02,42.03718237,-95.3819718
Iowa,Dallas,6571,95,59,2,2020-12-02,41.68560356,-94.04127625
Iowa,Davis,481,4,9,0,2020-12-02,40.74773536,-92.41005468
Iowa,Decatur,329,5,0,0,2020-12-02,40.73742757,-93.78645949
Iowa,Delaware,1470,14,21,0,2020-12-02,42.47104597,-91.3664492
Iowa,Des Moines,2986,66,21,0,2020-12-02,40.92012606,-91.18326592
Iowa,Dickinson,1438,25,11,0,2020-12-02,43.37787725,-95.1510206
Iowa,Dubuque,9415,73,94,1,2020-12-02,42.46815349,-90.88181925
Iowa,Emmet,786,15,26,2,2020-12-02,43.37782951,-94.67858943
Iowa,Fayette,1087,11,12,2,2020-12-02,42.86271799,-91.8441231
Iowa,Floyd,1102,22,19,2,2020-12-02,43.06000529999999,-92.78940097
Iowa,Franklin,760,15,21,0,2020-12-02,42.73270384,-93.26256925
Iowa,Fremont,374,5,3,0,2020-12-02,40.74542720000001,-95.60129045
Iowa,Greene,540,2,1,0,2020-12-02,42.03614551,-94.39658081
Iowa,Grundy,889,10,11,0,2020-12-02,42.40183723,-92.78829551
Iowa,Guthrie,771,3,15,0,2020-12-02,41.68378965,-94.50111014
Iowa,Hamilton,1177,12,13,3,2020-12-02,42.38382428,-93.70197703
Iowa,Hancock,900,18,8,1,2020-12-02,43.08178477,-93.73454884
Iowa,Hardin,1210,24,11,1,2020-12-02,42.38353877,-93.23654611
Iowa,Harrison,1108,7,32,2,2020-12-02,41.68330137,-95.81558439
Iowa,Henry,1913,43,7,0,2020-12-02,40.98767962,-91.54436349
Iowa,Howard,580,15,9,0,2020-12-02,43.35671042,-92.31702714
Iowa,Humboldt,801,6,5,0,2020-12-02,42.7764426,-94.20722537
Iowa,Ida,530,7,13,0,2020-12-02,42.38696136,-95.51355387
Iowa,Iowa,1002,14,13,0,2020-12-02,41.68630265,-92.0643373
Iowa,Jackson,1488,14,14,1,2020-12-02,42.17178824,-90.57354837
Iowa,Jasper,2297,30,46,2,2020-12-02,41.68576082,-93.05567785
Iowa,Jefferson,751,17,2,0,2020-12-02,41.03192394,-91.94849466
Iowa,Johnson,9793,80,37,0,2020-12-02,41.67169354,-91.58754744
Iowa,Jones,2359,15,17,0,2020-12-02,42.12118609,-91.13139641
Iowa,Keokuk,647,19,7,0,2020-12-02,41.33649833,-92.1785067
Iowa,Kossuth,1160,58,8,1,2020-12-02,43.20405458,-94.20691791
Iowa,Lee,2256,184,17,0,2020-12-02,40.64181461,-91.48183025
Iowa,Linn,14655,142,168,2,2020-12-02,42.07923082,-91.59809485
Iowa,Louisa,893,10,21,3,2020-12-02,41.21842119,-91.26102611
Iowa,Lucas,337,2,6,0,2020-12-02,41.02958964,-93.32780803
Iowa,Lyon,1061,4,9,1,2020-12-02,43.38107862,-96.20926845
Iowa,Madison,717,9,4,0,2020-12-02,41.33081904,-94.01554631
Iowa,Mahaska,1333,22,28,1,2020-12-02,41.33521503,-92.64083907
Iowa,Marion,2102,19,22,0,2020-12-02,41.33445101,-93.09934783
Iowa,Marshall,3576,35,47,1,2020-12-02,42.03586837,-92.9990819
Iowa,Mills,1085,16,8,1,2020-12-02,41.03299766,-95.61920963
Iowa,Mitchell,836,25,9,4,2020-12-02,43.35638371,-92.78887719
Iowa,Monona,451,7,6,2,2020-12-02,42.05220391,-95.95743843
Iowa,Monroe,451,1,13,0,2020-12-02,41.02988815,-92.8690667
Iowa,Montgomery,493,7,11,0,2020-12-02,41.03018714,-95.15642896
Iowa,Muscatine,2982,20,71,2,2020-12-02,41.48370744,-91.1121697
Iowa,O'Brien,1342,22,32,1,2020-12-02,43.08310673,-95.62474482
Iowa,Osceola,541,3,1,0,2020-12-02,43.37824276,-95.62422844
Iowa,Page,1166,13,4,0,2020-12-02,40.7393172,-95.1497813
Iowa,Palo Alto,673,14,4,0,2020-12-02,43.08193849,-94.67824621
Iowa,Plymouth,2844,57,44,2,2020-12-02,42.737633,-96.21366621
Iowa,Pocahontas,598,14,4,0,2020-12-02,42.73420133,-94.67862564
Iowa,Polk,34631,423,341,2,2020-12-02,41.68679484,-93.57767461
Iowa,Pottawattamie,6648,143,71,0,2020-12-02,41.33640314,-95.53907776
Iowa,Poweshiek,1020,10,13,0,2020-12-02,41.68625425,-92.53155731
Iowa,Ringgold,238,7,2,0,2020-12-02,40.73518949,-94.24368535
Iowa,Sac,897,11,8,0,2020-12-02,42.38624071,-95.10547892
Iowa,Scott,11661,131,89,2,2020-12-02,41.63935978,-90.61959493
Iowa,Shelby,795,14,11,0,2020-12-02,41.6850066,-95.31015553
Iowa,Sioux,3805,54,29,3,2020-12-02,43.08221074,-96.1767568
Iowa,Story,6983,91,23,1,2020-12-02,42.03621213,-93.46499005
Iowa,Tama,1566,4,41,1,2020-12-02,42.07991767,-92.53266945
Iowa,Taylor,477,6,3,0,2020-12-02,40.73710579,-94.69778563
Iowa,Union,816,28,6,0,2020-12-02,41.0277278,-94.24234847
Iowa,Van Buren,375,10,5,0,2020-12-02,40.75326764,-91.95017958
Iowa,Wapello,2637,52,72,0,2020-12-02,41.03064984,-92.40954728
Iowa,Warren,2917,44,14,0,2020-12-02,41.33559454,-93.56007641
Iowa,Washington,1497,29,15,0,2020-12-02,41.33577126,-91.71725711
Iowa,Wayne,307,3,7,0,2020-12-02,40.73969028,-93.32752197
Iowa,Webster,3716,17,39,3,2020-12-02,42.42853483,-94.17987389
Iowa,Winnebago,948,10,25,1,2020-12-02,43.37751174,-93.73407298
Iowa,Winneshiek,1027,17,13,0,2020-12-02,43.29094334,-91.84422722
Iowa,Woodbury,10622,138,133,3,2020-12-02,42.38979414,-96.0459439
Iowa,Worth,382,9,0,0,2020-12-02,43.37750768,-93.26087602
Iowa,Wright,1300,13,7,0,2020-12-02,42.73305373,-93.73515113
Kansas,Allen,402,28,1,0,2020-12-02,37.88582951,-95.30030847
Kansas,Anderson,402,17,0,0,2020-12-02,38.21413251,-95.29272815
Kansas,Atchison,908,35,9,0,2020-12-02,39.53185661,-95.30870026
Kansas,Barber,201,4,2,2,2020-12-02,37.2288586,-98.68460053
Kansas,Barton,1742,36,13,0,2020-12-02,38.47889676,-98.75636726
Kansas,Bourbon,609,45,3,0,2020-12-02,37.85508555,-94.84865997
Kansas,Brown,795,35,11,4,2020-12-02,39.82652589,-95.56421698
Kansas,Butler,3559,91,11,0,2020-12-02,37.78134351,-96.83878537
Kansas,Chase,170,7,3,0,2020-12-02,38.30292938,-96.59563862
Kansas,Chautauqua,94,13,1,0,2020-12-02,37.14994405,-96.2454192
Kansas,Cherokee,1206,55,9,0,2020-12-02,37.16928494,-94.8462897
Kansas,Cheyenne,218,10,9,0,2020-12-02,39.78580976,-101.7318201
Kansas,Clark,145,5,5,1,2020-12-02,37.23577007,-99.81883015
Kansas,Clay,462,9,12,1,2020-12-02,39.34948772,-97.16518128
Kansas,Cloud,641,28,11,0,2020-12-02,39.48028352,-97.64925343
Kansas,Coffey,323,14,10,0,2020-12-02,38.2365018,-95.73379515
Kansas,Comanche,85,3,0,0,2020-12-02,37.19114520000001,-99.27113247
Kansas,Cowley,1684,53,10,0,2020-12-02,37.23781842,-96.83776647
Kansas,Crawford,2507,80,18,0,2020-12-02,37.50675523,-94.85245778
Kansas,Decatur,201,0,1,0,2020-12-02,39.78468441,-100.4594081
Kansas,Dickinson,771,40,10,0,2020-12-02,38.86600962,-97.15532383
Kansas,Doniphan,534,18,2,0,2020-12-02,39.79067154,-95.14056866
Kansas,Douglas,4968,40,27,1,2020-12-02,38.88503636,-95.2925121
Kansas,Edwards,186,8,0,0,2020-12-02,37.88735543,-99.31263309
Kansas,Elk,62,4,0,0,2020-12-02,37.45338105,-96.24369667
Kansas,Ellis,2484,80,28,0,2020-12-02,38.91458712,-99.31751551
Kansas,Ellsworth,728,17,4,0,2020-12-02,38.69677695,-98.20462799
Kansas,Finney,4846,218,28,5,2020-12-02,38.04340344,-100.7381938
Kansas,Ford,4693,43,13,0,2020-12-02,37.69200114,-99.88825298
Kansas,Franklin,1142,29,16,0,2020-12-02,38.56443815,-95.28644341
Kansas,Geary,1044,52,5,0,2020-12-02,38.99871131,-96.7577178
Kansas,Gove,308,7,20,0,2020-12-02,38.91588178,-100.4829321
Kansas,Graham,163,0,2,0,2020-12-02,39.34987223,-99.88332493
Kansas,Grant,771,5,12,0,2020-12-02,37.56227336,-101.3079758
Kansas,Gray,448,0,4,0,2020-12-02,37.73836671,-100.4369088
Kansas,Greeley,88,0,0,0,2020-12-02,38.4808095,-101.8061079
Kansas,Greenwood,227,0,2,1,2020-12-02,37.8774388,-96.23250453
Kansas,Hamilton,161,2,0,0,2020-12-02,37.99978709,-101.7921066
Kansas,Harper,334,14,13,1,2020-12-02,37.19175361,-98.07578384
Kansas,Harvey,1911,69,16,0,2020-12-02,38.04293782,-97.42747573
Kansas,Haskell,284,20,1,0,2020-12-02,37.5620394,-100.8710738
Kansas,Hodgeman,143,3,4,0,2020-12-02,38.08780079,-99.89829881
Kansas,Jackson,735,38,4,0,2020-12-02,39.41673394,-95.79356799
Kansas,Jefferson,758,27,8,0,2020-12-02,39.2347941,-95.38289232
Kansas,Jewell,93,8,1,0,2020-12-02,39.78470589,-98.21820662
Kansas,Johnson,28078,658,293,4,2020-12-02,38.88548175,-94.82250877
Kansas,Kearny,400,19,8,0,2020-12-02,38.00017981,-101.321681
Kansas,Kingman,402,14,4,0,2020-12-02,37.55909527,-98.13638678
Kansas,Kiowa,111,3,0,0,2020-12-02,37.55848695,-99.2856537
Kansas,Labette,948,73,6,0,2020-12-02,37.19113093,-95.29849679
Kansas,Lane,83,6,0,0,2020-12-02,38.48119447,-100.4660754
Kansas,Leavenworth,3895,78,32,1,2020-12-02,39.20183497,-95.03620809
Kansas,Lincoln,96,2,1,0,2020-12-02,39.04549684,-98.20756994
Kansas,Linn,324,16,1,0,2020-12-02,38.21267844,-94.84254089
Kansas,Logan,241,3,0,0,2020-12-02,38.91735806,-101.148475
Kansas,Lyon,2725,68,50,3,2020-12-02,38.45576156,-96.15275715
Kansas,McPherson,1522,0,10,0,2020-12-02,38.39184858,-97.64769869
Kansas,Marion,435,5,1,0,2020-12-02,38.35855394,-97.0985251
Kansas,Marshall,469,14,0,0,2020-12-02,39.78359669,-96.52278974
Kansas,Meade,320,12,2,0,2020-12-02,37.23859987,-100.364831
Kansas,Miami,1091,18,3,1,2020-12-02,38.56383358,-94.83832189
Kansas,Mitchell,252,24,0,0,2020-12-02,39.39331582,-98.20906732
Kansas,Montgomery,1225,67,6,0,2020-12-02,37.19236568,-95.74329258
Kansas,Morris,191,18,1,0,2020-12-02,38.68827511,-96.65128437
Kansas,Morton,164,0,6,0,2020-12-02,37.19141121,-101.79925190000002
Kansas,Nemaha,1107,22,24,0,2020-12-02,39.78345387,-96.01392079
Kansas,Neosho,730,40,1,1,2020-12-02,37.55862897,-95.30670046
Kansas,Ness,281,3,13,0,2020-12-02,38.47974157,-99.91547333
Kansas,Norton,1107,15,24,1,2020-12-02,39.78443827,-99.90286639
Kansas,Osage,553,18,6,0,2020-12-02,38.65235984,-95.72707998
Kansas,Osborne,98,7,0,0,2020-12-02,39.3503437,-98.76753828
Kansas,Ottawa,264,14,0,0,2020-12-02,39.13237408,-97.65020313
Kansas,Pawnee,717,42,1,0,2020-12-02,38.18108732,-99.23692334
Kansas,Phillips,467,32,10,0,2020-12-02,39.78465501,-99.34668865
Kansas,Pottawatomie,703,10,2,0,2020-12-02,39.37925655,-96.34564657
Kansas,Pratt,529,29,12,2,2020-12-02,37.64780729,-98.73922153
Kansas,Rawlins,248,9,3,0,2020-12-02,39.78525843,-101.0761617
Kansas,Reno,5316,179,55,4,2020-12-02,37.95230263,-98.08607292
Kansas,Republic,367,18,5,0,2020-12-02,39.82799632,-97.65036709
Kansas,Rice,493,25,1,0,2020-12-02,38.34616184,-98.19992118
Kansas,Riley,3780,71,16,1,2020-12-02,39.28935726,-96.73420026
Kansas,Rooks,380,12,8,0,2020-12-02,39.35022773,-99.32484567
Kansas,Rush,323,59,0,0,2020-12-02,38.52275276,-99.30863983
Kansas,Russell,575,24,15,0,2020-12-02,38.91462787,-98.76254297
Kansas,Saline,2619,116,29,7,2020-12-02,38.78369175,-97.65185177
Kansas,Scott,468,106,5,2,2020-12-02,38.48222076,-100.9066539
Kansas,Sedgwick,28617,651,172,22,2020-12-02,37.6842718,-97.4608198
Kansas,Seward,3006,0,13,0,2020-12-02,37.19324632,-100.8507201
Kansas,Shawnee,8179,324,139,0,2020-12-02,39.04100763,-95.7557264
Kansas,Sheridan,325,5,0,0,2020-12-02,39.35018161,-100.4418259
Kansas,Sherman,463,12,7,0,2020-12-02,39.35147699,-101.7197624
Kansas,Smith,157,13,1,0,2020-12-02,39.78516566,-98.78566062
Kansas,Stafford,219,10,3,0,2020-12-02,38.03100851,-98.71762001
Kansas,Stanton,150,2,2,0,2020-12-02,37.56304714,-101.7843534
Kansas,Stevens,449,5,4,0,2020-12-02,37.1923008,-101.3118967
Kansas,Sumner,858,34,6,0,2020-12-02,37.23682549,-97.47721621
Kansas,Thomas,740,3,6,0,2020-12-02,39.35107575,-101.0553705
Kansas,Trego,232,7,3,0,2020-12-02,38.91467218,-99.87284448
Kansas,Wabaunsee,315,7,2,0,2020-12-02,38.95471985,-96.20350509
Kansas,Wallace,138,0,0,0,2020-12-02,38.91686134,-101.7638876
Kansas,Washington,327,5,6,0,2020-12-02,39.78420784,-97.0875323
Kansas,Wichita,156,4,2,0,2020-12-02,38.48178252,-101.3471509
Kansas,Wilson,340,27,4,0,2020-12-02,37.55937174,-95.74323255
Kansas,Woodson,70,1,0,0,2020-12-02,37.8865336,-95.74006277
Kansas,Wyandotte,11781,253,180,0,2020-12-02,39.11727348,-94.76378225
Kentucky,Adair,776,14,23,0,2020-12-02,37.10459774,-85.28129668
Kentucky,Allen,744,6,13,0,2020-12-02,36.75197631,-86.19457544
Kentucky,Anderson,549,20,1,0,2020-12-02,38.00671029,-84.99171713
Kentucky,Ballard,160,4,2,0,2020-12-02,37.05842757,-88.99427697
Kentucky,Barren,2064,30,28,0,2020-12-02,36.96469836,-85.93338945
Kentucky,Bath,293,10,1,0,2020-12-02,38.14735938,-83.74588932
Kentucky,Bell,1290,15,19,0,2020-12-02,36.73355174,-83.67766671
Kentucky,Boone,4947,145,29,0,2020-12-02,38.97065142,-84.72615357
Kentucky,Bourbon,569,15,1,0,2020-12-02,38.2054607,-84.21827874
Kentucky,Boyd,1851,48,25,0,2020-12-02,38.36176608,-82.68652187
Kentucky,Boyle,1073,46,0,0,2020-12-02,37.62680923,-84.8633779
Kentucky,Bracken,170,9,3,0,2020-12-02,38.69158994,-84.08532444
Kentucky,Breathitt,374,0,3,0,2020-12-02,37.52333168,-83.31959161
Kentucky,Breckinridge,450,2,4,0,2020-12-02,37.77377239,-86.42885017
Kentucky,Bullitt,3024,71,22,0,2020-12-02,37.97162523,-85.68955617
Kentucky,Butler,592,6,16,0,2020-12-02,37.20946153,-86.68748787
Kentucky,Caldwell,610,7,5,0,2020-12-02,37.14749129,-87.86948214
Kentucky,Calloway,1803,27,17,0,2020-12-02,36.62093411,-88.2731593
Kentucky,Campbell,3028,69,20,0,2020-12-02,38.94384345,-84.37875208
Kentucky,Carlisle,209,2,1,0,2020-12-02,36.85372876,-88.96692220000001
Kentucky,Carroll,354,5,6,0,2020-12-02,38.66599534,-85.12601074
Kentucky,Carter,810,13,5,0,2020-12-02,38.31690743,-83.05092385
Kentucky,Casey,527,6,16,0,2020-12-02,37.32533118,-84.92726209
Kentucky,Christian,3098,46,40,0,2020-12-02,36.89267803,-87.49055367
Kentucky,Clark,973,24,12,0,2020-12-02,37.9689263,-84.14615986
Kentucky,Clay,1095,56,8,0,2020-12-02,37.16451126,-83.712575
Kentucky,Clinton,417,10,4,0,2020-12-02,36.72581156,-85.13377529
Kentucky,Crittenden,254,0,1,0,2020-12-02,37.35839237,-88.08826090000002
Kentucky,Cumberland,231,3,0,0,2020-12-02,36.78926125,-85.39050034
Kentucky,Daviess,3766,91,48,0,2020-12-02,37.73028906,-87.09019479999998
Kentucky,Edmonson,390,14,13,0,2020-12-02,37.21218923,-86.23955613
Kentucky,Elliott,647,2,0,0,2020-12-02,38.11624059,-83.09771563
Kentucky,Estill,489,5,0,0,2020-12-02,37.69241417,-83.95956369
Kentucky,Fayette,17873,219,108,0,2020-12-02,38.0368225,-84.45576892
Kentucky,Fleming,367,9,0,0,2020-12-02,38.36758311,-83.69657514
Kentucky,Floyd,1309,17,7,0,2020-12-02,37.56213922,-82.74750924
Kentucky,Franklin,1479,37,14,0,2020-12-02,38.2379395,-84.87962551
Kentucky,Fulton,303,3,4,0,2020-12-02,36.55238827,-89.20140068
Kentucky,Gallatin,269,22,9,0,2020-12-02,38.75398691,-84.8558382
Kentucky,Garrard,644,13,4,0,2020-12-02,37.6388668,-84.53289319
Kentucky,Grant,725,27,6,0,2020-12-02,38.64962758,-84.62415957
Kentucky,Graves,1915,28,37,0,2020-12-02,36.72292505,-88.65143315
Kentucky,Grayson,963,10,24,0,2020-12-02,37.46231118,-86.34248968
Kentucky,Green,512,1,10,0,2020-12-02,37.26484328,-85.5540745
Kentucky,Greenup,1503,33,12,0,2020-12-02,38.54332505,-82.9215658
Kentucky,Hancock,313,1,9,0,2020-12-02,37.83766422,-86.78280584
Kentucky,Hardin,4465,138,31,0,2020-12-02,37.6976111,-85.96319251
Kentucky,Harlan,944,12,15,0,2020-12-02,36.85699301,-83.21899516
Kentucky,Harrison,501,5,1,0,2020-12-02,38.44188174,-84.32869741
Kentucky,Hart,865,35,4,0,2020-12-02,37.29943898,-85.88461055
Kentucky,Henderson,2167,40,37,0,2020-12-02,37.79344553,-87.57392021
Kentucky,Henry,524,6,3,0,2020-12-02,38.44942688,-85.11587507
Kentucky,Hickman,170,6,2,0,2020-12-02,36.67948079999999,-88.97875928
Kentucky,Hopkins,1915,35,48,0,2020-12-02,37.30939025,-87.54670406
Kentucky,Jackson,670,3,17,0,2020-12-02,37.41866422,-83.99825483
Kentucky,Jefferson,38587,686,458,0,2020-12-02,38.18664655,-85.65931031
Kentucky,Jessamine,1891,41,31,0,2020-12-02,37.87119786,-84.58252003
Kentucky,Johnson,813,15,4,0,2020-12-02,37.85106355,-82.8264322
Kentucky,Kenton,5705,118,59,0,2020-12-02,38.93950319,-84.53241199
Kentucky,Knott,578,5,9,0,2020-12-02,37.35388197,-82.94981134
Kentucky,Knox,1241,16,10,0,2020-12-02,36.89225732,-83.85403396
Kentucky,Larue,588,6,1,0,2020-12-02,37.54567114,-85.70138352
Kentucky,Laurel,2600,76,11,0,2020-12-02,37.10975748,-84.11321779
Kentucky,Lawrence,434,16,1,0,2020-12-02,38.07136018,-82.72882223
Kentucky,Lee,949,1,15,0,2020-12-02,37.59645942,-83.71513901
Kentucky,Leslie,305,13,1,0,2020-12-02,37.09246661,-83.37999606
Kentucky,Letcher,541,4,2,0,2020-12-02,37.12306748,-82.85346474
Kentucky,Lewis,516,12,20,0,2020-12-02,38.53184419,-83.37735618
Kentucky,Lincoln,778,34,20,0,2020-12-02,37.45475628,-84.6565327
Kentucky,Livingston,314,4,3,0,2020-12-02,37.21137452,-88.34797529
Kentucky,Logan,1265,14,35,0,2020-12-02,36.85949479,-86.877635
Kentucky,Lyon,211,2,5,0,2020-12-02,37.02080035,-88.07886257
Kentucky,McCracken,3042,55,28,0,2020-12-02,37.05350953,-88.70445755
Kentucky,McCreary,427,4,1,0,2020-12-02,36.73874143,-84.48102924
Kentucky,McLean,404,8,16,0,2020-12-02,37.5301951,-87.26803443
Kentucky,Madison,4120,96,18,0,2020-12-02,37.71659336,-84.27220275
Kentucky,Magoffin,541,20,1,0,2020-12-02,37.70820545,-83.0657714
Kentucky,Marion,1097,67,12,0,2020-12-02,37.55218078,-85.26898542
Kentucky,Marshall,1034,14,14,0,2020-12-02,36.88007070000001,-88.32803576
Kentucky,Martin,449,9,8,0,2020-12-02,37.79990579,-82.51247478
Kentucky,Mason,474,6,3,0,2020-12-02,38.59471935,-83.82151043
Kentucky,Meade,687,8,4,0,2020-12-02,37.96163597,-86.21028219
Kentucky,Menifee,136,1,1,0,2020-12-02,37.94090733,-83.59985712
Kentucky,Mercer,752,6,6,0,2020-12-02,37.81474237,-84.87488475
Kentucky,Metcalfe,401,4,4,0,2020-12-02,36.99459295,-85.63123699
Kentucky,Monroe,734,11,16,0,2020-12-02,36.71225341,-85.71596443
Kentucky,Montgomery,985,24,10,0,2020-12-02,38.03253032,-83.9145241
Kentucky,Morgan,345,6,0,0,2020-12-02,37.92465657,-83.25558245
Kentucky,Muhlenberg,1423,8,19,0,2020-12-02,37.21425819,-87.14632053
Kentucky,Nelson,2225,49,6,0,2020-12-02,37.80335779,-85.4657193
Kentucky,Nicholas,178,0,3,0,2020-12-02,38.33342292,-84.01889177
Kentucky,Ohio,1022,13,17,0,2020-12-02,37.47751843,-86.85368087
Kentucky,Oldham,2608,50,33,0,2020-12-02,38.39791089,-85.448222
Kentucky,Owen,206,7,3,0,2020-12-02,38.51679143,-84.82404619
Kentucky,Owsley,240,2,1,0,2020-12-02,37.42823949,-83.68811419
Kentucky,Pendleton,405,14,1,0,2020-12-02,38.69607718,-84.35599463
Kentucky,Perry,1040,36,11,0,2020-12-02,37.25023553,-83.22922731
Kentucky,Pike,1942,46,22,0,2020-12-02,37.47088263,-82.39487445
Kentucky,Powell,507,4,0,0,2020-12-02,37.83218794,-83.82553961
Kentucky,Pulaski,1700,32,13,0,2020-12-02,37.10466131,-84.57629079
Kentucky,Robertson,88,3,3,0,2020-12-02,38.51923469,-84.05055616
Kentucky,Rockcastle,550,16,7,0,2020-12-02,37.36642393,-84.31176452
Kentucky,Rowan,865,28,2,0,2020-12-02,38.19484205,-83.42088935
Kentucky,Russell,587,10,7,0,2020-12-02,36.99308373,-85.06070117
Kentucky,Scott,1811,45,21,0,2020-12-02,38.29622293,-84.5816631
Kentucky,Shelby,2294,24,27,0,2020-12-02,38.21476019,-85.194223
Kentucky,Simpson,736,19,8,0,2020-12-02,36.74058474,-86.58047435
Kentucky,Spencer,660,9,2,0,2020-12-02,38.03223971,-85.32749335
Kentucky,Taylor,1003,29,7,0,2020-12-02,37.3677562,-85.3329931
Kentucky,Todd,448,14,13,0,2020-12-02,36.8381152,-87.17878374
Kentucky,Trigg,427,6,1,0,2020-12-02,36.80767017,-87.87333656
Kentucky,Trimble,190,6,0,0,2020-12-02,38.61056487,-85.33775972
Kentucky,Union,743,10,7,0,2020-12-02,37.66166713,-87.94300009
Kentucky,Warren,7541,103,73,0,2020-12-02,36.99903045,-86.42672751
Kentucky,Washington,581,21,3,0,2020-12-02,37.75599461,-85.17407732
Kentucky,Wayne,578,7,2,0,2020-12-02,36.80310688,-84.8251971
Kentucky,Webster,579,13,7,0,2020-12-02,37.52168356,-87.67989953
Kentucky,Whitley,1601,37,8,0,2020-12-02,36.75700531,-84.14541217
Kentucky,Wolfe,196,0,1,0,2020-12-02,37.73941626,-83.49303612
Kentucky,Woodford,824,17,0,0,2020-12-02,38.04178222,-84.7417556
Louisiana,Acadia,4079,50,118,0,2020-12-02,30.2950649,-92.41419698
Louisiana,Allen,2127,4,68,0,2020-12-02,30.65385745,-92.82442028
Louisiana,Ascension,5896,59,108,0,2020-12-02,30.20406249,-90.91328409999998
Louisiana,Assumption,1037,8,25,0,2020-12-02,29.89946234,-91.06461642
Louisiana,Avoyelles,2171,29,68,0,2020-12-02,31.07796211,-92.00079449
Louisiana,Beauregard,1418,19,50,0,2020-12-02,30.64836518,-93.34173616
Louisiana,Bienville,810,23,37,0,2020-12-02,32.34569994,-93.05398492
Louisiana,Bossier,6528,118,158,2,2020-12-02,32.67932307,-93.60460152
Louisiana,Caddo,13926,387,448,2,2020-12-02,32.57991587,-93.88375652
Louisiana,Calcasieu,10764,34,249,0,2020-12-02,30.22931235,-93.35400434
Louisiana,Caldwell,656,5,10,0,2020-12-02,32.0902519,-92.11752148
Louisiana,Cameron,304,8,3,0,2020-12-02,29.87592238,-93.19310676
Louisiana,Catahoula,643,-1,18,0,2020-12-02,31.66778967,-91.84526385
Louisiana,Claiborne,766,11,31,0,2020-12-02,32.82308512,-92.99526883
Louisiana,Concordia,1036,5,28,0,2020-12-02,31.44817835,-91.63814433
Louisiana,De Soto,1320,37,39,0,2020-12-02,32.05457447,-93.74130302
Louisiana,East Baton Rouge,20565,180,518,0,2020-12-02,30.53842039,-91.09777565
Louisiana,East Carroll,764,3,9,0,2020-12-02,32.73926954,-91.23425694
Louisiana,East Feliciana,2171,10,84,0,2020-12-02,30.84425359,-91.04976723
Louisiana,Evangeline,1994,18,45,0,2020-12-02,30.72985248,-92.39915924
Louisiana,Franklin,1749,7,64,0,2020-12-02,32.13675181,-91.67589857
Louisiana,Grant,903,27,32,0,2020-12-02,31.59882456,-92.56124347
Louisiana,Iberia,3773,1,110,3,2020-12-02,29.86803617,-91.75871777
Louisiana,Iberville,2089,39,65,0,2020-12-02,30.25734305,-91.3499598
Louisiana,Jackson,1171,7,33,2,2020-12-02,32.30251776,-92.55692092
Louisiana,Jefferson,24084,924,630,1,2020-12-02,29.74075478,-90.11115756
Louisiana,Jefferson Davis,1787,13,51,0,2020-12-02,30.26896765,-92.81210004
Louisiana,Lafayette,12509,79,155,3,2020-12-02,30.2049055,-92.06959876
Louisiana,Lafourche,4882,30,141,1,2020-12-02,29.52470226,-90.40976986
Louisiana,LaSalle,922,16,20,0,2020-12-02,31.67884782,-92.15907765
Louisiana,Lincoln,2607,30,61,1,2020-12-02,32.6003154,-92.6659741
Louisiana,Livingston,6310,100,95,1,2020-12-02,30.44143993,-90.73061664
Louisiana,Madison,1074,3,15,0,2020-12-02,32.36918118,-91.23973355
Louisiana,Morehouse,1455,15,35,2,2020-12-02,32.81686191,-91.80421614
Louisiana,Natchitoches,2123,35,49,2,2020-12-02,31.72321584,-93.09816516
Louisiana,Orleans,16421,344,649,1,2020-12-02,30.06971951,-89.92660315
Louisiana,Ouachita,10324,164,215,1,2020-12-02,32.47645559,-92.15704172
Louisiana,Plaquemines,1222,42,20,0,2020-12-02,29.42245447,-89.60322085
Louisiana,Pointe Coupee,1419,26,49,0,2020-12-02,30.71409502,-91.60209535
Louisiana,Rapides,6454,29,190,1,2020-12-02,31.19778499,-92.52997303
Louisiana,Red River,573,4,26,0,2020-12-02,32.09530039,-93.34213308
Louisiana,Richland,1424,11,32,3,2020-12-02,32.41391005,-91.76634876
Louisiana,Sabine,1557,35,21,0,2020-12-02,31.56388699,-93.55433981
Louisiana,St. Bernard,1885,32,34,0,2020-12-02,29.87761636,-89.51887093
Louisiana,St. Charles,2709,40,70,0,2020-12-02,29.90709658,-90.35555967
Louisiana,St. Helena,527,12,4,0,2020-12-02,30.82210324,-90.71013176
Louisiana,St. James,1011,9,40,0,2020-12-02,30.02531716,-90.80212061
Louisiana,St. John the Baptist,2042,20,116,0,2020-12-02,30.12597499,-90.4753503
Louisiana,St. Landry,5215,31,165,9,2020-12-02,30.59724262,-92.00135806
Louisiana,St. Martin,2812,16,73,1,2020-12-02,30.13112107,-91.61403569
Louisiana,St. Mary,2409,20,95,0,2020-12-02,29.69262097,-91.44702164
Louisiana,St. Tammany,10878,200,296,2,2020-12-02,30.40942847,-89.95642711
Louisiana,Tangipahoa,6911,77,144,2,2020-12-02,30.62888673,-90.40664996
Louisiana,Tensas,220,-1,3,0,2020-12-02,32.00760749,-91.32915234
Louisiana,Terrebonne,4637,45,138,1,2020-12-02,29.37343766,-90.82626855
Louisiana,Union,1432,0,59,2,2020-12-02,32.83121059,-92.3749373
Louisiana,Vermilion,2662,3,76,1,2020-12-02,29.83517605,-92.30292538
Louisiana,Vernon,1468,14,66,1,2020-12-02,31.10884837,-93.18153838
Louisiana,Washington,2343,30,79,0,2020-12-02,30.85288548,-90.03866652
Louisiana,Webster,2069,25,56,0,2020-12-02,32.70847669,-93.33121835
Louisiana,West Baton Rouge,1403,14,43,0,2020-12-02,30.46058217,-91.30989571
Louisiana,West Carroll,682,1,21,1,2020-12-02,32.78550125,-91.461201
Louisiana,West Feliciana,813,20,25,0,2020-12-02,30.87882871,-91.4148538
Louisiana,Winn,1008,13,26,0,2020-12-02,31.94449367,-92.63789413
Maine,Androscoggin,1609,16,27,0,2020-12-02,44.1664747,-70.20380627
Maine,Aroostook,151,5,1,0,2020-12-02,46.65926321,-68.59841248
Maine,Cumberland,3905,36,71,0,2020-12-02,43.8370751,-70.37226999
Maine,Franklin,229,6,4,0,2020-12-02,44.97330019,-70.44381045
Maine,Hancock,277,27,2,1,2020-12-02,44.59816444,-68.38401854
Maine,Kennebec,839,21,18,1,2020-12-02,44.40759555,-69.76738544
Maine,Knox,213,5,4,0,2020-12-02,44.11486325,-69.10529169
Maine,Lincoln,161,5,2,0,2020-12-02,44.05996956,-69.54227124
Maine,Oxford,366,16,4,1,2020-12-02,44.49952995,-70.75682123
Maine,Penobscot,944,35,13,1,2020-12-02,45.40194593,-68.65020455
Maine,Piscataquis,49,3,1,0,2020-12-02,45.83839062,-69.2860223
Maine,Sagadahoc,158,2,0,0,2020-12-02,43.95415864,-69.85074999
Maine,Somerset,464,3,20,0,2020-12-02,45.51229767,-69.95995554
Maine,Waldo,232,1,16,0,2020-12-02,44.4858305,-69.12061935
Maine,Washington,196,3,2,0,2020-12-02,45.01607142,-67.62813524
Maine,York,2404,37,33,0,2020-12-02,43.47808377,-70.71052375
Maryland,Allegany,3466,100,80,6,2020-12-02,39.62357628,-78.69280486
Maryland,Anne Arundel,17166,247,297,0,2020-12-02,39.00670238,-76.60329337
Maryland,Baltimore,29897,252,743,3,2020-12-02,39.45784712,-76.62911955
Maryland,Calvert,1635,24,38,1,2020-12-02,38.53961642,-76.56820632
Maryland,Caroline,990,7,10,0,2020-12-02,38.87172293,-75.82904158
Maryland,Carroll,3415,49,138,0,2020-12-02,39.56453592,-77.02373735
Maryland,Cecil,2199,43,47,5,2020-12-02,39.56647682,-75.94627411
Maryland,Charles,4502,68,104,0,2020-12-02,38.51092331,-76.98580666
Maryland,Dorchester,1030,9,16,1,2020-12-02,38.45413522,-76.02752426
Maryland,Frederick,7123,174,150,0,2020-12-02,39.47296601,-77.39999394
Maryland,Garrett,817,29,8,2,2020-12-02,39.52786077,-79.27355126
Maryland,Harford,6234,74,104,1,2020-12-02,39.55010644,-76.30775940000002
Maryland,Howard,8343,91,149,1,2020-12-02,39.25305293,-76.93126208
Maryland,Kent,467,1,25,0,2020-12-02,39.24976208,-76.04741541
Maryland,Montgomery,34159,254,966,6,2020-12-02,39.13676329,-77.20358245
Maryland,Prince George's,42190,333,938,2,2020-12-02,38.83070039,-76.8496441
Maryland,Queen Anne's,1111,3,27,0,2020-12-02,39.06198912,-76.03530977
Maryland,St. Mary's,2210,36,62,0,2020-12-02,38.30058422,-76.60629279999998
Maryland,Somerset,1102,41,9,0,2020-12-02,38.1163542,-75.75118623
Maryland,Talbot,830,6,7,0,2020-12-02,38.76618159,-76.10882561
Maryland,Washington,4469,94,77,4,2020-12-02,39.60835778,-77.82002295
Maryland,Wicomico,3490,28,59,0,2020-12-02,38.37301947,-75.62705831
Maryland,Worcester,1504,13,39,1,2020-12-02,38.21274277,-75.33200012
Maryland,Baltimore,29897,252,743,3,2020-12-02,39.45784712,-76.62911955
Massachusetts,Barnstable,3204,75,194,2,2020-12-02,41.72980578,-70.28854339
Massachusetts,Berkshire,1728,83,65,1,2020-12-02,42.37428441,-73.20524838
Massachusetts,Bristol,20551,530,868,6,2020-12-02,41.79228404,-71.10872211
Massachusetts,Essex,36106,901,1467,7,2020-12-02,42.6687626,-70.94687179
Massachusetts,Franklin,676,18,76,0,2020-12-02,42.58119713,-72.58602547
Massachusetts,Hampden,16735,278,917,4,2020-12-02,42.13440424,-72.63235561
Massachusetts,Hampshire,2390,45,164,1,2020-12-02,42.33997957,-72.65898478
Massachusetts,Middlesex,47671,928,2435,5,2020-12-02,42.48607732,-71.39049229
Massachusetts,Norfolk,16695,336,1187,3,2020-12-02,42.16073095,-71.20530408
Massachusetts,Plymouth,15150,260,902,6,2020-12-02,41.94070556,-70.80802823
Massachusetts,Suffolk,37821,503,1256,6,2020-12-02,42.3279514,-71.07850442
Massachusetts,Worcester,25806,660,1285,5,2020-12-02,42.35026951,-71.90493363
Michigan,Alcona,204,6,5,1,2020-12-02,44.6846864,-83.59507875
Michigan,Alger,238,2,2,0,2020-12-02,46.41292944,-86.60260122
Michigan,Allegan,4214,63,34,0,2020-12-02,42.59147037,-85.89102866
Michigan,Alpena,732,13,17,0,2020-12-02,45.03477666,-83.62212411
Michigan,Antrim,465,19,6,0,2020-12-02,44.99690221,-85.15503082
Michigan,Arenac,464,5,16,0,2020-12-02,44.0636262,-83.89277559
Michigan,Baraga,500,16,23,2,2020-12-02,46.6720582,-88.36363591
Michigan,Barry,2292,43,14,0,2020-12-02,42.59513984,-85.30834519
Michigan,Bay,4643,44,107,9,2020-12-02,43.70639106,-83.98731479
Michigan,Benzie,449,4,8,0,2020-12-02,44.63899297,-86.01608482
Michigan,Berrien,7024,131,117,1,2020-12-02,41.95447397,-86.41313079999998
Michigan,Branch,2382,39,37,1,2020-12-02,41.91600556,-85.05929476
Michigan,Calhoun,6202,97,127,4,2020-12-02,42.24633834,-85.00493569
Michigan,Cass,2318,42,30,0,2020-12-02,41.91522292,-85.99405727
Michigan,Charlevoix,634,23,7,0,2020-12-02,45.37790017,-85.19614053
Michigan,Cheboygan,525,6,20,0,2020-12-02,45.44787015,-84.50122149
Michigan,Chippewa,885,18,6,0,2020-12-02,46.29552653,-84.54353449
Michigan,Clare,809,20,26,0,2020-12-02,43.98794227,-84.84819859999998
Michigan,Clinton,2939,68,24,1,2020-12-02,42.94400871,-84.60145248
Michigan,Crawford,370,8,5,0,2020-12-02,44.68255561,-84.61006219
Michigan,Delta,2554,50,62,2,2020-12-02,45.90484910000001,-86.9080745
Michigan,Dickinson,1807,53,45,-1,2020-12-02,46.00999672,-87.86961634
Michigan,Eaton,3342,88,45,1,2020-12-02,42.59599185,-84.83740035
Michigan,Emmet,1005,17,28,0,2020-12-02,45.52625509,-84.89083249
Michigan,Genesee,15647,268,443,6,2020-12-02,43.02244215,-83.70589709
Michigan,Gladwin,869,14,12,0,2020-12-02,43.98901072,-84.38774817
Michigan,Gogebic,814,15,23,0,2020-12-02,46.40862701,-89.69377193
Michigan,Grand Traverse,1997,29,20,0,2020-12-02,44.69565625,-85.55585247
Michigan,Gratiot,1775,101,31,0,2020-12-02,43.29265605,-84.60505416
Michigan,Hillsdale,1762,41,38,0,2020-12-02,41.88753639,-84.59312019
Michigan,Houghton,1584,26,13,0,2020-12-02,46.89988536,-88.68495385
Michigan,Huron,873,46,15,0,2020-12-02,43.83353985,-83.04078453
Michigan,Ingham,9495,172,119,4,2020-12-02,42.59716886,-84.37472069
Michigan,Ionia,2557,72,20,0,2020-12-02,42.94502238,-85.07413319
Michigan,Iosco,824,26,25,-1,2020-12-02,44.35486835,-83.63484895
Michigan,Iron,739,9,33,0,2020-12-02,46.20974132,-88.53136251
Michigan,Isabella,2597,29,23,0,2020-12-02,43.64060976,-84.84664923
Michigan,Jackson,5515,164,102,0,2020-12-02,42.24807035,-84.42258681
Michigan,Kalamazoo,9863,145,170,0,2020-12-02,42.24542231,-85.53038622
Michigan,Kalkaska,378,2,7,2,2020-12-02,44.68512729,-85.09085699
Michigan,Kent,34538,581,360,-3,2020-12-02,43.03197711,-85.54934642
Michigan,Keweenaw,71,0,2,0,2020-12-02,47.63197653,-88.41434263
Michigan,Lake,212,7,5,0,2020-12-02,43.99050893,-85.802173
Michigan,Lapeer,2735,87,59,5,2020-12-02,43.09052506,-83.22153148
Michigan,Leelanau,391,5,3,0,2020-12-02,44.94430054,-85.80150326
Michigan,Lenawee,2777,87,25,0,2020-12-02,41.89475156,-84.06603727
Michigan,Livingston,5931,100,50,0,2020-12-02,42.60302282,-83.91297209
Michigan,Luce,171,3,0,0,2020-12-02,46.47227431,-85.54471223
Michigan,Mackinac,305,9,1,0,2020-12-02,46.07028979,-85.04980537
Michigan,Macomb,39244,890,1295,4,2020-12-02,42.69158356,-82.92752801
Michigan,Manistee,398,13,7,1,2020-12-02,44.33352407,-86.05626916
Michigan,Marquette,2974,29,31,0,2020-12-02,46.4338914,-87.64043701
Michigan,Mason,637,20,12,0,2020-12-02,43.99509218,-86.24988902
Michigan,Mecosta,1296,19,8,0,2020-12-02,43.64064262,-85.32463223
Michigan,Menominee,1380,28,18,0,2020-12-02,45.58038692,-87.55370409
Michigan,Midland,3136,39,28,0,2020-12-02,43.64330771,-84.38804374
Michigan,Missaukee,304,8,5,0,2020-12-02,44.33772443,-85.09256478
Michigan,Monroe,5625,95,87,1,2020-12-02,41.92734151,-83.53749864
Michigan,Montcalm,2146,94,26,1,2020-12-02,43.31082541,-85.15252824
Michigan,Montmorency,197,1,2,0,2020-12-02,45.0275929,-84.12696227
Michigan,Muskegon,7682,125,186,2,2020-12-02,43.29123859,-86.15176712
Michigan,Newaygo,1718,69,18,1,2020-12-02,43.554374,-85.80070107
Michigan,Oakland,48402,927,1375,8,2020-12-02,42.66090111,-83.38595416
Michigan,Oceana,1246,27,23,2,2020-12-02,43.64124435,-86.26726673
Michigan,Ogemaw,567,16,16,0,2020-12-02,44.33481032,-84.12725175
Michigan,Ontonagon,283,3,14,0,2020-12-02,46.665226200000006,-89.31390481
Michigan,Osceola,580,21,10,0,2020-12-02,43.98992088,-85.32566756
Michigan,Oscoda,200,10,9,1,2020-12-02,44.68192279,-84.12939244
Michigan,Otsego,786,22,19,1,2020-12-02,45.02085831,-84.59898295
Michigan,Ottawa,14377,263,165,2,2020-12-02,42.95996803,-85.9969107
Michigan,Presque Isle,295,2,4,0,2020-12-02,45.34018577,-83.91498656
Michigan,Roscommon,693,37,17,2,2020-12-02,44.33473082,-84.61067651
Michigan,Saginaw,8897,109,256,11,2020-12-02,43.33433923,-84.05131209999998
Michigan,St. Clair,4864,132,102,2,2020-12-02,42.92655373,-82.67937954
Michigan,St. Joseph,2692,40,35,0,2020-12-02,41.91441767,-85.52797979
Michigan,Sanilac,908,45,16,-1,2020-12-02,43.42406072,-82.82055898
Michigan,Schoolcraft,175,0,2,0,2020-12-02,46.19235734,-86.19972234
Michigan,Shiawassee,2122,69,45,1,2020-12-02,42.95392800000001,-84.14585902
Michigan,Tuscola,1823,27,58,1,2020-12-02,43.46606813,-83.41897025
Michigan,Van Buren,3007,52,47,0,2020-12-02,42.25190229,-86.01939087
Michigan,Washtenaw,10511,37,134,-1,2020-12-02,42.253105,-83.83853204
Michigan,Wayne,67054,1202,3242,5,2020-12-02,42.28098405,-83.281255
Michigan,Wexford,703,24,16,1,2020-12-02,44.33853602,-85.57712739
Minnesota,Aitkin,795,7,30,0,2020-12-02,46.60962049,-93.4116826
Minnesota,Anoka,23196,355,232,4,2020-12-02,45.27476015,-93.24604565
Minnesota,Becker,2176,60,19,3,2020-12-02,46.93479392,-95.67158144
Minnesota,Beltrami,2275,40,18,0,2020-12-02,47.97373527,-94.93732139
Minnesota,Benton,3172,84,53,2,2020-12-02,45.69804958,-93.99514135
Minnesota,Big Stone,333,5,2,0,2020-12-02,45.42712824,-96.41403739
Minnesota,Blue Earth,4266,53,17,1,2020-12-02,44.03554215,-94.06699781
Minnesota,Brown,1510,38,15,0,2020-12-02,44.24205652,-94.72562874
Minnesota,Carlton,1984,49,17,1,2020-12-02,46.59180601,-92.67601019
Minnesota,Carver,5013,86,15,0,2020-12-02,44.82017001,-93.8009918
Minnesota,Cass,1499,19,10,0,2020-12-02,46.95043611,-94.32603968
Minnesota,Chippewa,950,16,8,1,2020-12-02,45.02343421,-95.56403693
Minnesota,Chisago,3269,65,14,1,2020-12-02,45.5021011,-92.90861945
Minnesota,Clay,5213,72,59,2,2020-12-02,46.89289518,-96.48761922
Minnesota,Clearwater,538,4,9,1,2020-12-02,47.57992111,-95.37790562
Minnesota,Cook,79,1,0,0,2020-12-02,47.90504893,-90.52629546
Minnesota,Cottonwood,928,20,4,0,2020-12-02,44.00715262,-95.18138802
Minnesota,Crow Wing,3762,50,37,3,2020-12-02,46.48096553,-94.06755609
Minnesota,Dakota,23102,445,194,2,2020-12-02,44.67172617,-93.06299363
Minnesota,Dodge,911,23,0,0,2020-12-02,44.02238415,-92.86244324
Minnesota,Douglas,2784,68,39,1,2020-12-02,45.93348491,-95.45335469
Minnesota,Faribault,590,10,2,0,2020-12-02,43.67381499,-93.94787458
Minnesota,Fillmore,748,16,0,0,2020-12-02,43.67394126,-92.08980382
Minnesota,Freeborn,1596,32,6,0,2020-12-02,43.67385583,-93.34884422
Minnesota,Goodhue,2169,46,30,2,2020-12-02,44.40849741,-92.7234195
Minnesota,Grant,295,7,6,0,2020-12-02,45.93424769,-96.01139609
Minnesota,Hennepin,68898,985,1130,9,2020-12-02,45.00761521,-93.47694895
Minnesota,Houston,769,35,4,0,2020-12-02,43.67129565,-91.49143057
Minnesota,Hubbard,1177,6,28,1,2020-12-02,47.10778564,-94.91693868
Minnesota,Isanti,1995,32,17,0,2020-12-02,45.56181234,-93.29487636
Minnesota,Itasca,2022,51,23,0,2020-12-02,47.51009045,-93.63092229
Minnesota,Jackson,518,12,1,0,2020-12-02,43.67423373,-95.15398258
Minnesota,Kanabec,677,19,14,1,2020-12-02,45.9459309,-93.29275192
Minnesota,Kandiyohi,4320,35,24,1,2020-12-02,45.1526059,-95.00586446
Minnesota,Kittson,240,7,8,0,2020-12-02,48.77754106,-96.78317184
Minnesota,Koochiching,410,5,6,0,2020-12-02,48.24539665,-93.78352843
Minnesota,Lac qui Parle,398,2,4,1,2020-12-02,44.9973857,-96.17488219
Minnesota,Lake,443,10,7,1,2020-12-02,47.64270764,-91.44557998
Minnesota,Lake of the Woods,102,0,1,0,2020-12-02,48.77217001,-94.90274472
Minnesota,Le Sueur,1535,34,11,0,2020-12-02,44.37136597,-93.72844721
Minnesota,Lincoln,372,4,1,0,2020-12-02,44.41311883,-96.26688165
Minnesota,Lyon,2287,41,12,1,2020-12-02,44.41327865,-95.83806103
Minnesota,McLeod,2265,52,17,2,2020-12-02,44.82367677,-94.27287017
Minnesota,Mahnomen,316,9,4,0,2020-12-02,47.32557075,-95.80921485
Minnesota,Marshall,528,14,9,0,2020-12-02,48.35825983,-96.37017407
Minnesota,Martin,1212,18,21,1,2020-12-02,43.67429718,-94.55099908
Minnesota,Meeker,1390,34,11,1,2020-12-02,45.12328869,-94.52839455
Minnesota,Mille Lacs,1612,24,31,0,2020-12-02,45.93705297,-93.63236823
Minnesota,Morrison,2417,39,30,1,2020-12-02,46.01265363,-94.27341528
Minnesota,Mower,2706,32,23,0,2020-12-02,43.67142874,-92.75234549
Minnesota,Murray,606,5,4,1,2020-12-02,44.02216709,-95.76328482
Minnesota,Nicollet,1694,39,26,0,2020-12-02,44.35291112,-94.24710352
Minnesota,Nobles,3137,20,31,1,2020-12-02,43.67434621,-95.75329576
Minnesota,Norman,363,6,8,1,2020-12-02,47.32628443,-96.45620947
Minnesota,Olmsted,7025,120,36,2,2020-12-02,44.00374114,-92.40209944
Minnesota,Otter Tail,3327,64,25,2,2020-12-02,46.40846929,-95.70835255
Minnesota,Pennington,675,6,8,0,2020-12-02,48.06642577,-96.0370814
Minnesota,Pine,1429,13,8,0,2020-12-02,46.12105238,-92.74070188
Minnesota,Pipestone,747,4,18,0,2020-12-02,44.02301619,-96.25841142
Minnesota,Polk,2662,27,26,1,2020-12-02,47.77372465,-96.40134647
Minnesota,Pope,564,7,1,0,2020-12-02,45.58606667,-95.44451209
Minnesota,Ramsey,28948,431,512,5,2020-12-02,45.01625271,-93.09872295
Minnesota,Red Lake,228,6,3,0,2020-12-02,47.87197525,-96.09561104
Minnesota,Redwood,1017,21,20,1,2020-12-02,44.40555844,-95.25207021
Minnesota,Renville,927,14,29,0,2020-12-02,44.72836381,-94.94553734
Minnesota,Rice,4277,48,38,1,2020-12-02,44.3543376,-93.29658715
Minnesota,Rock,801,8,9,0,2020-12-02,43.67482683,-96.25296832
Minnesota,Roseau,1247,24,5,1,2020-12-02,48.77501878,-95.81079919
Minnesota,St. Louis,9280,194,117,5,2020-12-02,47.6048407,-92.46879855
Minnesota,Scott,8810,143,56,1,2020-12-02,44.6490231,-93.53340251
Minnesota,Sherburne,6082,0,43,0,2020-12-02,45.44447208,-93.77617511
Minnesota,Sibley,819,10,4,0,2020-12-02,44.5796592,-94.23164924
Minnesota,Stearns,14314,183,121,4,2020-12-02,45.55192576,-94.61078221
Minnesota,Steele,2056,34,8,1,2020-12-02,44.02240351,-93.22627088
Minnesota,Stevens,533,3,3,0,2020-12-02,45.58613007,-96.00163705
Minnesota,Swift,614,8,9,1,2020-12-02,45.2829032,-95.68264092
Minnesota,Todd,1874,22,14,0,2020-12-02,46.06996226,-94.89785296
Minnesota,Traverse,152,2,1,0,2020-12-02,45.77298854,-96.47062949
Minnesota,Wabasha,1104,17,1,0,2020-12-02,44.28424356,-92.23121312
Minnesota,Wadena,853,22,7,1,2020-12-02,46.58589171,-94.96968506
Minnesota,Waseca,1418,12,11,0,2020-12-02,44.02211116,-93.58720034
Minnesota,Washington,14590,220,120,3,2020-12-02,45.03864533,-92.88429635
Minnesota,Watonwan,882,11,4,0,2020-12-02,43.97823903,-94.61413846
Minnesota,Wilkin,411,11,5,0,2020-12-02,46.35721532,-96.4684375
Minnesota,Winona,2920,39,31,0,2020-12-02,43.98772283,-91.78081305
Minnesota,Wright,8271,205,45,1,2020-12-02,45.17297924,-93.96234781
Minnesota,Yellow Medicine,676,8,12,0,2020-12-02,44.71710183,-95.86842453
Mississippi,Adams,1472,25,52,0,2020-12-02,31.47669768,-91.35326037
Mississippi,Alcorn,1593,37,28,0,2020-12-02,34.88084463,-88.57996173
Mississippi,Amite,576,10,15,0,2020-12-02,31.17467303,-90.80501621
Mississippi,Attala,1228,35,34,0,2020-12-02,33.08658803,-89.57838564
Mississippi,Benton,504,4,18,0,2020-12-02,34.81681228,-89.18945516
Mississippi,Bolivar,2480,37,84,0,2020-12-02,33.79696941,-90.87372121
Mississippi,Calhoun,795,8,13,0,2020-12-02,33.93683395,-89.33686647
Mississippi,Carroll,755,14,15,0,2020-12-02,33.44834567,-89.91994479
Mississippi,Chickasaw,1107,13,32,0,2020-12-02,33.91983202,-88.9481545
Mississippi,Choctaw,363,2,7,0,2020-12-02,33.34598242,-89.24809382
Mississippi,Claiborne,592,3,16,0,2020-12-02,31.97061673,-90.90702196
Mississippi,Clarke,948,12,53,0,2020-12-02,32.04158545,-88.68896219999998
Mississippi,Clay,961,14,27,0,2020-12-02,33.65358105,-88.77784255
Mississippi,Coahoma,1559,32,43,0,2020-12-02,34.22772299,-90.60415045
Mississippi,Copiah,1708,29,40,0,2020-12-02,31.86977774,-90.44565118
Mississippi,Covington,1300,14,40,1,2020-12-02,31.63225413,-89.55389939
Mississippi,DeSoto,10563,154,104,0,2020-12-02,34.87625235,-89.99091418
Mississippi,Forrest,3947,50,86,0,2020-12-02,31.18961454,-89.25832496
Mississippi,Franklin,363,8,5,0,2020-12-02,31.47786634,-90.89672989
Mississippi,George,1295,12,25,0,2020-12-02,30.86259065,-88.64436789
Mississippi,Greene,624,9,22,0,2020-12-02,31.21444233,-88.63922281
Mississippi,Grenada,1454,21,45,0,2020-12-02,33.77036166,-89.80245083
Mississippi,Hancock,1276,33,41,0,2020-12-02,30.41830223,-89.48851033
Mississippi,Harrison,7397,84,113,1,2020-12-02,30.51359752,-89.12467576
Mississippi,Hinds,10414,135,204,2,2020-12-02,32.2656285,-90.44435448
Mississippi,Holmes,1344,10,61,0,2020-12-02,33.12345854,-90.08923538
Mississippi,Humphreys,552,5,19,0,2020-12-02,33.12825718,-90.52252707
Mississippi,Issaquena,121,1,4,0,2020-12-02,32.72531359,-90.97392828
Mississippi,Itawamba,1599,23,36,1,2020-12-02,34.27993475,-88.3606733
Mississippi,Jackson,6655,89,128,0,2020-12-02,30.54020656,-88.64184064
Mississippi,Jasper,870,18,23,0,2020-12-02,32.01922104,-89.11786866
Mississippi,Jefferson,383,12,12,0,2020-12-02,31.73397872,-91.03764977
Mississippi,Jefferson Davis,596,6,17,0,2020-12-02,31.56884708,-89.82670990000003
Mississippi,Jones,3761,71,88,0,2020-12-02,31.62257767,-89.16896899999998
Mississippi,Kemper,480,30,18,0,2020-12-02,32.75462946,-88.64105766
Mississippi,Lafayette,3410,28,53,0,2020-12-02,34.35687874,-89.48490961
Mississippi,Lamar,3019,41,50,0,2020-12-02,31.20572971,-89.5077704
Mississippi,Lauderdale,3663,69,147,0,2020-12-02,32.40419769,-88.66229662
Mississippi,Lawrence,746,8,14,0,2020-12-02,31.55147224,-90.10841127
Mississippi,Leake,1418,21,44,0,2020-12-02,32.7536828,-89.52402044
Mississippi,Lee,5403,109,96,0,2020-12-02,34.291877500000005,-88.68149954
Mississippi,Leflore,2111,26,91,0,2020-12-02,33.55545125,-90.29900733
Mississippi,Lincoln,2005,32,66,0,2020-12-02,31.53288662,-90.45391915
Mississippi,Lowndes,2528,58,67,3,2020-12-02,33.47386518,-88.44191529999998
Mississippi,Madison,5120,106,107,0,2020-12-02,32.63389156,-90.03513564
Mississippi,Marion,1214,20,47,1,2020-12-02,31.23132643,-89.8209217
Mississippi,Marshall,2250,22,51,0,2020-12-02,34.76216286,-89.50299462
Mississippi,Monroe,2097,30,78,0,2020-12-02,33.89236763,-88.4808438
Mississippi,Montgomery,784,15,26,0,2020-12-02,33.49419589,-89.61729103
Mississippi,Neshoba,2280,31,122,1,2020-12-02,32.75339664,-89.11726492
Mississippi,Newton,1105,23,29,0,2020-12-02,32.40021118,-89.11843336
Mississippi,Noxubee,733,6,17,0,2020-12-02,33.11009499,-88.56949061
Mississippi,Oktibbeha,2552,29,62,0,2020-12-02,33.42491685,-88.87905132
Mississippi,Panola,2373,47,53,0,2020-12-02,34.36398677,-89.95064249
Mississippi,Pearl River,1589,36,69,1,2020-12-02,30.77090935,-89.58677275
Mississippi,Perry,687,4,26,0,2020-12-02,31.17161885,-88.99281835
Mississippi,Pike,1667,14,60,1,2020-12-02,31.17507789,-90.40392572
Mississippi,Pontotoc,2081,39,31,0,2020-12-02,34.226046000000004,-89.03636807
Mississippi,Prentiss,1549,36,31,0,2020-12-02,34.61810501,-88.51986294
Mississippi,Quitman,510,10,7,0,2020-12-02,34.25157572,-90.28908
Mississippi,Rankin,6057,170,107,1,2020-12-02,32.26469147,-89.94537876
Mississippi,Scott,1613,19,30,0,2020-12-02,32.406704100000006,-89.53789439
Mississippi,Sharkey,329,5,17,0,2020-12-02,32.88149103,-90.8159538
Mississippi,Simpson,1540,14,53,0,2020-12-02,31.91282117,-89.91716179
Mississippi,Smith,742,10,16,0,2020-12-02,32.01744532,-89.50644846
Mississippi,Stone,820,14,15,0,2020-12-02,30.79187949,-89.11547539
Mississippi,Sunflower,1941,15,55,0,2020-12-02,33.60192578,-90.58882684
Mississippi,Tallahatchie,994,13,27,0,2020-12-02,33.95339918,-90.1729398
Mississippi,Tate,1804,27,51,0,2020-12-02,34.65133709,-89.94485778
Mississippi,Tippah,1300,16,30,0,2020-12-02,34.76872156,-88.90988194
Mississippi,Tishomingo,1140,16,43,0,2020-12-02,34.74023475,-88.23917219
Mississippi,Tunica,630,4,19,0,2020-12-02,34.64967704,-90.37481167
Mississippi,Union,1729,10,26,0,2020-12-02,34.49162015,-89.00776006
Mississippi,Walthall,793,17,30,1,2020-12-02,31.14971548,-90.10446654
Mississippi,Warren,1830,28,58,0,2020-12-02,32.35810271,-90.83352619
Mississippi,Washington,3321,75,108,0,2020-12-02,33.28392041,-90.94196237
Mississippi,Wayne,1230,17,24,1,2020-12-02,31.64135687,-88.69573913
Mississippi,Webster,477,10,14,0,2020-12-02,33.61300486,-89.28392912
Mississippi,Wilkinson,407,2,22,0,2020-12-02,31.16078225,-91.31018819
Mississippi,Winston,1287,32,26,0,2020-12-02,33.08747908,-89.03391385
Mississippi,Yalobusha,742,11,28,0,2020-12-02,34.02824175,-89.70762049999998
Mississippi,Yazoo,1613,12,40,0,2020-12-02,32.77890365,-90.39656148
Missouri,Adair,1110,14,3,0,2020-12-02,40.19058551,-92.60078167
Missouri,Andrew,836,5,10,0,2020-12-02,39.98492163,-94.80163024
Missouri,Atchison,214,0,3,0,2020-12-02,40.43238737,-95.42970639
Missouri,Audrain,1125,16,14,0,2020-12-02,39.215877,-91.84242683
Missouri,Barry,1480,8,27,0,2020-12-02,36.70978521,-93.82919888
Missouri,Barton,638,4,5,0,2020-12-02,37.50207671,-94.34757022
Missouri,Bates,557,2,9,0,2020-12-02,38.25271289,-94.34113157
Missouri,Benton,785,6,9,0,2020-12-02,38.29503305,-93.28756116
Missouri,Bollinger,812,5,8,0,2020-12-02,37.32449052,-90.02725304
Missouri,Boone,10577,188,25,0,2020-12-02,38.99186229,-92.30723575
Missouri,Buchanan,4843,36,63,0,2020-12-02,39.65816401,-94.80138942
Missouri,Butler,2232,23,9,0,2020-12-02,36.71462476,-90.40421163
Missouri,Caldwell,405,2,3,0,2020-12-02,39.65620858,-93.98308093
Missouri,Callaway,2925,48,11,0,2020-12-02,38.83674754,-91.92186505
Missouri,Camden,2520,32,49,2,2020-12-02,38.02199522,-92.76083747
Missouri,Cape Girardeau,5177,24,65,0,2020-12-02,37.38489388,-89.6843587
Missouri,Carroll,442,0,6,0,2020-12-02,39.42762566,-93.50626255
Missouri,Carter,300,3,6,0,2020-12-02,36.94160441,-90.96051322
Missouri,Cass,3921,52,40,0,2020-12-02,38.64789422,-94.353399
Missouri,Cedar,447,0,7,0,2020-12-02,37.72391475,-93.85445441
Missouri,Chariton,249,6,0,0,2020-12-02,39.51499357,-92.9629191
Missouri,Christian,3915,33,24,0,2020-12-02,36.9711783,-93.18537118
Missouri,Clark,303,0,4,0,2020-12-02,40.41040752,-91.73661677
Missouri,Clay,4752,35,77,4,2020-12-02,39.31132056,-94.41850862
Missouri,Clinton,913,9,46,0,2020-12-02,39.6013098,-94.40465394
Missouri,Cole,6338,58,60,0,2020-12-02,38.50455671,-92.27860244
Missouri,Cooper,1187,14,8,0,2020-12-02,38.844478,-92.80896081
Missouri,Crawford,1228,11,14,0,2020-12-02,37.97663738,-91.30528104
Missouri,Dade,295,1,8,0,2020-12-02,37.431814,-93.8503345
Missouri,Dallas,610,4,10,0,2020-12-02,37.6811355,-93.02127031
Missouri,Daviess,346,3,8,0,2020-12-02,39.96145298,-93.98519678
Missouri,DeKalb,610,5,13,0,2020-12-02,39.89201062,-94.40476508
Missouri,Dent,531,3,4,0,2020-12-02,37.60663134,-91.50790473
Missouri,Douglas,450,3,15,0,2020-12-02,36.9325593,-92.49905109
Missouri,Dunklin,1726,6,14,0,2020-12-02,36.27167174,-90.09122243
Missouri,Franklin,4970,40,86,3,2020-12-02,38.41127108,-91.07522826
Missouri,Gasconade,495,3,24,0,2020-12-02,38.43947277,-91.50847147
Missouri,Gentry,428,7,13,0,2020-12-02,40.21097916,-94.40944419
Missouri,Greene,14317,151,182,0,2020-12-02,37.2575872,-93.34230916
Missouri,Grundy,515,4,14,0,2020-12-02,40.11406587,-93.56509276
Missouri,Harrison,408,4,3,0,2020-12-02,40.35570088,-93.99222144
Missouri,Henry,1119,7,11,0,2020-12-02,38.38482826,-93.79293734
Missouri,Hickory,376,2,6,0,2020-12-02,37.94163617,-93.3203037
Missouri,Holt,270,0,3,0,2020-12-02,40.09799248,-95.2163888
Missouri,Howard,516,5,2,0,2020-12-02,39.1435761,-92.69756691
Missouri,Howell,1607,5,30,1,2020-12-02,36.77383887,-91.88683935
Missouri,Iron,242,5,1,0,2020-12-02,37.55487945,-90.7735296
Missouri,Jackson,17812,152,184,1,2020-12-02,39.01002188,-94.34724536
Missouri,Jasper,8433,125,117,1,2020-12-02,37.20351921,-94.34050458
Missouri,Jefferson,11460,140,108,0,2020-12-02,38.25926778,-90.53870896
Missouri,Johnson,2582,14,16,0,2020-12-02,38.74719601,-93.80691168
Missouri,Knox,135,0,1,0,2020-12-02,40.12699751,-92.14780832
Missouri,Laclede,1870,28,32,0,2020-12-02,37.65896829,-92.5888493
Missouri,Lafayette,1581,15,30,1,2020-12-02,39.06986886,-93.78076396
Missouri,Lawrence,1963,7,39,0,2020-12-02,37.10626634,-93.83293097
Missouri,Lewis,433,2,2,0,2020-12-02,40.09673161,-91.72070156
Missouri,Lincoln,2540,31,13,0,2020-12-02,39.05345619,-90.95588181
Missouri,Linn,329,3,11,0,2020-12-02,39.87001769,-93.10704106
Missouri,Livingston,792,3,16,1,2020-12-02,39.78110272,-93.54645978
Missouri,McDonald,1417,9,16,0,2020-12-02,36.62869595,-94.34867205
Missouri,Macon,699,6,3,0,2020-12-02,39.83049768,-92.56453089
Missouri,Madison,912,4,9,0,2020-12-02,37.47865134,-90.3467143
Missouri,Maries,376,3,4,0,2020-12-02,38.16193985,-91.92249662
Missouri,Marion,1832,14,18,0,2020-12-02,39.80601912,-91.62203062
Missouri,Mercer,88,0,1,0,2020-12-02,40.42212303,-93.5682959
Missouri,Miller,1546,27,26,0,2020-12-02,38.21450288,-92.42610898
Missouri,Mississippi,903,12,7,0,2020-12-02,36.82516239,-89.29505753
Missouri,Moniteau,1264,20,15,0,2020-12-02,38.63571781,-92.57976951
Missouri,Monroe,401,4,3,0,2020-12-02,39.49593978,-92.00043978
Missouri,Montgomery,354,2,6,0,2020-12-02,38.94022054,-91.47000721
Missouri,Morgan,1089,4,12,0,2020-12-02,38.4181765,-92.88791859
Missouri,New Madrid,1384,7,24,0,2020-12-02,36.59666326,-89.66070007
Missouri,Newton,3012,22,38,0,2020-12-02,36.90519407,-94.3394104
Missouri,Nodaway,2037,24,13,0,2020-12-02,40.36079813,-94.88133008
Missouri,Oregon,387,1,1,0,2020-12-02,36.68710164,-91.4033755
Missouri,Osage,958,6,4,0,2020-12-02,38.46036182,-91.8613635
Missouri,Ozark,298,1,3,1,2020-12-02,36.64916339,-92.44459066
Missouri,Pemiscot,1109,6,19,2,2020-12-02,36.2130572,-89.78742322
Missouri,Perry,1570,4,12,0,2020-12-02,37.70660776,-89.82741088
Missouri,Pettis,2700,7,36,0,2020-12-02,38.72798918,-93.28471706
Missouri,Phelps,1834,14,49,1,2020-12-02,37.87736118,-91.79351727
