State,County,Total Cases,New Cases,Total Deaths,New Deaths,Date,Latitude,Longitude
Alabama,Autauga,2059,11,31,0,2020-10-25,32.53952745,-86.64408227
Alabama,Baldwin,6658,21,69,0,2020-10-25,30.72774991,-87.72207058
Alabama,Barbour,1033,2,9,0,2020-10-25,31.868263,-85.3871286
Alabama,Bibb,840,12,14,0,2020-10-25,32.99642064,-87.12511459999997
Alabama,Blount,1932,7,25,0,2020-10-25,33.98210918,-86.56790593
Alabama,Bullock,649,1,17,0,2020-10-25,32.10030533,-85.71265535
Alabama,Butler,1011,4,40,0,2020-10-25,31.75300095,-86.68057478
Alabama,Calhoun,4599,32,61,0,2020-10-25,33.77483727,-85.82630386
Alabama,Chambers,1350,0,44,0,2020-10-25,32.91360079,-85.39072749
Alabama,Cherokee,738,5,14,0,2020-10-25,34.17805983,-85.60638968
Alabama,Chilton,1884,15,32,0,2020-10-25,32.85044126,-86.7173256
Alabama,Choctaw,392,2,12,0,2020-10-25,32.02227341,-88.26564429999998
Alabama,Clarke,1352,9,17,0,2020-10-25,31.68099859,-87.83548597
Alabama,Clay,744,3,12,0,2020-10-25,33.26984193,-85.85836077
Alabama,Cleburne,569,13,8,0,2020-10-25,33.67679204,-85.52005899
Alabama,Coffee,1771,8,11,0,2020-10-25,31.39932826,-85.98901039
Alabama,Colbert,2021,16,32,0,2020-10-25,34.69847452,-87.80168544
Alabama,Conecuh,561,0,13,0,2020-10-25,31.43401703,-86.99320044
Alabama,Coosa,204,1,3,0,2020-10-25,32.93690146,-86.24847739
Alabama,Covington,1747,7,29,0,2020-10-25,31.2477854,-86.45050893
Alabama,Crenshaw,608,2,30,0,2020-10-25,31.72941803,-86.31593104
Alabama,Cullman,2480,40,24,0,2020-10-25,34.13020303,-86.86888037
Alabama,Dale,1763,12,51,0,2020-10-25,31.43037123,-85.61095742
Alabama,Dallas,1866,1,27,0,2020-10-25,32.32688101,-87.10866709999998
Alabama,DeKalb,3426,38,29,0,2020-10-25,34.45946862,-85.80782906
Alabama,Elmore,3208,8,53,0,2020-10-25,32.59785413,-86.14415284
Alabama,Escambia,1727,2,30,0,2020-10-25,31.1256789,-87.15918694
Alabama,Etowah,4285,20,51,0,2020-10-25,34.04567266,-86.04051873
Alabama,Fayette,577,3,13,0,2020-10-25,33.72076938,-87.73886638
Alabama,Franklin,2055,3,31,0,2020-10-25,34.44235334,-87.84289505
Alabama,Geneva,906,6,7,0,2020-10-25,31.09389027,-85.83572839
Alabama,Greene,342,0,16,0,2020-10-25,32.85504247,-87.95684022
Alabama,Hale,768,1,30,0,2020-10-25,32.76039258,-87.63284988
Alabama,Henry,717,9,6,0,2020-10-25,31.51148016,-85.24267944
Alabama,Houston,4170,22,34,0,2020-10-25,31.15197924,-85.29939599
Alabama,Jackson,2159,10,15,0,2020-10-25,34.78144169,-85.99750489
Alabama,Jefferson,23292,163,377,0,2020-10-25,33.55554728,-86.89506300000002
Alabama,Lamar,496,6,5,0,2020-10-25,33.77995024,-88.09668032
Alabama,Lauderdale,2294,32,42,0,2020-10-25,34.90171875,-87.65624729
Alabama,Lawrence,858,8,32,0,2020-10-25,34.52041498,-87.31069453
Alabama,Lee,6546,12,65,0,2020-10-25,32.60154883,-85.35132246
Alabama,Limestone,2872,30,30,0,2020-10-25,34.81185586,-86.98310072
Alabama,Lowndes,713,4,28,0,2020-10-25,32.1597283,-86.65158371
Alabama,Macon,536,2,20,0,2020-10-25,32.38759944,-85.69267724
Alabama,Madison,9350,70,96,0,2020-10-25,34.76327133,-86.55069633
Alabama,Marengo,1019,11,22,0,2020-10-25,32.24767634,-87.78796182
Alabama,Marion,1081,5,29,0,2020-10-25,34.13697363,-87.88704173
Alabama,Marshall,4395,14,50,0,2020-10-25,34.36975964,-86.30486727
Alabama,Mobile,16916,67,315,0,2020-10-25,30.78472347,-88.20842409
Alabama,Monroe,646,0,10,0,2020-10-25,31.56729412,-87.36995001
Alabama,Montgomery,10250,53,197,0,2020-10-25,32.2206831,-86.20969272
Alabama,Morgan,4164,44,35,0,2020-10-25,34.45500589,-86.85475946
Alabama,Perry,592,3,6,0,2020-10-25,32.64048341,-87.29770589
Alabama,Pickens,852,5,18,0,2020-10-25,33.28094866,-88.08818103
Alabama,Pike,1341,6,13,0,2020-10-25,31.80396383,-85.9408295
Alabama,Randolph,827,4,16,0,2020-10-25,33.29526734,-85.45708831
Alabama,Russell,1949,5,3,0,2020-10-25,32.28725256,-85.18415324
Alabama,St. Clair,2955,30,42,0,2020-10-25,33.71902176,-86.31029372
Alabama,Shelby,7390,52,63,0,2020-10-25,33.26879845,-86.66232561
Alabama,Sumter,472,0,21,0,2020-10-25,32.59117397,-88.19916205
Alabama,Talladega,2664,11,35,0,2020-10-25,33.37823223,-86.16886178
Alabama,Tallapoosa,1329,12,87,0,2020-10-25,32.86698258,-85.79833053
Alabama,Tuscaloosa,10345,49,140,0,2020-10-25,33.28726072,-87.52556818
Alabama,Walker,2794,22,92,0,2020-10-25,33.80270512,-87.30027177
Alabama,Washington,749,5,12,0,2020-10-25,31.4092794,-88.20689944
Alabama,Wilcox,568,1,12,0,2020-10-25,31.98773215,-87.30891118
Alabama,Winston,929,7,13,0,2020-10-25,34.15030532,-87.37325922
Alaska,Aleutians East,6,0,0,0,2020-10-25,55.32222414,-161.9722021
Alaska,Bristol Bay,0,0,0,0,2020-10-25,58.74513976,-156.701064
Alaska,Denali,22,1,0,0,2020-10-25,63.67264044,-150.0076108
Alaska,Fairbanks North Star,1966,79,13,0,2020-10-25,64.80726247,-146.5692662
Alaska,Haines,6,0,0,0,2020-10-25,59.09893571,-135.4679843
Alaska,Kenai Peninsula,694,38,3,0,2020-10-25,60.24429722,-151.53888840000005
Alaska,Ketchikan Gateway,60,1,0,0,2020-10-25,55.57445008,-130.975561
Alaska,Kodiak Island,52,2,0,0,2020-10-25,57.65529415,-153.7493579
Alaska,Matanuska-Susitna,1064,75,2,0,2020-10-25,62.31305045,-149.5741743
Alaska,North Slope,235,7,0,0,2020-10-25,69.31479216,-153.4836093
Alaska,Northwest Arctic,223,9,0,0,2020-10-25,67.04919196,-159.7503946
Arizona,Apache,3874,20,169,1,2020-10-25,35.39465006,-109.4892383
Arizona,Cochise,2122,17,73,0,2020-10-25,31.87934684,-109.7516088
Arizona,Coconino,5068,77,147,0,2020-10-25,35.83883429,-111.7707178
Arizona,Gila,1861,20,70,1,2020-10-25,33.80190085,-110.8132779
Arizona,Graham,1120,10,28,0,2020-10-25,32.93166885,-109.8882178
Arizona,Greenlee,102,2,1,0,2020-10-25,33.21498827,-109.2405279
Arizona,La Paz,613,2,17,0,2020-10-25,33.72854224,-113.9810029
Arizona,Maricopa,154182,1005,3540,2,2020-10-25,33.34835867,-112.4918154
Arizona,Mohave,4272,6,230,0,2020-10-25,35.70471703,-113.7577902
Arizona,Navajo,6310,46,238,0,2020-10-25,35.3997715,-110.3218983
Arizona,Pima,27484,67,636,0,2020-10-25,32.0971334,-111.7890033
Arizona,Pinal,11700,11,217,0,2020-10-25,32.90525627,-111.3449483
Arizona,Santa Cruz,2978,6,65,0,2020-10-25,31.52508998,-110.8479088
Arizona,Yavapai,2893,19,88,1,2020-10-25,34.59933926,-112.5538588
Arizona,Yuma,13584,84,354,0,2020-10-25,32.76895712,-113.90666740000002
Arkansas,Arkansas,662,7,15,0,2020-10-25,34.29145151,-91.37277296
Arkansas,Ashley,536,5,11,0,2020-10-25,33.19153461,-91.7698471
Arkansas,Baxter,649,6,9,0,2020-10-25,36.28784385,-92.33782872
Arkansas,Benton,8065,32,117,1,2020-10-25,36.33644656,-94.25680817
Arkansas,Boone,1025,5,31,1,2020-10-25,36.3084504,-93.09374925
Arkansas,Bradley,369,0,8,0,2020-10-25,33.46755808,-92.15980837
Arkansas,Calhoun,48,0,0,0,2020-10-25,33.55598792,-92.49974403
Arkansas,Carroll,987,3,13,0,2020-10-25,36.34038560000001,-93.54270261
Arkansas,Chicot,1049,0,22,0,2020-10-25,33.26458973,-91.29539209
Arkansas,Clark,493,2,5,0,2020-10-25,34.04613432,-93.17484713
Arkansas,Clay,480,9,13,1,2020-10-25,36.36826212,-90.4148172
Arkansas,Cleburne,454,0,15,0,2020-10-25,35.53864922,-92.02640019
Arkansas,Cleveland,231,5,13,0,2020-10-25,33.89723187,-92.18537045
Arkansas,Columbia,690,3,19,0,2020-10-25,33.21230701,-93.22642793
Arkansas,Conway,342,1,3,0,2020-10-25,35.26205537,-92.70506566
Arkansas,Craighead,4432,60,40,1,2020-10-25,35.83018283,-90.63235729
Arkansas,Crawford,2007,11,25,1,2020-10-25,35.58928601,-94.2446814
Arkansas,Crittenden,2349,13,51,0,2020-10-25,35.21247318,-90.30839406
Arkansas,Cross,577,8,22,0,2020-10-25,35.29631396,-90.77185818
Arkansas,Dallas,179,0,5,0,2020-10-25,33.97042763,-92.65167437
Arkansas,Desha,408,10,7,0,2020-10-25,33.83011025,-91.25500948
Arkansas,Drew,429,3,7,0,2020-10-25,33.59035001,-91.71777921
Arkansas,Faulkner,3310,14,31,0,2020-10-25,35.14719007,-92.33717519
Arkansas,Franklin,521,5,2,0,2020-10-25,35.51202821,-93.89299569
Arkansas,Fulton,315,3,9,0,2020-10-25,36.38177105,-91.81729127
Arkansas,Garland,2441,13,63,1,2020-10-25,34.57692074,-93.14921604
Arkansas,Grant,359,3,4,0,2020-10-25,34.29017991,-92.42320562
Arkansas,Greene,1447,24,16,0,2020-10-25,36.11735460000001,-90.55832668
Arkansas,Hempstead,542,2,5,0,2020-10-25,33.73325583,-93.66935133
Arkansas,Hot Spring,2190,2,34,0,2020-10-25,34.31709259,-92.95396325
Arkansas,Howard,577,9,14,0,2020-10-25,34.09007427,-93.9934871
Arkansas,Independence,1451,5,46,1,2020-10-25,35.74242707,-91.57001641
Arkansas,Izard,556,3,2,0,2020-10-25,36.09604046,-91.90847954
Arkansas,Jackson,747,55,6,0,2020-10-25,35.59802983,-91.21494602
Arkansas,Jefferson,4136,15,102,0,2020-10-25,34.26767081,-91.92619839
Arkansas,Johnson,1012,8,8,1,2020-10-25,35.56759135,-93.46036368
Arkansas,Lafayette,168,1,3,0,2020-10-25,33.24116713,-93.60677071
Arkansas,Lawrence,804,9,17,0,2020-10-25,36.04188196,-91.10867198
Arkansas,Lee,1108,1,18,0,2020-10-25,34.78498904,-90.78383866
Arkansas,Lincoln,2306,2,17,0,2020-10-25,33.95317155,-91.74002806
Arkansas,Little River,447,1,38,0,2020-10-25,33.70375665,-94.23468591
Arkansas,Logan,585,1,3,0,2020-10-25,35.21413234,-93.71951016
Arkansas,Lonoke,1702,16,26,1,2020-10-25,34.75392199,-91.88742357
Arkansas,Madison,426,1,6,0,2020-10-25,36.01038185,-93.72524943
Arkansas,Marion,149,2,2,0,2020-10-25,36.26844485,-92.68451899
Arkansas,Miller,1388,16,15,0,2020-10-25,33.31403423,-93.89285258
Arkansas,Mississippi,2225,21,68,0,2020-10-25,35.76271485,-90.05194370000002
Arkansas,Monroe,211,1,1,0,2020-10-25,34.6815935,-91.20540287
Arkansas,Montgomery,182,0,8,0,2020-10-25,34.53704874,-93.65824478
Arkansas,Nevada,293,1,14,0,2020-10-25,33.66340119,-93.30632432
Arkansas,Newton,305,6,20,0,2020-10-25,35.91947491,-93.21612969
Arkansas,Ouachita,374,4,9,0,2020-10-25,33.58839816,-92.87795984
Arkansas,Perry,136,0,0,0,2020-10-25,34.9459153,-92.94372564
Arkansas,Phillips,741,15,16,0,2020-10-25,34.43268455,-90.84800154
Arkansas,Pike,263,1,1,0,2020-10-25,34.16250414,-93.65789349
Arkansas,Poinsett,1031,14,18,0,2020-10-25,35.57433534,-90.66268713
Arkansas,Polk,354,4,5,0,2020-10-25,34.48254879,-94.22728802
Arkansas,Pope,2704,10,37,0,2020-10-25,35.44871474,-93.03212219
Arkansas,Prairie,205,1,4,0,2020-10-25,34.83624419,-91.55162157
Arkansas,Pulaski,11777,56,207,3,2020-10-25,34.77054088,-92.31355101
Arkansas,Randolph,639,2,24,0,2020-10-25,36.3415714,-91.02455531
Arkansas,St. Francis,1704,12,10,0,2020-10-25,35.02201976,-90.74828138
Arkansas,Saline,2779,9,29,0,2020-10-25,34.64916145,-92.67583224
Arkansas,Scott,209,1,1,0,2020-10-25,34.85588887,-94.0632176
Arkansas,Searcy,198,1,1,0,2020-10-25,35.9109364,-92.69936482
Arkansas,Sebastian,4784,31,90,1,2020-10-25,35.19605503,-94.27162713
Arkansas,Sevier,1335,8,16,0,2020-10-25,33.99780401,-94.2424869
Arkansas,Sharp,358,18,10,0,2020-10-25,36.16258158,-91.47819342
Arkansas,Stone,398,2,21,0,2020-10-25,35.86251946,-92.15684085
Arkansas,Union,1118,2,49,0,2020-10-25,33.16887091,-92.59746952
Arkansas,Van Buren,207,2,3,0,2020-10-25,35.58095779,-92.51295036
Arkansas,Washington,11345,47,149,2,2020-10-25,35.976844,-94.21800746
Arkansas,White,1447,9,32,0,2020-10-25,35.25688493,-91.74908296
Arkansas,Woodruff,114,2,0,0,2020-10-25,35.18902527,-91.2439489
Arkansas,Yell,1339,2,31,0,2020-10-25,35.00292371,-93.41171338
California,Alameda,23312,97,461,1,2020-10-25,37.64629437,-121.8929271
California,Alpine,3,0,0,0,2020-10-25,38.59678594,-119.8223594
California,Amador,328,4,16,0,2020-10-25,38.44583082,-120.65696
California,Butte,3078,19,52,0,2020-10-25,39.66727762,-121.6005252
California,Calaveras,342,0,18,0,2020-10-25,38.20537103,-120.552913
California,Colusa,550,0,6,0,2020-10-25,39.17881957,-122.2331726
California,Contra Costa,18621,98,241,0,2020-10-25,37.91923498,-121.9289527
California,Del Norte,178,0,1,0,2020-10-25,41.74228275,-123.8974063
California,El Dorado,1317,2,4,0,2020-10-25,38.77965956,-120.5233166
California,Fresno,30752,162,436,0,2020-10-25,36.75733899,-119.6466953
California,Glenn,657,0,3,0,2020-10-25,39.59875897,-122.3938452
California,Humboldt,562,0,9,0,2020-10-25,40.69923009,-123.876044
California,Imperial,12700,0,336,0,2020-10-25,33.0393082,-115.3669042
California,Inyo,227,0,15,0,2020-10-25,36.51112084,-117.41119779999998
California,Kern,33813,38,416,0,2020-10-25,35.34329425,-118.7277796
California,Kings,8228,10,83,0,2020-10-25,36.07409056,-119.8159973
California,Lake,696,7,15,0,2020-10-25,39.10124298,-122.7536244
California,Lassen,766,0,1,0,2020-10-25,40.67311306,-120.59350990000002
California,Los Angeles,299760,823,6993,4,2020-10-25,34.30828379,-118.2282411
California,Madera,4981,0,74,0,2020-10-25,37.21513971,-119.76655890000002
California,Marin,7074,17,128,0,2020-10-25,38.07122463,-122.7210631
California,Mariposa,78,0,2,0,2020-10-25,37.57978556,-119.9073334
California,Mendocino,1127,3,21,0,2020-10-25,39.4381191,-123.3911313
California,Merced,9465,0,155,0,2020-10-25,37.18922369,-120.7209035
California,Modoc,29,0,0,0,2020-10-25,41.58965602,-120.7244817
California,Mono,180,2,2,0,2020-10-25,37.93899289,-118.8872409
California,Monterey,11372,51,91,2,2020-10-25,36.21862405,-121.2413397
California,Napa,1957,15,15,0,2020-10-25,38.50735751,-122.332839
California,Nevada,608,0,8,0,2020-10-25,39.30394768,-120.7627281
California,Orange,58573,247,1447,3,2020-10-25,33.70147516,-117.76459979999998
California,Placer,4093,5,57,0,2020-10-25,39.06167234,-120.7240569
California,Plumas,68,0,0,0,2020-10-25,40.00355989,-120.8395236
California,Riverside,65902,145,1279,0,2020-10-25,33.74314981,-115.9933578
California,Sacramento,25372,108,484,0,2020-10-25,38.45106826,-121.3425374
California,San Benito,1437,1,15,0,2020-10-25,36.60308176,-121.069975
California,San Bernardino,62619,266,1072,0,2020-10-25,34.84060306,-116.1774685
California,San Diego,54583,269,870,2,2020-10-25,33.03484597,-116.7365326
California,San Joaquin,21630,0,489,0,2020-10-25,37.93433732,-121.2730061
California,San Luis Obispo,4141,0,32,0,2020-10-25,35.38822029,-120.4039028
California,San Mateo,11075,0,159,0,2020-10-25,37.4228808,-122.32755459999998
California,Santa Barbara,9781,21,120,0,2020-10-25,34.65329488,-120.0188492
California,Santa Clara,24144,130,388,0,2020-10-25,37.23104908,-121.6970462
California,Santa Cruz,2788,17,25,0,2020-10-25,37.05580291,-122.0066524
California,Shasta,1878,32,30,0,2020-10-25,40.76391419,-122.0396884
California,Sierra,6,0,0,0,2020-10-25,39.57713498,-120.52007009999998
California,Siskiyou,193,0,0,0,2020-10-25,41.59198861,-122.5407434
California,Solano,7286,0,74,0,2020-10-25,38.26827353,-121.9357113
California,Sonoma,9312,149,136,2,2020-10-25,38.52746429,-122.8862506
California,Stanislaus,17629,57,396,0,2020-10-25,37.55862499,-120.9970722
California,Sutter,1837,0,12,0,2020-10-25,39.03417539,-121.6945899
California,Tehama,872,10,8,0,2020-10-25,40.12570935,-122.2370171
California,Trinity,25,-1,0,0,2020-10-25,40.64917670000001,-123.114713
California,Tulare,17495,0,286,0,2020-10-25,36.22026558,-118.8020203
California,Tuolumne,269,1,4,0,2020-10-25,38.02644018,-119.9525093
California,Ventura,14240,48,164,0,2020-10-25,34.44465746,-119.0910613
California,Yolo,3191,25,59,1,2020-10-25,38.68278902,-121.9018288
California,Yuba,1293,0,10,0,2020-10-25,39.26255932,-121.3535644
Colorado,Adams,13344,279,255,1,2020-10-25,39.87432092,-104.3362578
Colorado,Alamosa,303,5,9,0,2020-10-25,37.57250606,-105.7885451
Colorado,Arapahoe,12147,208,379,1,2020-10-25,39.64977461,-104.3353617
Colorado,Archuleta,65,0,0,0,2020-10-25,37.19474156,-107.0476867
Colorado,Baca,30,0,0,0,2020-10-25,37.31940883,-102.5603223
Colorado,Bent,15,1,0,0,2020-10-25,37.95474293,-103.0720195
Colorado,Boulder,5394,55,85,0,2020-10-25,40.09313619,-105.3546767
Colorado,Chaffee,391,5,20,0,2020-10-25,38.74745778,-106.19265729999998
Colorado,Cheyenne,15,0,0,0,2020-10-25,38.82777431,-102.6032558
Colorado,Clear Creek,68,0,1,0,2020-10-25,39.68864463,-105.6463118
Colorado,Conejos,66,0,0,0,2020-10-25,37.201606,-106.19174879999998
Colorado,Costilla,36,0,1,0,2020-10-25,37.27732493,-105.4276548
Colorado,Crowley,91,2,1,0,2020-10-25,38.32608609,-103.7844965
Colorado,Custer,20,0,0,0,2020-10-25,38.10883162,-105.3683478
Colorado,Delta,200,1,3,0,2020-10-25,38.86246243,-107.8631342
Colorado,Dolores,3,0,0,0,2020-10-25,37.75208676,-108.5211585
Colorado,Douglas,3708,99,64,0,2020-10-25,39.33133796,-104.930001
Colorado,Eagle,1414,3,10,0,2020-10-25,39.62754308,-106.6933637
Colorado,Elbert,204,4,3,0,2020-10-25,39.28656773,-104.1358721
Colorado,El Paso,9739,147,194,0,2020-10-25,38.83240149,-104.5251411
Colorado,Fremont,663,35,1,0,2020-10-25,38.47362326,-105.4399667
Colorado,Garfield,1140,5,5,0,2020-10-25,39.59921777,-107.902708
Colorado,Gilpin,29,0,0,0,2020-10-25,39.85646523,-105.5252597
Colorado,Grand,144,2,1,0,2020-10-25,40.10603347,-106.1178042
Colorado,Gunnison,305,0,7,0,2020-10-25,38.66611652,-107.0320729
Colorado,Hinsdale,3,0,0,0,2020-10-25,37.82247444,-107.3004345
Colorado,Huerfano,33,0,2,0,2020-10-25,37.68473101,-104.9612585
Colorado,Jackson,9,0,0,0,2020-10-25,40.66593870000001,-106.3408905
Colorado,Jefferson,8071,168,307,0,2020-10-25,39.58635604,-105.2517692
Colorado,Kiowa,4,1,0,0,2020-10-25,38.43260896,-102.7392145
Colorado,Kit Carson,130,-1,3,0,2020-10-25,39.30497777,-102.6022199
Colorado,Lake,132,5,0,0,2020-10-25,39.20278823,-106.3555697
Colorado,La Plata,350,3,2,0,2020-10-25,37.28632032,-107.8429014
Colorado,Larimer,3930,47,56,0,2020-10-25,40.66671597,-105.4625784
Colorado,Las Animas,69,0,1,0,2020-10-25,37.3153406,-104.0376458
Colorado,Lincoln,24,0,0,0,2020-10-25,38.98749519,-103.5136649
Colorado,Logan,1194,17,12,0,2020-10-25,40.7249637,-103.110817
Colorado,Mesa,1314,33,11,0,2020-10-25,39.01787888,-108.469799
Colorado,Mineral,21,0,0,0,2020-10-25,37.66954283,-106.9281698
Colorado,Moffat,62,1,1,0,2020-10-25,40.61810999,-108.2070876
Colorado,Montezuma,196,4,5,0,2020-10-25,37.33859579,-108.5958857
Colorado,Montrose,459,4,13,0,2020-10-25,38.40214114,-108.26390220000002
Colorado,Morgan,850,4,48,0,2020-10-25,40.26279810000001,-103.8093302
Colorado,Otero,132,7,6,0,2020-10-25,37.9014485,-103.7173385
Colorado,Ouray,37,1,2,0,2020-10-25,38.14717457,-107.7675136
Colorado,Park,92,-1,1,0,2020-10-25,39.120926,-105.7182065
Colorado,Phillips,48,0,0,0,2020-10-25,40.59414277,-102.3577703
Colorado,Pitkin,277,1,2,0,2020-10-25,39.21720112,-106.9310027
Colorado,Prowers,166,0,0,0,2020-10-25,37.95544985,-102.3926052
Colorado,Pueblo,1904,114,41,1,2020-10-25,38.17359144,-104.5127437
Colorado,Rio Blanco,27,0,0,0,2020-10-25,39.97913541,-108.2179009
Colorado,Rio Grande,120,2,3,0,2020-10-25,37.5836865,-106.3847838
Colorado,Routt,202,0,8,0,2020-10-25,40.48596505,-106.9905548
Colorado,Saguache,133,0,2,0,2020-10-25,38.08054629,-106.282466
Colorado,San Juan,11,0,0,0,2020-10-25,37.76248981,-107.67632890000002
Colorado,San Miguel,101,0,0,0,2020-10-25,38.00450883,-108.4020725
Colorado,Sedgwick,40,0,1,0,2020-10-25,40.87595412,-102.3519227
Colorado,Summit,666,13,4,0,2020-10-25,39.63803232,-106.1150762
Colorado,Teller,217,3,4,0,2020-10-25,38.88133511,-105.1614893
Colorado,Washington,94,1,0,0,2020-10-25,39.97015535,-103.202587
Colorado,Weld,5895,85,159,0,2020-10-25,40.55499405,-104.3929621
Colorado,Yuma,210,0,1,0,2020-10-25,40.00346839,-102.4258673
Connecticut,Fairfield,22322,0,1430,0,2020-10-25,41.26809896,-73.3881171
Connecticut,Hartford,17062,0,1464,0,2020-10-25,41.80283011,-72.73103891
Connecticut,Litchfield,2116,0,143,0,2020-10-25,41.7937534,-73.2451475
Connecticut,Middlesex,1873,0,196,0,2020-10-25,41.45949668,-72.53714864
Connecticut,New Haven,16073,0,1123,0,2020-10-25,41.4080325,-72.93620426
Connecticut,New London,3456,0,136,0,2020-10-25,41.48896435,-72.10430976
Connecticut,Tolland,1689,0,68,0,2020-10-25,41.85853803,-72.3308481
Connecticut,Windham,1324,0,17,0,2020-10-25,41.82972709,-71.98182316
Delaware,Kent,3422,15,120,0,2020-10-25,39.08646628,-75.56884914
Delaware,New Castle,12646,67,339,0,2020-10-25,39.57992638,-75.64054974
Delaware,Sussex,7802,32,222,1,2020-10-25,38.66143781,-75.39031349
Florida,Alachua,10044,55,74,0,2020-10-25,29.67866525,-82.35928158
Florida,Baker,1750,1,19,0,2020-10-25,30.33060121,-82.28467476
Florida,Bay,6655,12,132,0,2020-10-25,30.26548745,-85.62122584
Florida,Bradford,1221,2,15,0,2020-10-25,29.95079741,-82.16611613
Florida,Brevard,11055,56,366,0,2020-10-25,28.29409504,-80.73091022
Florida,Broward,83450,285,1520,0,2020-10-25,26.15184651,-80.48725556
Florida,Calhoun,702,1,14,0,2020-10-25,30.40666734,-85.19394153
Florida,Charlotte,3509,22,157,0,2020-10-25,26.90131002,-81.92949121
Florida,Citrus,3162,17,130,0,2020-10-25,28.84804315,-82.47614748
Florida,Clay,5948,16,117,0,2020-10-25,29.98319144,-81.85609986
Florida,Collier,14087,62,253,0,2020-10-25,26.11091986,-81.34687065
Florida,Columbia,4211,11,71,0,2020-10-25,30.22509788,-82.62160164
Florida,DeSoto,1652,1,29,0,2020-10-25,27.18677893,-81.80941373
Florida,Dixie,885,4,11,0,2020-10-25,29.60631086,-83.15724673
Florida,Duval,34260,83,513,0,2020-10-25,30.33225875,-81.66976468
Florida,Escambia,13296,14,269,0,2020-10-25,30.67652764,-87.37284571
Florida,Flagler,2076,6,37,0,2020-10-25,29.45933576,-81.31508595
Florida,Franklin,747,0,4,0,2020-10-25,29.83791238,-84.82731662
Florida,Gadsden,3051,2,55,1,2020-10-25,30.57796289,-84.61915825
Florida,Gilchrist,602,1,18,0,2020-10-25,29.72856978,-82.79880657
Florida,Glades,595,2,6,0,2020-10-25,26.95635849,-81.18996211
Florida,Gulf,934,1,15,0,2020-10-25,29.93543004,-85.24270990000002
Florida,Hamilton,901,0,9,0,2020-10-25,30.49673973,-82.94998918
Florida,Hardee,1578,2,16,0,2020-10-25,27.49293939,-81.80956574
Florida,Hendry,2191,3,43,0,2020-10-25,26.55386945,-81.16469006
Florida,Hernando,3609,15,165,0,2020-10-25,28.55364461,-82.42700204
Florida,Highlands,2545,17,110,0,2020-10-25,27.34254618,-81.34071957
Florida,Hillsborough,46907,117,759,0,2020-10-25,27.9276559,-82.32013172
Florida,Holmes,885,4,12,0,2020-10-25,30.86747479,-85.81319222
Florida,Indian River,3714,40,125,-1,2020-10-25,27.69308961,-80.60556721
Florida,Jackson,3100,3,83,0,2020-10-25,30.7954597,-85.21500423
Florida,Jefferson,659,1,9,0,2020-10-25,30.43669112,-83.89442308
Florida,Lafayette,1272,0,16,0,2020-10-25,29.98484137,-83.18166636
Florida,Lake,8445,30,225,0,2020-10-25,28.76202069,-81.7125123
Florida,Lee,22711,92,506,0,2020-10-25,26.58410348,-81.88399313
Florida,Leon,11991,33,112,0,2020-10-25,30.45955727,-84.27491114
Florida,Levy,1120,2,12,0,2020-10-25,29.31829741,-82.74007147
Florida,Liberty,532,0,10,0,2020-10-25,30.23766008,-84.8829258
Florida,Madison,1073,1,24,0,2020-10-25,30.44396917,-83.47398594
Florida,Manatee,12971,41,327,0,2020-10-25,27.47196942,-82.31831044
Florida,Marion,10694,16,345,5,2020-10-25,29.21227113,-82.05803627
Florida,Martin,5287,11,164,0,2020-10-25,27.0772071,-80.43109784
Florida,Miami-Dade,181942,309,3612,7,2020-10-25,25.6112362,-80.55170587
Florida,Monroe,2186,8,25,0,2020-10-25,25.20904673,-81.07812416
Florida,Nassau,2429,10,50,0,2020-10-25,30.61037141,-81.80297522
Florida,Okaloosa,6146,48,130,0,2020-10-25,30.69143028,-86.59267105
Florida,Okeechobee,1714,3,38,0,2020-10-25,27.386336199999995,-80.88944347
Florida,Orange,45042,121,546,0,2020-10-25,28.51367621,-81.31799498
Florida,Osceola,13905,53,194,0,2020-10-25,28.06312234,-81.14882926
Florida,Palm Beach,50525,209,1561,0,2020-10-25,26.64676272,-80.46536002
Florida,Pasco,10600,61,236,0,2020-10-25,28.30810945,-82.40227529
Florida,Pinellas,25130,144,816,0,2020-10-25,27.93130349,-82.72239666
Florida,Polk,22541,60,615,0,2020-10-25,27.95027105,-81.69732947
Florida,Putnam,2355,7,50,0,2020-10-25,29.60779729,-81.74230285
Florida,St. Johns,6280,44,80,0,2020-10-25,29.90096506,-81.43589967
Florida,St. Lucie,8893,36,329,0,2020-10-25,27.37763908,-80.47106649
Florida,Santa Rosa,5863,14,86,0,2020-10-25,30.693414500000006,-87.02458128
Florida,Sarasota,9392,52,330,0,2020-10-25,27.18546175,-82.33174248
Florida,Seminole,10044,35,236,0,2020-10-25,28.7158582,-81.24060348
Florida,Sumter,2849,5,84,0,2020-10-25,28.70181754,-82.0794267
Florida,Suwannee,2972,5,77,0,2020-10-25,30.19746066,-82.99099670000003
Florida,Taylor,1450,4,16,0,2020-10-25,30.04848048,-83.60445406
Florida,Union,1118,1,41,0,2020-10-25,30.04412971,-82.37497443
Florida,Volusia,12453,54,316,0,2020-10-25,29.05858895,-81.18263252
Florida,Wakulla,1300,1,11,0,2020-10-25,30.16548905,-84.39895211
Florida,Walton,2357,10,29,0,2020-10-25,30.64204028,-86.16935664
Florida,Washington,1216,7,24,0,2020-10-25,30.61359259,-85.66002461
Georgia,Appling,1162,1,36,0,2020-10-25,31.74847232,-82.28909114
Georgia,Atkinson,481,1,6,0,2020-10-25,31.29633502,-82.87545866
Georgia,Bacon,634,0,16,0,2020-10-25,31.55456473,-82.45936528
Georgia,Baker,91,1,6,0,2020-10-25,31.32669878,-84.44218806
Georgia,Baldwin,2300,3,64,0,2020-10-25,33.06882326,-83.24701748
Georgia,Banks,552,1,8,0,2020-10-25,34.35607081,-83.49644388
Georgia,Barrow,2570,7,50,0,2020-10-25,33.99148694,-83.71436292
Georgia,Bartow,3571,33,94,0,2020-10-25,34.23732119,-84.83887523
Georgia,Ben Hill,870,3,33,0,2020-10-25,31.76095874,-83.22145359
Georgia,Berrien,490,0,13,0,2020-10-25,31.27590016,-83.22529920000002
Georgia,Bibb,6576,10,193,0,2020-10-25,32.80904227,-83.70489165
Georgia,Bleckley,513,2,27,0,2020-10-25,32.43829035,-83.33035166
Georgia,Brantley,445,18,13,0,2020-10-25,31.19576557,-81.97743999
Georgia,Brooks,552,0,27,0,2020-10-25,30.83922642,-83.58303423
Georgia,Bryan,1294,11,14,0,2020-10-25,32.00979311,-81.44002948
Georgia,Bulloch,3071,10,33,0,2020-10-25,32.39577406,-81.74811421
Georgia,Burke,880,1,12,0,2020-10-25,33.05917989,-81.99928721
Georgia,Butts,739,0,44,0,2020-10-25,33.283094500000004,-83.95435040000002
Georgia,Calhoun,266,0,9,0,2020-10-25,31.53169785,-84.62725131
Georgia,Camden,1408,6,18,0,2020-10-25,30.92951916,-81.66601818
Georgia,Candler,539,3,24,0,2020-10-25,32.40209349,-82.07702563
Georgia,Carroll,3332,22,75,0,2020-10-25,33.58138199,-85.07976677
Georgia,Catoosa,1410,23,22,0,2020-10-25,34.89872298,-85.13757014
Georgia,Charlton,646,0,10,0,2020-10-25,30.78371028,-82.13951596
Georgia,Chatham,9323,6,186,0,2020-10-25,32.00043026,-81.12489526
Georgia,Chattahoochee,1742,0,1,0,2020-10-25,32.34341231,-84.78809239
Georgia,Chattooga,927,13,29,0,2020-10-25,34.47197698,-85.34535662
Georgia,Cherokee,7037,39,101,0,2020-10-25,34.24393976,-84.47431861
Georgia,Clarke,5699,21,47,0,2020-10-25,33.95436462,-83.37124007
Georgia,Clay,124,0,3,0,2020-10-25,31.62221166,-84.97713865
Georgia,Clayton,8137,35,175,0,2020-10-25,33.54187245,-84.35594188
Georgia,Clinch,445,1,12,0,2020-10-25,30.91395822,-82.70432472
Georgia,Cobb,21750,74,454,0,2020-10-25,33.94243204,-84.5761255
Georgia,Coffee,2242,2,60,0,2020-10-25,31.54892966,-82.85492059999999
Georgia,Colquitt,2124,10,39,0,2020-10-25,31.18810588,-83.7677946
Georgia,Columbia,4330,19,64,0,2020-10-25,33.54534185,-82.263524
Georgia,Cook,582,1,16,0,2020-10-25,31.16068491,-83.42947229
Georgia,Coweta,2949,21,63,0,2020-10-25,33.35334302,-84.76129976
Georgia,Crawford,195,1,6,0,2020-10-25,32.71391813,-83.98061238
Georgia,Crisp,641,0,23,0,2020-10-25,31.92289565,-83.76811843
Georgia,Dade,344,2,6,0,2020-10-25,34.854916700000004,-85.50490424
Georgia,Dawson,908,1,11,0,2020-10-25,34.44244079,-84.16964071
Georgia,Decatur,1288,1,34,0,2020-10-25,30.87967778,-84.57619536
Georgia,DeKalb,20977,94,395,0,2020-10-25,33.76944049,-84.22396017
Georgia,Dodge,593,3,15,0,2020-10-25,32.17265114,-83.16948926
Georgia,Dooly,369,0,18,0,2020-10-25,32.15630737,-83.79746561
Georgia,Dougherty,3295,2,191,0,2020-10-25,31.53328528,-84.21722377
Georgia,Douglas,4066,13,72,0,2020-10-25,33.70291126,-84.77026156
Georgia,Early,550,5,35,0,2020-10-25,31.32155345,-84.90255207
Georgia,Echols,246,2,2,0,2020-10-25,30.71101099,-82.89687287
Georgia,Effingham,1777,8,28,0,2020-10-25,32.36616021,-81.34280942
Georgia,Elbert,767,3,9,0,2020-10-25,34.11302332,-82.83936148
Georgia,Emanuel,1195,4,36,0,2020-10-25,32.59221302,-82.30239915
Georgia,Evans,480,1,7,0,2020-10-25,32.15328841,-81.8870105
Georgia,Fannin,820,6,28,0,2020-10-25,34.86430205,-84.316964
Georgia,Fayette,2116,12,57,0,2020-10-25,33.41357794,-84.49089434
Georgia,Floyd,3896,30,59,0,2020-10-25,34.26268279,-85.21577392
Georgia,Forsyth,4687,13,52,0,2020-10-25,34.22604035,-84.12315129999998
Georgia,Franklin,919,4,17,0,2020-10-25,34.37525597,-83.23159927
Georgia,Fulton,30838,147,618,0,2020-10-25,33.79216944,-84.46319413
Georgia,Gilmer,1027,7,23,0,2020-10-25,34.69316688,-84.45802506
Georgia,Glascock,49,1,2,0,2020-10-25,33.22879932,-82.61297636
Georgia,Glynn,3706,10,104,0,2020-10-25,31.23279254,-81.53811412
Georgia,Gordon,2318,11,44,0,2020-10-25,34.50487351,-84.87296253
Georgia,Grady,851,1,25,0,2020-10-25,30.87454847,-84.23418364
Georgia,Greene,569,0,25,0,2020-10-25,33.5769205,-83.17139104
Georgia,Gwinnett,30306,102,440,0,2020-10-25,33.96044201,-84.02137802
Georgia,Habersham,1869,1,77,0,2020-10-25,34.63331566,-83.53094677
Georgia,Hall,10595,21,173,0,2020-10-25,34.32207823,-83.81896936
Georgia,Hancock,413,0,44,0,2020-10-25,33.2721566,-82.99766919
Georgia,Haralson,632,2,10,0,2020-10-25,33.79602175,-85.21005667
Georgia,Harris,849,0,25,0,2020-10-25,32.73709786,-84.90538572
Georgia,Hart,573,3,16,0,2020-10-25,34.34626973,-82.96567682
Georgia,Heard,225,1,6,0,2020-10-25,33.29686567,-85.12886832
Georgia,Henry,6136,40,112,0,2020-10-25,33.4533428,-84.14814659999998
Georgia,Houston,3571,5,94,0,2020-10-25,32.45802497,-83.66879087
Georgia,Irwin,357,1,8,0,2020-10-25,31.60213036,-83.27501387
Georgia,Jackson,2351,14,40,0,2020-10-25,34.13794553,-83.56814788
Georgia,Jasper,244,1,4,0,2020-10-25,33.31535543,-83.68844964
Georgia,Jeff Davis,785,0,23,0,2020-10-25,31.80405727,-82.63724870000001
Georgia,Jefferson,852,0,32,0,2020-10-25,33.05867328,-82.41609057
Georgia,Jenkins,464,1,32,0,2020-10-25,32.79248718,-81.96040187
Georgia,Johnson,440,0,22,0,2020-10-25,32.70211082,-82.66166794
Georgia,Jones,642,1,16,0,2020-10-25,33.02512137,-83.56019163
Georgia,Lamar,419,14,19,0,2020-10-25,33.07841647,-84.14263877
Georgia,Lanier,318,1,7,0,2020-10-25,31.038285700000007,-83.06472457
Georgia,Laurens,1970,3,86,0,2020-10-25,32.46325233,-82.92221316
Georgia,Lee,746,0,29,0,2020-10-25,31.779330600000005,-84.14324253
Georgia,Liberty,1233,1,25,0,2020-10-25,31.82588896,-81.49251135
Georgia,Lincoln,232,1,7,0,2020-10-25,33.79201475,-82.45024131
Georgia,Long,275,1,4,0,2020-10-25,31.75218791,-81.74952375
Georgia,Lowndes,4445,22,85,0,2020-10-25,30.83568832,-83.27056716
Georgia,Lumpkin,1038,0,15,0,2020-10-25,34.57286511,-84.00425681
Georgia,McDuffie,674,1,15,0,2020-10-25,33.47851918,-82.48252774
Georgia,McIntosh,304,0,7,0,2020-10-25,31.49683595,-81.40163426
Georgia,Macon,248,0,10,0,2020-10-25,32.35207048,-84.04234127
Georgia,Madison,780,6,11,0,2020-10-25,34.12920917,-83.21218732
Georgia,Marion,196,0,9,0,2020-10-25,32.3483402,-84.52733571
Georgia,Meriwether,594,2,16,0,2020-10-25,33.04163534,-84.68859732
Georgia,Miller,308,3,2,0,2020-10-25,31.16568912,-84.73151117
Georgia,Mitchell,850,0,45,0,2020-10-25,31.22483255,-84.19381821
Georgia,Monroe,753,3,53,0,2020-10-25,33.014289,-83.92097166
Georgia,Montgomery,388,17,10,0,2020-10-25,32.17201038,-82.53527476
Georgia,Morgan,524,0,6,0,2020-10-25,33.59232073,-83.49129491
Georgia,Murray,1023,9,9,0,2020-10-25,34.78897608,-84.74993177
Georgia,Muscogee,6339,11,174,0,2020-10-25,32.50931999,-84.87142262
Georgia,Newton,2842,3,95,0,2020-10-25,33.55514538,-83.84547140000002
Georgia,Oconee,861,7,30,0,2020-10-25,33.83749973,-83.43679568
Georgia,Oglethorpe,413,6,12,0,2020-10-25,33.878629600000004,-83.08278123
Georgia,Paulding,3113,8,60,0,2020-10-25,33.91969522,-84.86848792
Georgia,Peach,766,3,26,0,2020-10-25,32.56934316,-83.82937
Georgia,Pickens,759,18,10,0,2020-10-25,34.46589159,-84.46406611
Georgia,Pierce,674,7,24,0,2020-10-25,31.35928155,-82.21598442
Georgia,Pike,385,3,11,0,2020-10-25,33.09310242,-84.38790389
Georgia,Polk,1698,7,27,0,2020-10-25,34.00267074,-85.18677781
Georgia,Pulaski,335,0,23,0,2020-10-25,32.23334561,-83.47549959999998
Georgia,Putnam,788,0,27,0,2020-10-25,33.32056115,-83.37552891
Georgia,Quitman,38,0,1,0,2020-10-25,31.86728114,-85.01773177
Georgia,Rabun,425,2,11,0,2020-10-25,34.88389445,-83.40304637
Georgia,Randolph,339,0,29,0,2020-10-25,31.76622818,-84.75732369
Georgia,Richmond,7893,17,181,0,2020-10-25,33.35777107,-82.07026432
Georgia,Rockdale,2108,7,40,0,2020-10-25,33.65145002,-84.02202167
Georgia,Schley,109,0,2,0,2020-10-25,32.2654021,-84.31258912
Georgia,Screven,451,3,11,0,2020-10-25,32.74976524,-81.60779441
Georgia,Seminole,392,0,11,0,2020-10-25,30.93464824,-84.86823924
Georgia,Spalding,1574,13,62,0,2020-10-25,33.26310031,-84.28013991
Georgia,Stephens,1263,0,41,0,2020-10-25,34.55151201,-83.29405315
Georgia,Stewart,535,0,16,0,2020-10-25,32.07996777,-84.83208037
Georgia,Sumter,959,0,68,0,2020-10-25,32.03650571,-84.19821492
Georgia,Talbot,174,0,8,1,2020-10-25,32.69642758,-84.53351366
Georgia,Taliaferro,27,1,0,0,2020-10-25,33.56543317,-82.88136816
Georgia,Tattnall,921,2,13,0,2020-10-25,32.04785085,-82.05539188
Georgia,Taylor,229,1,12,0,2020-10-25,32.55792548,-84.25077141
Georgia,Telfair,501,0,24,0,2020-10-25,31.92829517,-82.93491155
Georgia,Terrell,340,0,32,0,2020-10-25,31.77527543,-84.44069698
Georgia,Thomas,1595,3,69,0,2020-10-25,30.86392347,-83.91847289
Georgia,Tift,1949,7,63,0,2020-10-25,31.45743864,-83.5236119
Georgia,Toombs,1473,2,56,0,2020-10-25,32.12059861,-82.32957247
Georgia,Towns,431,3,13,0,2020-10-25,34.91369188,-83.74107459999998
Georgia,Treutlen,302,0,11,0,2020-10-25,32.40422134,-82.56904553
Georgia,Troup,3041,22,106,0,2020-10-25,33.03349196,-85.02812115
Georgia,Turner,334,1,24,0,2020-10-25,31.71612656,-83.62069378
Georgia,Twiggs,216,0,10,0,2020-10-25,32.67435595,-83.43078662
Georgia,Union,882,2,25,0,2020-10-25,34.82995757,-83.98967069
Georgia,Upson,833,1,70,0,2020-10-25,32.87920671,-84.30024826
Georgia,Walker,1855,14,43,0,2020-10-25,34.73376362,-85.30165174
Georgia,Walton,2323,13,68,0,2020-10-25,33.78017694,-83.73552314
Georgia,Ware,1729,7,63,0,2020-10-25,31.05449097,-82.42224148
Georgia,Warren,164,1,5,0,2020-10-25,33.41146451,-82.67795848
Georgia,Washington,758,2,13,0,2020-10-25,32.96711864,-82.79357039
Georgia,Wayne,1225,4,33,0,2020-10-25,31.5521809,-81.91894878
Georgia,Webster,44,1,2,0,2020-10-25,32.04066113,-84.54742852
Georgia,Wheeler,367,0,16,0,2020-10-25,32.12009104,-82.72574721
Georgia,White,997,0,23,0,2020-10-25,34.64624278,-83.74905525
Georgia,Whitfield,5357,32,64,0,2020-10-25,34.80987459,-84.96093476
Georgia,Wilcox,255,0,25,0,2020-10-25,31.97496928,-83.43438555
Georgia,Wilkes,294,4,6,0,2020-10-25,33.78290391,-82.74286107
Georgia,Wilkinson,366,0,17,0,2020-10-25,32.80291082,-83.17140684
Georgia,Worth,605,0,32,0,2020-10-25,31.55162306,-83.85090513
Idaho,Ada,16299,120,165,1,2020-10-25,43.4526575,-116.24155159999998
Idaho,Adams,52,4,2,0,2020-10-25,44.89333571,-116.4545247
Idaho,Bannock,2337,47,10,0,2020-10-25,42.67002716,-112.2233311
Idaho,Bear Lake,69,2,1,0,2020-10-25,42.28269683,-111.32892379999998
Idaho,Benewah,170,0,3,0,2020-10-25,47.21754179,-116.6586851
Idaho,Bingham,1554,15,17,0,2020-10-25,43.21672879999999,-112.3978437
Idaho,Blaine,861,2,7,0,2020-10-25,43.4085812,-113.9752658
Idaho,Boise,76,1,2,0,2020-10-25,43.98829931,-115.7309284
Idaho,Bonner,476,6,1,0,2020-10-25,48.29996017,-116.6017932
Idaho,Bonneville,4322,73,28,0,2020-10-25,43.38713372,-111.6161537
Idaho,Boundary,141,9,1,0,2020-10-25,48.76684761,-116.4630179
Idaho,Butte,95,2,0,0,2020-10-25,43.72592209,-113.1735463
Idaho,Camas,41,0,0,0,2020-10-25,43.46665742,-114.8065892
Idaho,Canyon,9783,47,108,0,2020-10-25,43.61970148,-116.7095499
Idaho,Caribou,262,6,4,0,2020-10-25,42.77149116,-111.5597683
Idaho,Cassia,1345,21,8,0,2020-10-25,42.28347888,-113.6012409
Idaho,Clark,40,0,0,0,2020-10-25,44.28496071,-112.3505704
Idaho,Clearwater,132,0,0,0,2020-10-25,46.67459924,-115.6622393
Idaho,Custer,94,1,1,0,2020-10-25,44.24186819,-114.2855494
Idaho,Elmore,516,5,4,0,2020-10-25,43.3507101,-115.4701578
Idaho,Franklin,342,5,1,0,2020-10-25,42.18332217,-111.8149666
Idaho,Fremont,466,4,4,0,2020-10-25,44.22800938,-111.4809943
Idaho,Gem,422,7,6,0,2020-10-25,44.06482372,-116.398376
Idaho,Gooding,540,12,7,0,2020-10-25,42.96927962,-114.8108306
Idaho,Idaho,336,0,1,0,2020-10-25,45.84721541,-115.4634436
Idaho,Jefferson,933,14,3,0,2020-10-25,43.82078483,-112.3131749
Idaho,Jerome,1062,19,8,0,2020-10-25,42.68891267,-114.2655033
Idaho,Kootenai,3972,51,48,0,2020-10-25,47.67282258,-116.7020872
Idaho,Latah,887,0,0,0,2020-10-25,46.81587887,-116.7113698
Idaho,Lemhi,206,2,0,0,2020-10-25,44.9438088,-113.9309747
Idaho,Lewis,76,0,3,0,2020-10-25,46.23315327,-116.434146
Idaho,Lincoln,183,20,1,0,2020-10-25,43.0012336,-114.1358773
Idaho,Madison,2465,64,3,0,2020-10-25,43.78141028,-111.65384740000002
Idaho,Minidoka,1164,16,8,0,2020-10-25,42.85518524,-113.6357257
Idaho,Nez Perce,757,0,24,0,2020-10-25,46.32638236,-116.7500975
Idaho,Oneida,45,0,0,0,2020-10-25,42.19494279999999,-112.5407838
Idaho,Owyhee,388,1,5,0,2020-10-25,42.58016894,-116.1693871
Idaho,Payette,1113,1,10,0,2020-10-25,44.00545243,-116.7647695
Idaho,Power,356,0,2,0,2020-10-25,42.69254894,-112.83957420000002
Idaho,Shoshone,262,3,20,0,2020-10-25,47.35364087,-115.8916749
Idaho,Teton,279,5,2,0,2020-10-25,43.75303583,-111.2056773
Idaho,Twin Falls,3868,64,46,0,2020-10-25,42.35440512,-114.6685381
Idaho,Valley,115,0,1,0,2020-10-25,44.76728382,-115.5676773
Idaho,Washington,442,1,8,0,2020-10-25,44.45275475,-116.7847688
Illinois,Adams,1862,24,19,0,2020-10-25,39.98815591,-91.18786813
Illinois,Alexander,120,0,1,0,2020-10-25,37.18049267,-89.32910838
Illinois,Bond,499,11,9,0,2020-10-25,38.88829622,-89.43534887
Illinois,Boone,1860,30,25,0,2020-10-25,42.32359279,-88.82345779
Illinois,Brown,107,0,0,0,2020-10-25,39.96209138,-90.75068024
Illinois,Bureau,906,11,16,-1,2020-10-25,41.40385234,-89.5283051
Illinois,Calhoun,66,-1,0,0,2020-10-25,39.16840183,-90.66330078
Illinois,Carroll,410,9,11,0,2020-10-25,42.06823429,-89.93395545
Illinois,Cass,462,2,11,0,2020-10-25,39.96991073,-90.24734436
Illinois,Champaign,6091,43,29,0,2020-10-25,40.13919438,-88.20046615
Illinois,Christian,816,5,29,0,2020-10-25,39.54581621,-89.27780482
Illinois,Clark,308,1,17,0,2020-10-25,39.33425789,-87.78705622
Illinois,Clay,311,4,13,0,2020-10-25,38.75388572,-88.48914513
Illinois,Clinton,1755,22,26,0,2020-10-25,38.60704876,-89.42385254
Illinois,Coles,1912,16,39,0,2020-10-25,39.51949084,-88.22358557
Illinois,Cook,175586,1769,5421,12,2020-10-25,41.84144849,-87.81658794
Illinois,Crawford,647,3,6,0,2020-10-25,39.0032229,-87.75954624
Illinois,Cumberland,288,7,6,0,2020-10-25,39.27432424,-88.2401158
Illinois,DeKalb,2358,41,42,0,2020-10-25,41.89373302,-88.76958483
Illinois,De Witt,260,5,6,0,2020-10-25,40.17514519,-88.90959682
Illinois,Douglas,672,17,9,0,2020-10-25,39.76768052,-88.21854195
Illinois,DuPage,22783,237,606,-1,2020-10-25,41.85116968,-88.08642662
Illinois,Edgar,155,2,10,0,2020-10-25,39.6809186,-87.74759563
Illinois,Edwards,108,1,0,0,2020-10-25,38.41353228,-88.05720863
Illinois,Effingham,1165,6,4,0,2020-10-25,39.05935711,-88.58969584
Illinois,Fayette,680,6,24,2,2020-10-25,39.00072038,-89.02452658
Illinois,Ford,196,5,14,2,2020-10-25,40.59706922,-88.22350769
Illinois,Franklin,982,30,9,0,2020-10-25,37.99189086,-88.92567818
Illinois,Fulton,518,20,1,0,2020-10-25,40.47289135,-90.20862357
Illinois,Gallatin,107,1,2,0,2020-10-25,37.76430935,-88.22953869
Illinois,Greene,290,3,15,0,2020-10-25,39.35907414,-90.388865
Illinois,Grundy,965,5,7,0,2020-10-25,41.28569601,-88.41905692
Illinois,Hamilton,120,3,2,0,2020-10-25,38.08163641,-88.53883373
Illinois,Hancock,309,0,4,0,2020-10-25,40.40423981,-91.16313899
Illinois,Hardin,53,0,0,0,2020-10-25,37.51810645,-88.26873022
Illinois,Henderson,128,0,0,0,2020-10-25,40.81908672,-90.92491462
Illinois,Henry,846,4,7,0,2020-10-25,41.3533994,-90.13296166
Illinois,Iroquois,492,3,19,0,2020-10-25,40.74717633,-87.82466784
Illinois,Jackson,1542,18,26,0,2020-10-25,37.78595185,-89.38232563
Illinois,Jasper,264,3,10,0,2020-10-25,39.01054275,-88.15437049
Illinois,Jefferson,905,12,48,0,2020-10-25,38.29980057,-88.9240025
Illinois,Jersey,473,3,21,0,2020-10-25,39.08869046,-90.35393073
Illinois,Jo Daviess,498,12,7,0,2020-10-25,42.36542373,-90.21094405
Illinois,Johnson,355,9,0,0,2020-10-25,37.45939802,-88.88165419
Illinois,Kane,16621,168,347,0,2020-10-25,41.93842729,-88.42861412
Illinois,Kankakee,3388,22,80,0,2020-10-25,41.13746989,-87.86205334
Illinois,Kendall,2670,40,30,0,2020-10-25,41.59081014,-88.42869583
Illinois,Knox,1299,27,16,0,2020-10-25,40.93148779,-90.21330340000002
Illinois,Lake,20630,145,510,1,2020-10-25,42.3224907,-88.00367925
Illinois,LaSalle,2408,30,63,0,2020-10-25,41.34426129999999,-88.88633881
Illinois,Lawrence,333,1,8,0,2020-10-25,38.71987914,-87.72884035
Illinois,Lee,710,5,2,1,2020-10-25,41.74583951,-89.29977132
Illinois,Livingston,632,6,10,0,2020-10-25,40.89188292,-88.55784752
Illinois,Logan,590,1,4,0,2020-10-25,40.12581572,-89.36638784
Illinois,McDonough,764,25,20,0,2020-10-25,40.45674722,-90.67775541
Illinois,McHenry,6310,85,121,1,2020-10-25,42.32451172,-88.45248227
Illinois,McLean,4150,47,34,0,2020-10-25,40.48996987,-88.84621113
Illinois,Macon,3055,86,52,1,2020-10-25,39.86064913,-88.96342505
Illinois,Macoupin,807,23,11,1,2020-10-25,39.26119767,-89.92424028
Illinois,Madison,7151,67,154,0,2020-10-25,38.83042506,-89.90422563
Illinois,Marion,1012,21,19,0,2020-10-25,38.64963204,-88.91899208
Illinois,Marshall,156,6,3,0,2020-10-25,41.0327901,-89.34510444
Illinois,Mason,305,5,1,0,2020-10-25,40.23917274,-89.91824452
Illinois,Massac,154,0,2,0,2020-10-25,37.22078441,-88.71036614
Illinois,Menard,185,3,1,0,2020-10-25,40.02742725,-89.80246001
Illinois,Mercer,262,10,6,0,2020-10-25,41.20596782,-90.74290052
Illinois,Monroe,920,17,30,1,2020-10-25,38.27594376,-90.17761038
Illinois,Montgomery,610,1,16,0,2020-10-25,39.23198845,-89.47809254
Illinois,Morgan,896,6,24,0,2020-10-25,39.71654544,-90.20255104
Illinois,Moultrie,411,3,4,0,2020-10-25,39.64187451,-88.62099969
Illinois,Ogle,1189,4,7,0,2020-10-25,42.04165196,-89.32184679
Illinois,Peoria,4544,59,70,0,2020-10-25,40.78702156,-89.76078901
Illinois,Perry,438,8,16,0,2020-10-25,38.08510853,-89.36856219
Illinois,Piatt,250,6,0,0,2020-10-25,40.01360584,-88.59319339
Illinois,Pike,353,21,6,0,2020-10-25,39.62265059,-90.8877017
Illinois,Pope,42,0,1,0,2020-10-25,37.41391284,-88.56152109
Illinois,Pulaski,235,0,1,0,2020-10-25,37.22631423,-89.13085001
Illinois,Putnam,92,2,0,0,2020-10-25,41.2013541,-89.2869272
Illinois,Randolph,1271,22,15,0,2020-10-25,38.05095369,-89.82512254
Illinois,Richland,334,1,16,0,2020-10-25,38.71240969,-88.08475366
Illinois,Rock Island,4005,45,90,0,2020-10-25,41.46613806,-90.57042164
Illinois,St. Clair,7920,42,220,2,2020-10-25,38.46996033,-89.93063427
Illinois,Saline,559,4,9,0,2020-10-25,37.75332999,-88.54119706
Illinois,Sangamon,3988,92,63,0,2020-10-25,39.75836914,-89.65872023
Illinois,Schuyler,90,-1,1,0,2020-10-25,40.1571798,-90.61114163
Illinois,Scott,106,4,0,0,2020-10-25,39.6429169,-90.47814431
Illinois,Shelby,669,16,12,0,2020-10-25,39.39133527,-88.80611122
Illinois,Stark,86,1,3,0,2020-10-25,41.09309773,-89.79745866
Illinois,Stephenson,981,32,7,0,2020-10-25,42.35129217,-89.662598
Illinois,Tazewell,2645,51,56,0,2020-10-25,40.50716185,-89.51404662
Illinois,Union,780,-4,25,0,2020-10-25,37.47119609,-89.25548938
Illinois,Vermilion,1718,21,10,0,2020-10-25,40.18417171,-87.73384359
Illinois,Wabash,226,6,5,0,2020-10-25,38.44272901,-87.84922065
Illinois,Warren,496,3,8,0,2020-10-25,40.84925021,-90.6147432
Illinois,Washington,307,6,2,0,2020-10-25,38.35309213,-89.40982703
Illinois,Wayne,482,1,12,0,2020-10-25,38.42955355,-88.42586459
Illinois,White,269,5,4,0,2020-10-25,38.08706198,-88.17657461
Illinois,Whiteside,1400,13,27,2,2020-10-25,41.75509713,-89.91556058
Illinois,Will,18356,177,427,0,2020-10-25,41.44619267,-87.97862712
Illinois,Williamson,1883,26,59,0,2020-10-25,37.73033511,-88.92994027
Illinois,Winnebago,10183,131,180,0,2020-10-25,42.33641854,-89.16085327
Illinois,Woodford,618,22,14,0,2020-10-25,40.78579374,-89.20973757
Indiana,Adams,523,13,7,0,2020-10-25,40.7457653,-84.93671406
Indiana,Allen,8552,128,230,0,2020-10-25,41.09194313,-85.06800636
Indiana,Bartholomew,1469,16,58,0,2020-10-25,39.20744865,-85.89558181
Indiana,Benton,110,1,0,0,2020-10-25,40.60626947,-87.31093999
Indiana,Blackford,234,3,4,1,2020-10-25,40.47388153,-85.32499702
Indiana,Boone,1280,11,50,0,2020-10-25,40.0509304,-86.46841646
Indiana,Brown,146,0,3,0,2020-10-25,39.19605589,-86.22868909
Indiana,Carroll,338,6,13,0,2020-10-25,40.580783200000006,-86.56198812
Indiana,Cass,2285,16,23,1,2020-10-25,40.76135835,-86.34830753
Indiana,Clark,3031,24,63,0,2020-10-25,38.48015445,-85.70510334
Indiana,Clay,458,2,7,0,2020-10-25,39.39561833,-87.11723506
Indiana,Clinton,903,14,16,0,2020-10-25,40.30319754,-86.47277257
Indiana,Crawford,163,3,1,0,2020-10-25,38.28814402,-86.44518825
Indiana,Daviess,913,11,34,0,2020-10-25,38.70186039,-87.07185406
Indiana,Dearborn,1017,17,28,0,2020-10-25,39.14647946,-84.97333539
Indiana,Decatur,525,8,39,0,2020-10-25,39.30712658,-85.50087166
Indiana,DeKalb,758,13,11,0,2020-10-25,41.39804622,-84.99906934
Indiana,Delaware,3076,42,75,1,2020-10-25,40.22787247,-85.39732772
Indiana,Dubois,1455,28,26,0,2020-10-25,38.36597551,-86.87924170000002
Indiana,Elkhart,9156,130,137,0,2020-10-25,41.59761169,-85.85875695
Indiana,Fayette,739,7,18,0,2020-10-25,39.63684962,-85.17797541
Indiana,Floyd,1858,19,68,0,2020-10-25,38.32117957,-85.90385377
Indiana,Fountain,319,0,3,0,2020-10-25,40.12361933,-87.24217689
Indiana,Franklin,381,2,25,0,2020-10-25,39.4142482,-85.06062647
Indiana,Fulton,376,5,4,0,2020-10-25,41.0469907,-86.26252745
Indiana,Gibson,928,13,12,0,2020-10-25,38.30393723,-87.58054938
Indiana,Grant,1310,13,39,0,2020-10-25,40.51587228,-85.65468702
Indiana,Greene,573,15,38,0,2020-10-25,39.03630547,-86.96223202
Indiana,Hamilton,6335,42,114,0,2020-10-25,40.07306535,-86.05244729
Indiana,Hancock,1231,8,44,0,2020-10-25,39.82304555,-85.77566351
Indiana,Harrison,799,16,24,0,2020-10-25,38.19467379,-86.10948271
Indiana,Hendricks,3367,30,134,1,2020-10-25,39.76719009,-86.51037283
Indiana,Henry,1313,16,30,0,2020-10-25,39.93029017,-85.39625719
Indiana,Howard,1684,14,66,0,2020-10-25,40.48527731,-86.11351892
Indiana,Huntington,436,15,5,0,2020-10-25,40.82907273,-85.48822092
Indiana,Jackson,1185,21,17,0,2020-10-25,38.90915820000001,-86.03851889
Indiana,Jasper,665,22,5,0,2020-10-25,41.02078733,-87.11553319
Indiana,Jay,331,6,6,0,2020-10-25,40.43781032,-85.00576229
Indiana,Jefferson,352,7,5,0,2020-10-25,38.78576239,-85.43633383
Indiana,Jennings,379,6,13,0,2020-10-25,38.99588883,-85.62710784
Indiana,Johnson,3239,32,130,1,2020-10-25,39.48994426,-86.10149107
Indiana,Knox,813,18,10,0,2020-10-25,38.68861576,-87.4194665
Indiana,Kosciusko,1984,47,27,0,2020-10-25,41.24521668,-85.86312322
Indiana,LaGrange,828,7,15,0,2020-10-25,41.64232188,-85.42674232
Indiana,Lake,14222,199,358,0,2020-10-25,41.41874274,-87.38277575
Indiana,LaPorte,2361,44,61,1,2020-10-25,41.54366008,-86.74072188
Indiana,Lawrence,947,7,37,0,2020-10-25,38.84112637,-86.48361629
Indiana,Madison,2480,31,96,0,2020-10-25,40.16143691,-85.71964711
Indiana,Marion,25871,180,792,1,2020-10-25,39.78163624,-86.13826325
Indiana,Marshall,1451,24,26,0,2020-10-25,41.32467367,-86.26185087
Indiana,Martin,204,3,0,0,2020-10-25,38.7099921,-86.80373186
Indiana,Miami,661,19,5,0,2020-10-25,40.76940965,-86.04525048
Indiana,Monroe,3332,29,38,0,2020-10-25,39.16130004,-86.52414358
Indiana,Montgomery,620,16,22,0,2020-10-25,40.04034823,-86.89335024
Indiana,Morgan,989,15,40,0,2020-10-25,39.47899078,-86.44573375
Indiana,Newton,236,6,11,0,2020-10-25,40.95610449,-87.39635768
Indiana,Noble,1219,28,35,0,2020-10-25,41.39672484,-85.41966713
Indiana,Ohio,133,2,7,0,2020-10-25,38.955305,-84.96515993
Indiana,Orange,421,4,25,0,2020-10-25,38.54118920000001,-86.49523093
Indiana,Owen,211,1,1,0,2020-10-25,39.31145587,-86.83900724
Indiana,Parke,250,4,4,0,2020-10-25,39.77202286,-87.20375833
Indiana,Perry,361,28,14,0,2020-10-25,38.07809328,-86.63741946
Indiana,Pike,343,3,18,0,2020-10-25,38.40112197,-87.23574907
Indiana,Porter,3416,93,50,0,2020-10-25,41.45986947,-87.06848888
Indiana,Posey,766,11,7,1,2020-10-25,38.02097333,-87.86480429
Indiana,Pulaski,175,15,3,1,2020-10-25,41.04166107,-86.69890683
Indiana,Putnam,766,10,16,0,2020-10-25,39.66437981,-86.84517605
Indiana,Randolph,381,9,10,0,2020-10-25,40.15734772,-85.01139319
Indiana,Ripley,474,8,8,0,2020-10-25,39.10235626,-85.26212744
Indiana,Rush,230,5,4,0,2020-10-25,39.62002287,-85.4655599
Indiana,St. Joseph,9532,133,166,1,2020-10-25,41.61756781,-86.29040834
Indiana,Scott,545,11,13,0,2020-10-25,38.68672078,-85.74627859
Indiana,Shelby,894,22,31,0,2020-10-25,39.52305623,-85.79158570000001
Indiana,Spencer,412,8,6,0,2020-10-25,38.01519732,-87.0079644
Indiana,Starke,437,5,8,0,2020-10-25,41.27890281,-86.64686895
Indiana,Steuben,657,17,8,0,2020-10-25,41.64423868,-85.00101094
Indiana,Sullivan,455,3,14,0,2020-10-25,39.08952258,-87.41414469
Indiana,Switzerland,97,1,0,0,2020-10-25,38.82767338,-85.03022429
Indiana,Tippecanoe,3918,82,15,0,2020-10-25,40.38872739,-86.89413959
Indiana,Tipton,282,2,23,0,2020-10-25,40.31123252,-86.05234925
Indiana,Union,114,2,0,0,2020-10-25,39.62550777,-84.92497066
Indiana,Vanderburgh,6090,79,62,1,2020-10-25,38.02658833,-87.58763124
Indiana,Vermillion,268,8,1,0,2020-10-25,39.8523352,-87.46160542
Indiana,Vigo,2724,37,40,0,2020-10-25,39.42944561,-87.39169027
Indiana,Wabash,438,6,9,0,2020-10-25,40.84704239,-85.79328272
Indiana,Warren,89,0,1,0,2020-10-25,40.34728141,-87.35602659
Indiana,Warrick,2015,20,65,0,2020-10-25,38.08922676,-87.2716085
Indiana,Washington,386,2,3,0,2020-10-25,38.60219804,-86.1049363
Indiana,Wayne,1379,26,31,0,2020-10-25,39.8633444,-85.01044989
Indiana,Wells,449,7,11,0,2020-10-25,40.72934187,-85.22132966
Indiana,White,610,11,16,1,2020-10-25,40.74911165,-86.86492015
Indiana,Whitley,479,10,6,0,2020-10-25,41.13863784,-85.50791236
Iowa,Adair,161,6,1,0,2020-10-25,41.33075609,-94.47105874
Iowa,Adams,81,2,0,0,2020-10-25,41.02903567,-94.69932645
Iowa,Allamakee,363,3,8,0,2020-10-25,43.28383218,-91.37860922
Iowa,Appanoose,225,2,3,0,2020-10-25,40.74324454,-92.86865906
Iowa,Audubon,142,1,1,0,2020-10-25,41.6844628,-94.90581859
Iowa,Benton,581,12,2,0,2020-10-25,42.08011739,-92.06463573
Iowa,Black Hawk,5574,64,98,0,2020-10-25,42.4704581,-92.30524729
Iowa,Boone,717,6,9,0,2020-10-25,42.03657094,-93.9313999
Iowa,Bremer,671,10,9,0,2020-10-25,42.77461496,-92.31795937
Iowa,Buchanan,451,8,4,0,2020-10-25,42.4709188,-91.83510825
Iowa,Buena Vista,2255,10,12,0,2020-10-25,42.73545875,-95.15100162
Iowa,Butler,378,12,2,0,2020-10-25,42.73172833,-92.79015971
Iowa,Calhoun,307,7,4,0,2020-10-25,42.38521079,-94.64046046
Iowa,Carroll,1145,31,12,0,2020-10-25,42.03617207,-94.86032705
Iowa,Cass,388,10,3,0,2020-10-25,41.33149454,-94.92792482
Iowa,Cedar,460,16,5,0,2020-10-25,41.77233777,-91.13246684
Iowa,Cerro Gordo,1362,8,25,0,2020-10-25,43.08177563,-93.2612239
Iowa,Cherokee,402,10,2,0,2020-10-25,42.73538914,-95.62389402
Iowa,Chickasaw,356,10,1,0,2020-10-25,43.06001295,-92.31773347
Iowa,Clarke,349,4,3,0,2020-10-25,41.02868181,-93.78499767
Iowa,Clay,528,4,4,0,2020-10-25,43.08247182,-95.15096481
Iowa,Clayton,419,12,3,0,2020-10-25,42.84443388,-91.34133693
Iowa,Clinton,1483,26,26,0,2020-10-25,41.89981633,-90.53275096
Iowa,Crawford,1355,3,14,0,2020-10-25,42.03718237,-95.3819718
Iowa,Dallas,3443,23,44,0,2020-10-25,41.68560356,-94.04127625
Iowa,Davis,176,6,4,0,2020-10-25,40.74773536,-92.41005468
Iowa,Decatur,150,1,0,0,2020-10-25,40.73742757,-93.78645949
Iowa,Delaware,778,16,12,0,2020-10-25,42.47104597,-91.3664492
Iowa,Des Moines,1386,32,10,0,2020-10-25,40.92012606,-91.18326592
Iowa,Dickinson,734,9,7,0,2020-10-25,43.37787725,-95.1510206
Iowa,Dubuque,5186,77,57,0,2020-10-25,42.46815349,-90.88181925
Iowa,Emmet,429,6,17,0,2020-10-25,43.37782951,-94.67858943
Iowa,Fayette,374,6,4,0,2020-10-25,42.86271799,-91.8441231
Iowa,Floyd,433,3,11,0,2020-10-25,43.06000529999999,-92.78940097
Iowa,Franklin,380,0,18,0,2020-10-25,42.73270384,-93.26256925
Iowa,Fremont,202,5,1,0,2020-10-25,40.74542720000001,-95.60129045
Iowa,Greene,186,2,0,0,2020-10-25,42.03614551,-94.39658081
Iowa,Grundy,307,4,5,0,2020-10-25,42.40183723,-92.78829551
Iowa,Guthrie,391,7,15,0,2020-10-25,41.68378965,-94.50111014
Iowa,Hamilton,468,2,4,0,2020-10-25,42.38382428,-93.70197703
Iowa,Hancock,316,4,4,0,2020-10-25,43.08178477,-93.73454884
Iowa,Hardin,475,6,7,0,2020-10-25,42.38353877,-93.23654611
Iowa,Harrison,653,7,11,0,2020-10-25,41.68330137,-95.81558439
Iowa,Henry,1054,8,5,0,2020-10-25,40.98767962,-91.54436349
Iowa,Howard,269,3,9,0,2020-10-25,43.35671042,-92.31702714
Iowa,Humboldt,323,3,3,0,2020-10-25,42.7764426,-94.20722537
Iowa,Ida,192,4,2,0,2020-10-25,42.38696136,-95.51355387
Iowa,Iowa,405,9,9,1,2020-10-25,41.68630265,-92.0643373
Iowa,Jackson,628,32,3,0,2020-10-25,42.17178824,-90.57354837
Iowa,Jasper,1096,15,34,0,2020-10-25,41.68576082,-93.05567785
Iowa,Jefferson,238,4,1,0,2020-10-25,41.03192394,-91.94849466
Iowa,Johnson,5844,41,30,0,2020-10-25,41.67169354,-91.58754744
Iowa,Jones,444,10,4,0,2020-10-25,42.12118609,-91.13139641
Iowa,Keokuk,160,0,1,0,2020-10-25,41.33649833,-92.1785067
Iowa,Kossuth,466,6,0,0,2020-10-25,43.20405458,-94.20691791
Iowa,Lee,954,11,10,0,2020-10-25,40.64181461,-91.48183025
Iowa,Linn,5513,93,129,0,2020-10-25,42.07923082,-91.59809485
Iowa,Louisa,521,4,15,0,2020-10-25,41.21842119,-91.26102611
Iowa,Lucas,201,2,6,0,2020-10-25,41.02958964,-93.32780803
Iowa,Lyon,549,7,7,0,2020-10-25,43.38107862,-96.20926845
Iowa,Madison,360,4,3,0,2020-10-25,41.33081904,-94.01554631
Iowa,Mahaska,687,9,24,0,2020-10-25,41.33521503,-92.64083907
Iowa,Marion,1007,24,10,0,2020-10-25,41.33445101,-93.09934783
Iowa,Marshall,2014,19,36,0,2020-10-25,42.03586837,-92.9990819
Iowa,Mills,397,10,1,0,2020-10-25,41.03299766,-95.61920963
Iowa,Mitchell,275,8,0,0,2020-10-25,43.35638371,-92.78887719
Iowa,Monona,244,3,1,0,2020-10-25,42.05220391,-95.95743843
Iowa,Monroe,259,1,11,0,2020-10-25,41.02988815,-92.8690667
Iowa,Montgomery,173,5,7,0,2020-10-25,41.03018714,-95.15642896
Iowa,Muscatine,1442,22,58,0,2020-10-25,41.48370744,-91.1121697
Iowa,O'Brien,664,29,14,0,2020-10-25,43.08310673,-95.62474482
Iowa,Osceola,279,7,1,0,2020-10-25,43.37824276,-95.62422844
Iowa,Page,399,10,0,0,2020-10-25,40.7393172,-95.1497813
Iowa,Palo Alto,310,1,2,0,2020-10-25,43.08193849,-94.67824621
Iowa,Plymouth,1657,22,27,0,2020-10-25,42.737633,-96.21366621
Iowa,Pocahontas,223,2,2,0,2020-10-25,42.73420133,-94.67862564
Iowa,Polk,18874,116,288,0,2020-10-25,41.68679484,-93.57767461
Iowa,Pottawattamie,3235,31,44,0,2020-10-25,41.33640314,-95.53907776
Iowa,Poweshiek,456,2,11,0,2020-10-25,41.68625425,-92.53155731
Iowa,Ringgold,88,0,2,0,2020-10-25,40.73518949,-94.24368535
Iowa,Sac,397,8,4,0,2020-10-25,42.38624071,-95.10547892
Iowa,Scott,4541,95,38,0,2020-10-25,41.63935978,-90.61959493
Iowa,Shelby,372,5,1,0,2020-10-25,41.6850066,-95.31015553
Iowa,Sioux,2425,29,16,0,2020-10-25,43.08221074,-96.1767568
Iowa,Story,3989,16,18,0,2020-10-25,42.03621213,-93.46499005
Iowa,Tama,944,7,37,0,2020-10-25,42.07991767,-92.53266945
Iowa,Taylor,236,5,2,0,2020-10-25,40.73710579,-94.69778563
Iowa,Union,232,3,4,0,2020-10-25,41.0277278,-94.24234847
Iowa,Van Buren,174,2,2,0,2020-10-25,40.75326764,-91.95017958
Iowa,Wapello,1525,18,62,0,2020-10-25,41.03064984,-92.40954728
Iowa,Warren,1247,33,7,0,2020-10-25,41.33559454,-93.56007641
Iowa,Washington,653,3,11,0,2020-10-25,41.33577126,-91.71725711
Iowa,Wayne,120,3,3,0,2020-10-25,40.73969028,-93.32752197
Iowa,Webster,1830,6,15,0,2020-10-25,42.42853483,-94.17987389
Iowa,Winnebago,487,13,19,0,2020-10-25,43.37751174,-93.73407298
Iowa,Winneshiek,474,8,9,0,2020-10-25,43.29094334,-91.84422722
Iowa,Woodbury,7183,61,94,0,2020-10-25,42.38979414,-96.0459439
Iowa,Worth,144,2,0,0,2020-10-25,43.37750768,-93.26087602
Iowa,Wright,719,3,1,0,2020-10-25,42.73305373,-93.73515113
Kansas,Allen,112,0,1,0,2020-10-25,37.88582951,-95.30030847
Kansas,Anderson,167,0,0,0,2020-10-25,38.21413251,-95.29272815
Kansas,Atchison,512,0,5,0,2020-10-25,39.53185661,-95.30870026
Kansas,Barber,36,0,0,0,2020-10-25,37.2288586,-98.68460053
Kansas,Barton,729,0,7,0,2020-10-25,38.47889676,-98.75636726
Kansas,Bourbon,306,0,3,0,2020-10-25,37.85508555,-94.84865997
Kansas,Brown,204,0,5,0,2020-10-25,39.82652589,-95.56421698
Kansas,Butler,841,0,3,0,2020-10-25,37.78134351,-96.83878537
Kansas,Chase,90,0,2,0,2020-10-25,38.30292938,-96.59563862
Kansas,Chautauqua,21,0,0,0,2020-10-25,37.14994405,-96.2454192
Kansas,Cherokee,660,0,7,0,2020-10-25,37.16928494,-94.8462897
Kansas,Cheyenne,111,0,5,0,2020-10-25,39.78580976,-101.7318201
Kansas,Clark,63,0,4,0,2020-10-25,37.23577007,-99.81883015
Kansas,Clay,96,0,3,0,2020-10-25,39.34948772,-97.16518128
Kansas,Cloud,116,0,1,0,2020-10-25,39.48028352,-97.64925343
Kansas,Coffey,154,0,9,0,2020-10-25,38.2365018,-95.73379515
Kansas,Comanche,20,0,0,0,2020-10-25,37.19114520000001,-99.27113247
Kansas,Cowley,490,0,10,0,2020-10-25,37.23781842,-96.83776647
Kansas,Crawford,1384,0,10,0,2020-10-25,37.50675523,-94.85245778
Kansas,Decatur,76,0,1,0,2020-10-25,39.78468441,-100.4594081
Kansas,Dickinson,294,0,3,0,2020-10-25,38.86600962,-97.15532383
Kansas,Doniphan,201,0,0,0,2020-10-25,39.79067154,-95.14056866
Kansas,Douglas,2799,0,17,0,2020-10-25,38.88503636,-95.2925121
Kansas,Edwards,67,0,0,0,2020-10-25,37.88735543,-99.31263309
Kansas,Elk,13,0,0,0,2020-10-25,37.45338105,-96.24369667
Kansas,Ellis,1352,0,18,0,2020-10-25,38.91458712,-99.31751551
Kansas,Ellsworth,209,0,1,0,2020-10-25,38.69677695,-98.20462799
Kansas,Finney,2900,0,18,0,2020-10-25,38.04340344,-100.7381938
Kansas,Ford,3193,0,13,0,2020-10-25,37.69200114,-99.88825298
Kansas,Franklin,522,0,3,0,2020-10-25,38.56443815,-95.28644341
Kansas,Geary,385,0,4,0,2020-10-25,38.99871131,-96.7577178
Kansas,Gove,162,0,10,0,2020-10-25,38.91588178,-100.4829321
Kansas,Graham,56,0,1,0,2020-10-25,39.34987223,-99.88332493
Kansas,Grant,429,5,8,0,2020-10-25,37.56227336,-101.3079758
Kansas,Gray,197,0,0,0,2020-10-25,37.73836671,-100.4369088
Kansas,Greeley,34,0,0,0,2020-10-25,38.4808095,-101.8061079
Kansas,Greenwood,85,0,0,0,2020-10-25,37.8774388,-96.23250453
Kansas,Hamilton,60,0,0,0,2020-10-25,37.99978709,-101.7921066
Kansas,Harper,149,0,2,0,2020-10-25,37.19175361,-98.07578384
Kansas,Harvey,518,0,7,0,2020-10-25,38.04293782,-97.42747573
Kansas,Haskell,103,0,1,0,2020-10-25,37.5620394,-100.8710738
Kansas,Hodgeman,33,0,0,0,2020-10-25,38.08780079,-99.89829881
Kansas,Jackson,315,0,4,0,2020-10-25,39.41673394,-95.79356799
Kansas,Jefferson,269,0,4,0,2020-10-25,39.2347941,-95.38289232
Kansas,Jewell,28,0,1,0,2020-10-25,39.78470589,-98.21820662
Kansas,Johnson,13751,105,192,0,2020-10-25,38.88548175,-94.82250877
Kansas,Kearny,139,0,6,0,2020-10-25,38.00017981,-101.321681
Kansas,Kingman,119,0,3,0,2020-10-25,37.55909527,-98.13638678
Kansas,Kiowa,69,0,0,0,2020-10-25,37.55848695,-99.2856537
Kansas,Labette,372,0,6,0,2020-10-25,37.19113093,-95.29849679
Kansas,Lane,21,0,0,0,2020-10-25,38.48119447,-100.4660754
Kansas,Leavenworth,2520,0,18,0,2020-10-25,39.20183497,-95.03620809
Kansas,Lincoln,20,0,1,0,2020-10-25,39.04549684,-98.20756994
Kansas,Linn,110,0,1,0,2020-10-25,38.21267844,-94.84254089
Kansas,Logan,68,0,0,0,2020-10-25,38.91735806,-101.148475
Kansas,Lyon,1288,0,39,0,2020-10-25,38.45576156,-96.15275715
Kansas,McPherson,390,0,6,0,2020-10-25,38.39184858,-97.64769869
Kansas,Marion,116,0,1,0,2020-10-25,38.35855394,-97.0985251
Kansas,Marshall,65,0,0,0,2020-10-25,39.78359669,-96.52278974
Kansas,Meade,141,0,1,0,2020-10-25,37.23859987,-100.364831
Kansas,Miami,509,0,2,0,2020-10-25,38.56383358,-94.83832189
Kansas,Mitchell,62,0,0,0,2020-10-25,39.39331582,-98.20906732
Kansas,Montgomery,656,0,6,0,2020-10-25,37.19236568,-95.74329258
Kansas,Morris,56,0,0,0,2020-10-25,38.68827511,-96.65128437
Kansas,Morton,41,0,2,0,2020-10-25,37.19141121,-101.79925190000002
Kansas,Nemaha,258,0,1,0,2020-10-25,39.78345387,-96.01392079
Kansas,Neosho,255,0,0,0,2020-10-25,37.55862897,-95.30670046
Kansas,Ness,148,0,9,0,2020-10-25,38.47974157,-99.91547333
Kansas,Norton,477,0,10,0,2020-10-25,39.78443827,-99.90286639
Kansas,Osage,156,0,2,0,2020-10-25,38.65235984,-95.72707998
Kansas,Osborne,21,0,0,0,2020-10-25,39.3503437,-98.76753828
Kansas,Ottawa,111,0,0,0,2020-10-25,39.13237408,-97.65020313
Kansas,Pawnee,413,0,1,0,2020-10-25,38.18108732,-99.23692334
Kansas,Phillips,183,0,9,0,2020-10-25,39.78465501,-99.34668865
Kansas,Pottawatomie,376,0,0,0,2020-10-25,39.37925655,-96.34564657
Kansas,Pratt,114,0,0,0,2020-10-25,37.64780729,-98.73922153
Kansas,Rawlins,82,0,0,0,2020-10-25,39.78525843,-101.0761617
Kansas,Reno,2029,0,15,0,2020-10-25,37.95230263,-98.08607292
Kansas,Republic,76,0,1,0,2020-10-25,39.82799632,-97.65036709
Kansas,Rice,136,0,1,0,2020-10-25,38.34616184,-98.19992118
Kansas,Riley,2123,0,11,0,2020-10-25,39.28935726,-96.73420026
Kansas,Rooks,145,0,7,0,2020-10-25,39.35022773,-99.32484567
Kansas,Rush,98,0,0,0,2020-10-25,38.52275276,-99.30863983
Kansas,Russell,174,0,4,0,2020-10-25,38.91462787,-98.76254297
Kansas,Saline,1068,0,13,0,2020-10-25,38.78369175,-97.65185177
Kansas,Scott,176,0,1,0,2020-10-25,38.48222076,-100.9066539
Kansas,Sedgwick,10861,128,127,0,2020-10-25,37.6842718,-97.4608198
Kansas,Seward,2092,0,13,0,2020-10-25,37.19324632,-100.8507201
Kansas,Shawnee,3354,0,77,0,2020-10-25,39.04100763,-95.7557264
Kansas,Sheridan,143,0,0,0,2020-10-25,39.35018161,-100.4418259
Kansas,Sherman,171,0,0,0,2020-10-25,39.35147699,-101.7197624
Kansas,Smith,22,0,0,0,2020-10-25,39.78516566,-98.78566062
Kansas,Stafford,77,0,1,0,2020-10-25,38.03100851,-98.71762001
Kansas,Stanton,48,0,2,0,2020-10-25,37.56304714,-101.7843534
Kansas,Stevens,220,0,1,0,2020-10-25,37.1923008,-101.3118967
Kansas,Sumner,262,0,3,0,2020-10-25,37.23682549,-97.47721621
Kansas,Thomas,326,11,2,0,2020-10-25,39.35107575,-101.0553705
Kansas,Trego,91,0,3,0,2020-10-25,38.91467218,-99.87284448
Kansas,Wabaunsee,81,0,1,0,2020-10-25,38.95471985,-96.20350509
Kansas,Wallace,36,0,0,0,2020-10-25,38.91686134,-101.7638876
Kansas,Washington,31,0,0,0,2020-10-25,39.78420784,-97.0875323
Kansas,Wichita,28,0,0,0,2020-10-25,38.48178252,-101.3471509
Kansas,Wilson,113,0,2,0,2020-10-25,37.55937174,-95.74323255
Kansas,Woodson,27,0,0,0,2020-10-25,37.8865336,-95.74006277
Kansas,Wyandotte,8140,29,164,0,2020-10-25,39.11727348,-94.76378225
Kentucky,Adair,491,7,21,0,2020-10-25,37.10459774,-85.28129668
Kentucky,Allen,541,13,11,0,2020-10-25,36.75197631,-86.19457544
Kentucky,Anderson,245,3,1,0,2020-10-25,38.00671029,-84.99171713
Kentucky,Ballard,72,3,1,0,2020-10-25,37.05842757,-88.99427697
Kentucky,Barren,1126,26,13,0,2020-10-25,36.96469836,-85.93338945
Kentucky,Bath,117,3,1,0,2020-10-25,38.14735938,-83.74588932
Kentucky,Bell,668,1,17,0,2020-10-25,36.73355174,-83.67766671
Kentucky,Boone,2104,33,25,0,2020-10-25,38.97065142,-84.72615357
Kentucky,Bourbon,307,-1,1,0,2020-10-25,38.2054607,-84.21827874
Kentucky,Boyd,646,12,21,0,2020-10-25,38.36176608,-82.68652187
Kentucky,Boyle,440,1,0,0,2020-10-25,37.62680923,-84.8633779
Kentucky,Bracken,69,1,1,0,2020-10-25,38.69158994,-84.08532444
Kentucky,Breathitt,127,6,0,0,2020-10-25,37.52333168,-83.31959161
Kentucky,Breckinridge,188,0,2,0,2020-10-25,37.77377239,-86.42885017
Kentucky,Bullitt,1377,37,14,0,2020-10-25,37.97162523,-85.68955617
Kentucky,Butler,403,3,16,0,2020-10-25,37.20946153,-86.68748787
Kentucky,Caldwell,254,0,0,0,2020-10-25,37.14749129,-87.86948214
Kentucky,Calloway,951,18,9,0,2020-10-25,36.62093411,-88.2731593
Kentucky,Campbell,1201,31,16,0,2020-10-25,38.94384345,-84.37875208
Kentucky,Carlisle,101,0,1,0,2020-10-25,36.85372876,-88.96692220000001
Kentucky,Carroll,220,3,5,0,2020-10-25,38.66599534,-85.12601074
Kentucky,Carter,330,5,4,0,2020-10-25,38.31690743,-83.05092385
Kentucky,Casey,313,0,15,0,2020-10-25,37.32533118,-84.92726209
Kentucky,Christian,1835,26,27,0,2020-10-25,36.89267803,-87.49055367
Kentucky,Clark,517,8,11,0,2020-10-25,37.9689263,-84.14615986
Kentucky,Clay,498,6,6,0,2020-10-25,37.16451126,-83.712575
Kentucky,Clinton,230,6,3,0,2020-10-25,36.72581156,-85.13377529
Kentucky,Crittenden,162,0,1,0,2020-10-25,37.35839237,-88.08826090000002
Kentucky,Cumberland,133,1,0,0,2020-10-25,36.78926125,-85.39050034
Kentucky,Daviess,1942,16,29,0,2020-10-25,37.73028906,-87.09019479999998
Kentucky,Edmonson,183,0,12,0,2020-10-25,37.21218923,-86.23955613
Kentucky,Elliott,321,137,0,0,2020-10-25,38.11624059,-83.09771563
Kentucky,Estill,264,1,0,0,2020-10-25,37.69241417,-83.95956369
Kentucky,Fayette,10379,41,88,1,2020-10-25,38.0368225,-84.45576892
Kentucky,Fleming,178,3,0,0,2020-10-25,38.36758311,-83.69657514
Kentucky,Floyd,344,7,4,0,2020-10-25,37.56213922,-82.74750924
Kentucky,Franklin,842,1,14,0,2020-10-25,38.2379395,-84.87962551
Kentucky,Fulton,234,3,3,0,2020-10-25,36.55238827,-89.20140068
Kentucky,Gallatin,126,0,8,0,2020-10-25,38.75398691,-84.8558382
Kentucky,Garrard,302,6,3,0,2020-10-25,37.6388668,-84.53289319
Kentucky,Grant,243,9,6,0,2020-10-25,38.64962758,-84.62415957
Kentucky,Graves,873,2,29,0,2020-10-25,36.72292505,-88.65143315
Kentucky,Grayson,498,0,16,1,2020-10-25,37.46231118,-86.34248968
Kentucky,Green,332,3,8,0,2020-10-25,37.26484328,-85.5540745
Kentucky,Greenup,612,10,11,0,2020-10-25,38.54332505,-82.9215658
Kentucky,Hancock,133,3,2,0,2020-10-25,37.83766422,-86.78280584
Kentucky,Hardin,1935,19,13,0,2020-10-25,37.6976111,-85.96319251
Kentucky,Harlan,584,1,14,0,2020-10-25,36.85699301,-83.21899516
Kentucky,Harrison,261,2,1,0,2020-10-25,38.44188174,-84.32869741
Kentucky,Hart,380,16,1,0,2020-10-25,37.29943898,-85.88461055
Kentucky,Henderson,1293,13,25,0,2020-10-25,37.79344553,-87.57392021
Kentucky,Henry,267,10,2,0,2020-10-25,38.44942688,-85.11587507
Kentucky,Hickman,111,0,1,0,2020-10-25,36.67948079999999,-88.97875928
Kentucky,Hopkins,1013,5,42,0,2020-10-25,37.30939025,-87.54670406
Kentucky,Jackson,449,5,17,0,2020-10-25,37.41866422,-83.99825483
Kentucky,Jefferson,21507,379,348,0,2020-10-25,38.18664655,-85.65931031
Kentucky,Jessamine,941,16,9,0,2020-10-25,37.87119786,-84.58252003
Kentucky,Johnson,294,8,2,0,2020-10-25,37.85106355,-82.8264322
Kentucky,Kenton,2606,54,49,0,2020-10-25,38.93950319,-84.53241199
Kentucky,Knott,335,6,4,0,2020-10-25,37.35388197,-82.94981134
Kentucky,Knox,822,15,9,0,2020-10-25,36.89225732,-83.85403396
Kentucky,Larue,248,6,1,0,2020-10-25,37.54567114,-85.70138352
Kentucky,Laurel,1386,10,7,0,2020-10-25,37.10975748,-84.11321779
Kentucky,Lawrence,144,3,0,0,2020-10-25,38.07136018,-82.72882223
Kentucky,Lee,114,3,3,0,2020-10-25,37.59645942,-83.71513901
Kentucky,Leslie,127,2,1,0,2020-10-25,37.09246661,-83.37999606
Kentucky,Letcher,302,3,2,0,2020-10-25,37.12306748,-82.85346474
Kentucky,Lewis,280,3,15,0,2020-10-25,38.53184419,-83.37735618
Kentucky,Lincoln,316,3,19,0,2020-10-25,37.45475628,-84.6565327
Kentucky,Livingston,124,1,1,0,2020-10-25,37.21137452,-88.34797529
Kentucky,Logan,755,9,31,0,2020-10-25,36.85949479,-86.877635
Kentucky,Lyon,106,0,4,0,2020-10-25,37.02080035,-88.07886257
Kentucky,McCracken,1097,27,12,0,2020-10-25,37.05350953,-88.70445755
Kentucky,McCreary,254,3,1,0,2020-10-25,36.73874143,-84.48102924
Kentucky,McLean,182,8,3,0,2020-10-25,37.5301951,-87.26803443
Kentucky,Madison,2291,13,13,0,2020-10-25,37.71659336,-84.27220275
Kentucky,Magoffin,159,6,0,0,2020-10-25,37.70820545,-83.0657714
Kentucky,Marion,434,15,10,0,2020-10-25,37.55218078,-85.26898542
Kentucky,Marshall,453,1,7,0,2020-10-25,36.88007070000001,-88.32803576
Kentucky,Martin,180,7,3,0,2020-10-25,37.79990579,-82.51247478
Kentucky,Mason,165,2,2,0,2020-10-25,38.59471935,-83.82151043
Kentucky,Meade,373,6,3,0,2020-10-25,37.96163597,-86.21028219
Kentucky,Menifee,81,1,1,0,2020-10-25,37.94090733,-83.59985712
Kentucky,Mercer,353,14,6,0,2020-10-25,37.81474237,-84.87488475
Kentucky,Metcalfe,187,1,2,0,2020-10-25,36.99459295,-85.63123699
Kentucky,Monroe,272,3,4,0,2020-10-25,36.71225341,-85.71596443
Kentucky,Montgomery,455,30,4,0,2020-10-25,38.03253032,-83.9145241
Kentucky,Morgan,121,3,0,0,2020-10-25,37.92465657,-83.25558245
Kentucky,Muhlenberg,963,11,13,0,2020-10-25,37.21425819,-87.14632053
Kentucky,Nelson,851,16,4,0,2020-10-25,37.80335779,-85.4657193
Kentucky,Nicholas,105,1,2,0,2020-10-25,38.33342292,-84.01889177
Kentucky,Ohio,596,5,9,0,2020-10-25,37.47751843,-86.85368087
Kentucky,Oldham,1411,8,26,0,2020-10-25,38.39791089,-85.448222
Kentucky,Owen,117,0,3,0,2020-10-25,38.51679143,-84.82404619
Kentucky,Owsley,90,3,1,0,2020-10-25,37.42823949,-83.68811419
Kentucky,Pendleton,123,2,0,0,2020-10-25,38.69607718,-84.35599463
Kentucky,Perry,507,9,9,0,2020-10-25,37.25023553,-83.22922731
Kentucky,Pike,818,12,3,0,2020-10-25,37.47088263,-82.39487445
Kentucky,Powell,142,4,0,0,2020-10-25,37.83218794,-83.82553961
Kentucky,Pulaski,983,4,13,0,2020-10-25,37.10466131,-84.57629079
Kentucky,Robertson,22,3,1,0,2020-10-25,38.51923469,-84.05055616
Kentucky,Rockcastle,326,6,2,0,2020-10-25,37.36642393,-84.31176452
Kentucky,Rowan,340,10,1,0,2020-10-25,38.19484205,-83.42088935
Kentucky,Russell,378,4,6,0,2020-10-25,36.99308373,-85.06070117
Kentucky,Scott,1101,17,18,0,2020-10-25,38.29622293,-84.5816631
Kentucky,Shelby,1458,35,24,0,2020-10-25,38.21476019,-85.194223
Kentucky,Simpson,343,3,8,0,2020-10-25,36.74058474,-86.58047435
Kentucky,Spencer,293,8,1,1,2020-10-25,38.03223971,-85.32749335
Kentucky,Taylor,473,4,7,0,2020-10-25,37.3677562,-85.3329931
Kentucky,Todd,280,0,12,0,2020-10-25,36.8381152,-87.17878374
Kentucky,Trigg,241,2,0,0,2020-10-25,36.80767017,-87.87333656
Kentucky,Trimble,86,2,0,0,2020-10-25,38.61056487,-85.33775972
Kentucky,Union,506,3,6,0,2020-10-25,37.66166713,-87.94300009
Kentucky,Warren,5125,37,57,0,2020-10-25,36.99903045,-86.42672751
Kentucky,Washington,225,4,1,0,2020-10-25,37.75599461,-85.17407732
Kentucky,Wayne,279,4,1,0,2020-10-25,36.80310688,-84.8251971
Kentucky,Webster,306,7,5,0,2020-10-25,37.52168356,-87.67989953
Kentucky,Whitley,789,2,6,0,2020-10-25,36.75700531,-84.14541217
Kentucky,Wolfe,62,3,0,0,2020-10-25,37.73941626,-83.49303612
Kentucky,Woodford,374,7,0,0,2020-10-25,38.04178222,-84.7417556
Louisiana,Acadia,3121,13,100,0,2020-10-25,30.2950649,-92.41419698
Louisiana,Allen,1849,6,57,2,2020-10-25,30.65385745,-92.82442028
Louisiana,Ascension,4073,30,98,0,2020-10-25,30.20406249,-90.91328409999998
Louisiana,Assumption,794,1,24,0,2020-10-25,29.89946234,-91.06461642
Louisiana,Avoyelles,1707,7,62,0,2020-10-25,31.07796211,-92.00079449
Louisiana,Beauregard,1067,2,40,0,2020-10-25,30.64836518,-93.34173616
Louisiana,Bienville,593,4,33,0,2020-10-25,32.34569994,-93.05398492
Louisiana,Bossier,4188,59,117,0,2020-10-25,32.67932307,-93.60460152
Louisiana,Caddo,10025,97,392,0,2020-10-25,32.57991587,-93.88375652
Louisiana,Calcasieu,8353,51,230,6,2020-10-25,30.22931235,-93.35400434
Louisiana,Caldwell,351,6,3,0,2020-10-25,32.0902519,-92.11752148
Louisiana,Cameron,242,1,2,0,2020-10-25,29.87592238,-93.19310676
Louisiana,Catahoula,464,4,14,0,2020-10-25,31.66778967,-91.84526385
Louisiana,Claiborne,602,2,25,1,2020-10-25,32.82308512,-92.99526883
Louisiana,Concordia,600,3,16,0,2020-10-25,31.44817835,-91.63814433
Louisiana,De Soto,1017,8,35,0,2020-10-25,32.05457447,-93.74130302
Louisiana,East Baton Rouge,16021,71,457,0,2020-10-25,30.53842039,-91.09777565
Louisiana,East Carroll,582,4,6,0,2020-10-25,32.73926954,-91.23425694
Louisiana,East Feliciana,1800,5,78,1,2020-10-25,30.84425359,-91.04976723
Louisiana,Evangeline,1411,10,39,0,2020-10-25,30.72985248,-92.39915924
Louisiana,Franklin,1310,5,45,0,2020-10-25,32.13675181,-91.67589857
Louisiana,Grant,536,4,30,0,2020-10-25,31.59882456,-92.56124347
Louisiana,Iberia,3062,3,95,0,2020-10-25,29.86803617,-91.75871777
Louisiana,Iberville,1472,2,61,1,2020-10-25,30.25734305,-91.3499598
Louisiana,Jackson,851,5,23,0,2020-10-25,32.30251776,-92.55692092
Louisiana,Jefferson,18624,85,584,1,2020-10-25,29.74075478,-90.11115756
Louisiana,Jefferson Davis,1333,-2,43,0,2020-10-25,30.26896765,-92.81210004
Louisiana,Lafayette,9421,41,138,0,2020-10-25,30.2049055,-92.06959876
Louisiana,Lafourche,3880,9,128,0,2020-10-25,29.52470226,-90.40976986
Louisiana,LaSalle,495,5,10,0,2020-10-25,31.67884782,-92.15907765
Louisiana,Lincoln,1649,16,48,0,2020-10-25,32.6003154,-92.6659741
Louisiana,Livingston,4191,34,79,0,2020-10-25,30.44143993,-90.73061664
Louisiana,Madison,893,0,9,0,2020-10-25,32.36918118,-91.23973355
Louisiana,Morehouse,888,3,26,0,2020-10-25,32.81686191,-91.80421614
Louisiana,Natchitoches,1467,19,28,0,2020-10-25,31.72321584,-93.09816516
Louisiana,Orleans,13427,59,592,0,2020-10-25,30.06971951,-89.92660315
Louisiana,Ouachita,6969,58,163,3,2020-10-25,32.47645559,-92.15704172
Louisiana,Plaquemines,891,6,19,0,2020-10-25,29.42245447,-89.60322085
Louisiana,Pointe Coupee,1136,7,41,1,2020-10-25,30.71409502,-91.60209535
Louisiana,Rapides,4677,31,154,0,2020-10-25,31.19778499,-92.52997303
Louisiana,Red River,424,9,24,0,2020-10-25,32.09530039,-93.34213308
Louisiana,Richland,879,7,16,0,2020-10-25,32.41391005,-91.76634876
Louisiana,Sabine,986,10,15,0,2020-10-25,31.56388699,-93.55433981
Louisiana,St. Bernard,1538,6,32,0,2020-10-25,29.87761636,-89.51887093
Louisiana,St. Charles,1941,8,63,0,2020-10-25,29.90709658,-90.35555967
Louisiana,St. Helena,432,-2,4,0,2020-10-25,30.82210324,-90.71013176
Louisiana,St. James,837,0,40,0,2020-10-25,30.02531716,-90.80212061
Louisiana,St. John the Baptist,1639,11,107,0,2020-10-25,30.12597499,-90.4753503
Louisiana,St. Landry,3637,21,135,0,2020-10-25,30.59724262,-92.00135806
Louisiana,St. Martin,2208,7,63,0,2020-10-25,30.13112107,-91.61403569
Louisiana,St. Mary,2025,10,85,0,2020-10-25,29.69262097,-91.44702164
Louisiana,St. Tammany,7679,39,270,1,2020-10-25,30.40942847,-89.95642711
Louisiana,Tangipahoa,4979,20,123,0,2020-10-25,30.62888673,-90.40664996
Louisiana,Tensas,186,-1,2,0,2020-10-25,32.00760749,-91.32915234
Louisiana,Terrebonne,3866,11,123,0,2020-10-25,29.37343766,-90.82626855
Louisiana,Union,1104,6,51,0,2020-10-25,32.83121059,-92.3749373
Louisiana,Vermilion,2117,3,70,0,2020-10-25,29.83517605,-92.30292538
Louisiana,Vernon,1116,4,55,0,2020-10-25,31.10884837,-93.18153838
Louisiana,Washington,1748,11,71,0,2020-10-25,30.85288548,-90.03866652
Louisiana,Webster,1465,13,40,0,2020-10-25,32.70847669,-93.33121835
Louisiana,West Baton Rouge,960,0,42,0,2020-10-25,30.46058217,-91.30989571
Louisiana,West Carroll,371,0,12,0,2020-10-25,32.78550125,-91.461201
Louisiana,West Feliciana,740,1,25,0,2020-10-25,30.87882871,-91.4148538
Louisiana,Winn,684,4,19,0,2020-10-25,31.94449367,-92.63789413
Maine,Androscoggin,847,2,10,0,2020-10-25,44.1664747,-70.20380627
Maine,Aroostook,62,2,1,0,2020-10-25,46.65926321,-68.59841248
Maine,Cumberland,2481,18,70,0,2020-10-25,43.8370751,-70.37226999
Maine,Franklin,74,0,1,0,2020-10-25,44.97330019,-70.44381045
Maine,Hancock,65,2,1,0,2020-10-25,44.59816444,-68.38401854
Maine,Kennebec,312,3,11,0,2020-10-25,44.40759555,-69.76738544
Maine,Knox,61,3,1,0,2020-10-25,44.11486325,-69.10529169
Maine,Lincoln,60,0,1,0,2020-10-25,44.05996956,-69.54227124
Maine,Oxford,161,3,2,0,2020-10-25,44.49952995,-70.75682123
Maine,Penobscot,292,7,6,0,2020-10-25,45.40194593,-68.65020455
Maine,Piscataquis,10,0,0,0,2020-10-25,45.83839062,-69.2860223
Maine,Sagadahoc,81,1,0,0,2020-10-25,43.95415864,-69.85074999
Maine,Somerset,137,4,8,0,2020-10-25,45.51229767,-69.95995554
Maine,Waldo,145,2,14,0,2020-10-25,44.4858305,-69.12061935
Maine,Washington,39,8,0,0,2020-10-25,45.01607142,-67.62813524
Maine,York,1372,8,20,0,2020-10-25,43.47808377,-70.71052375
Maryland,Allegany,635,11,23,0,2020-10-25,39.62357628,-78.69280486
Maryland,Anne Arundel,11724,79,270,2,2020-10-25,39.00670238,-76.60329337
Maryland,Baltimore,20208,100,665,3,2020-10-25,39.45784712,-76.62911955
Maryland,Calvert,1162,4,29,0,2020-10-25,38.53961642,-76.56820632
Maryland,Caroline,732,3,8,0,2020-10-25,38.87172293,-75.82904158
Maryland,Carroll,2202,10,129,0,2020-10-25,39.56453592,-77.02373735
Maryland,Cecil,1322,12,36,0,2020-10-25,39.56647682,-75.94627411
Maryland,Charles,3113,23,102,0,2020-10-25,38.51092331,-76.98580666
Maryland,Dorchester,769,8,10,0,2020-10-25,38.45413522,-76.02752426
Maryland,Frederick,4678,35,138,0,2020-10-25,39.47296601,-77.39999394
Maryland,Garrett,126,3,1,0,2020-10-25,39.52786077,-79.27355126
Maryland,Harford,3529,16,81,0,2020-10-25,39.55010644,-76.30775940000002
Maryland,Howard,5777,34,126,2,2020-10-25,39.25305293,-76.93126208
Maryland,Kent,338,0,25,1,2020-10-25,39.24976208,-76.04741541
Maryland,Montgomery,25147,163,867,3,2020-10-25,39.13676329,-77.20358245
Maryland,Prince George's,32225,104,853,0,2020-10-25,38.83070039,-76.8496441
Maryland,Queen Anne's,767,5,26,0,2020-10-25,39.06198912,-76.03530977
Maryland,St. Mary's,1452,9,60,0,2020-10-25,38.30058422,-76.60629279999998
Maryland,Somerset,410,1,6,0,2020-10-25,38.1163542,-75.75118623
Maryland,Talbot,641,5,6,0,2020-10-25,38.76618159,-76.10882561
Maryland,Washington,2229,18,43,1,2020-10-25,39.60835778,-77.82002295
Maryland,Wicomico,2451,17,50,0,2020-10-25,38.37301947,-75.62705831
Maryland,Worcester,1202,4,31,1,2020-10-25,38.21274277,-75.33200012
Maryland,Baltimore,20208,100,665,3,2020-10-25,39.45784712,-76.62911955
Massachusetts,Barnstable,1944,11,182,0,2020-10-25,41.72980578,-70.28854339
Massachusetts,Berkshire,761,10,51,0,2020-10-25,42.37428441,-73.20524838
Massachusetts,Bristol,11718,150,741,4,2020-10-25,41.79228404,-71.10872211
Massachusetts,Essex,23175,236,1340,3,2020-10-25,42.6687626,-70.94687179
Massachusetts,Franklin,461,1,72,0,2020-10-25,42.58119713,-72.58602547
Massachusetts,Hampden,9548,47,811,2,2020-10-25,42.13440424,-72.63235561
Massachusetts,Hampshire,1449,8,154,1,2020-10-25,42.33997957,-72.65898478
Massachusetts,Middlesex,31257,225,2252,7,2020-10-25,42.48607732,-71.39049229
Massachusetts,Norfolk,11530,61,1104,3,2020-10-25,42.16073095,-71.20530408
Massachusetts,Plymouth,11123,56,823,3,2020-10-25,41.94070556,-70.80802823
Massachusetts,Suffolk,27571,225,1169,1,2020-10-25,42.3279514,-71.07850442
Massachusetts,Worcester,16064,87,1158,1,2020-10-25,42.35026951,-71.90493363
Michigan,Alcona,52,0,2,0,2020-10-25,44.6846864,-83.59507875
Michigan,Alger,105,0,1,0,2020-10-25,46.41292944,-86.60260122
Michigan,Allegan,1201,0,7,0,2020-10-25,42.59147037,-85.89102866
Michigan,Alpena,152,0,14,0,2020-10-25,45.03477666,-83.62212411
Michigan,Antrim,115,0,0,0,2020-10-25,44.99690221,-85.15503082
Michigan,Arenac,91,0,3,0,2020-10-25,44.0636262,-83.89277559
Michigan,Baraga,80,0,4,0,2020-10-25,46.6720582,-88.36363591
Michigan,Barry,626,0,5,0,2020-10-25,42.59513984,-85.30834519
Michigan,Bay,1347,0,62,0,2020-10-25,43.70639106,-83.98731479
Michigan,Benzie,115,0,2,0,2020-10-25,44.63899297,-86.01608482
Michigan,Berrien,2609,0,80,0,2020-10-25,41.95447397,-86.41313079999998
Michigan,Branch,849,0,11,0,2020-10-25,41.91600556,-85.05929476
Michigan,Calhoun,2699,0,67,0,2020-10-25,42.24633834,-85.00493569
Michigan,Cass,944,0,24,0,2020-10-25,41.91522292,-85.99405727
Michigan,Charlevoix,164,0,4,0,2020-10-25,45.37790017,-85.19614053
Michigan,Cheboygan,133,0,2,0,2020-10-25,45.44787015,-84.50122149
Michigan,Chippewa,128,0,0,0,2020-10-25,46.29552653,-84.54353449
Michigan,Clare,254,0,10,0,2020-10-25,43.98794227,-84.84819859999998
Michigan,Clinton,1050,0,15,0,2020-10-25,42.94400871,-84.60145248
Michigan,Crawford,150,0,5,0,2020-10-25,44.68255561,-84.61006219
Michigan,Delta,1140,0,24,0,2020-10-25,45.90484910000001,-86.9080745
Michigan,Dickinson,603,0,18,0,2020-10-25,46.00999672,-87.86961634
Michigan,Eaton,1092,0,11,0,2020-10-25,42.59599185,-84.83740035
Michigan,Emmet,222,0,4,0,2020-10-25,45.52625509,-84.89083249
Michigan,Genesee,6491,0,333,0,2020-10-25,43.02244215,-83.70589709
Michigan,Gladwin,185,0,2,0,2020-10-25,43.98901072,-84.38774817
Michigan,Gogebic,369,0,5,0,2020-10-25,46.40862701,-89.69377193
Michigan,Grand Traverse,735,0,13,0,2020-10-25,44.69565625,-85.55585247
Michigan,Gratiot,469,0,16,0,2020-10-25,43.29265605,-84.60505416
Michigan,Hillsdale,500,0,28,0,2020-10-25,41.88753639,-84.59312019
Michigan,Houghton,906,0,9,0,2020-10-25,46.89988536,-88.68495385
Michigan,Huron,264,0,5,0,2020-10-25,43.83353985,-83.04078453
Michigan,Ingham,4532,0,64,0,2020-10-25,42.59716886,-84.37472069
Michigan,Ionia,673,0,8,0,2020-10-25,42.94502238,-85.07413319
Michigan,Iosco,277,0,16,0,2020-10-25,44.35486835,-83.63484895
Michigan,Iron,421,0,22,0,2020-10-25,46.20974132,-88.53136251
Michigan,Isabella,993,0,15,0,2020-10-25,43.64060976,-84.84664923
Michigan,Jackson,1715,0,65,0,2020-10-25,42.24807035,-84.42258681
Michigan,Kalamazoo,4657,0,102,0,2020-10-25,42.24542231,-85.53038622
Michigan,Kalkaska,121,0,4,0,2020-10-25,44.68512729,-85.09085699
Michigan,Kent,13715,0,184,0,2020-10-25,43.03197711,-85.54934642
Michigan,Keweenaw,18,0,0,0,2020-10-25,47.63197653,-88.41434263
Michigan,Lake,56,0,0,0,2020-10-25,43.99050893,-85.802173
Michigan,Lapeer,875,0,38,0,2020-10-25,43.09052506,-83.22153148
Michigan,Leelanau,144,0,2,0,2020-10-25,44.94430054,-85.80150326
Michigan,Lenawee,1096,0,19,0,2020-10-25,41.89475156,-84.06603727
Michigan,Livingston,1942,0,33,0,2020-10-25,42.60302282,-83.91297209
Michigan,Luce,47,0,0,0,2020-10-25,46.47227431,-85.54471223
Michigan,Mackinac,154,0,0,0,2020-10-25,46.07028979,-85.04980537
Michigan,Macomb,18025,0,1084,0,2020-10-25,42.69158356,-82.92752801
Michigan,Manistee,128,0,3,0,2020-10-25,44.33352407,-86.05626916
Michigan,Marquette,973,0,14,0,2020-10-25,46.4338914,-87.64043701
Michigan,Mason,219,0,1,0,2020-10-25,43.99509218,-86.24988902
Michigan,Mecosta,463,0,4,0,2020-10-25,43.64064262,-85.32463223
Michigan,Menominee,679,0,3,0,2020-10-25,45.58038692,-87.55370409
Michigan,Midland,946,0,14,0,2020-10-25,43.64330771,-84.38804374
Michigan,Missaukee,85,0,1,0,2020-10-25,44.33772443,-85.09256478
Michigan,Monroe,1945,0,32,0,2020-10-25,41.92734151,-83.53749864
Michigan,Montcalm,602,0,10,0,2020-10-25,43.31082541,-85.15252824
Michigan,Montmorency,24,0,0,0,2020-10-25,45.0275929,-84.12696227
Michigan,Muskegon,2021,0,81,0,2020-10-25,43.29123859,-86.15176712
Michigan,Newaygo,585,0,3,0,2020-10-25,43.554374,-85.80070107
Michigan,Oakland,24343,0,1235,0,2020-10-25,42.66090111,-83.38595416
Michigan,Oceana,606,0,6,0,2020-10-25,43.64124435,-86.26726673
Michigan,Ogemaw,102,0,5,0,2020-10-25,44.33481032,-84.12725175
Michigan,Ontonagon,91,0,0,0,2020-10-25,46.665226200000006,-89.31390481
Michigan,Osceola,144,0,0,0,2020-10-25,43.98992088,-85.32566756
Michigan,Oscoda,55,0,1,0,2020-10-25,44.68192279,-84.12939244
Michigan,Otsego,237,0,12,0,2020-10-25,45.02085831,-84.59898295
Michigan,Ottawa,4807,0,72,0,2020-10-25,42.95996803,-85.9969107
Michigan,Presque Isle,50,0,1,0,2020-10-25,45.34018577,-83.91498656
Michigan,Roscommon,162,0,5,0,2020-10-25,44.33473082,-84.61067651
Michigan,Saginaw,3685,0,152,0,2020-10-25,43.33433923,-84.05131209999998
Michigan,St. Clair,1474,0,64,0,2020-10-25,42.92655373,-82.67937954
Michigan,St. Joseph,1171,0,17,0,2020-10-25,41.91441767,-85.52797979
Michigan,Sanilac,188,0,7,0,2020-10-25,43.42406072,-82.82055898
Michigan,Schoolcraft,66,0,1,0,2020-10-25,46.19235734,-86.19972234
Michigan,Shiawassee,682,0,34,0,2020-10-25,42.95392800000001,-84.14585902
Michigan,Tuscola,636,0,35,0,2020-10-25,43.46606813,-83.41897025
Michigan,Van Buren,1040,0,18,0,2020-10-25,42.25190229,-86.01939087
Michigan,Washtenaw,5238,0,117,0,2020-10-25,42.253105,-83.83853204
Michigan,Wayne,39660,0,3045,0,2020-10-25,42.28098405,-83.281255
Michigan,Wexford,168,0,4,0,2020-10-25,44.33853602,-85.57712739
Minnesota,Aitkin,179,2,2,0,2020-10-25,46.60962049,-93.4116826
Minnesota,Anoka,8661,109,150,0,2020-10-25,45.27476015,-93.24604565
Minnesota,Becker,561,10,4,1,2020-10-25,46.93479392,-95.67158144
Minnesota,Beltrami,891,15,7,0,2020-10-25,47.97373527,-94.93732139
Minnesota,Benton,940,17,9,1,2020-10-25,45.69804958,-93.99514135
Minnesota,Big Stone,138,2,0,0,2020-10-25,45.42712824,-96.41403739
Minnesota,Blue Earth,2043,7,7,0,2020-10-25,44.03554215,-94.06699781
Minnesota,Brown,321,1,3,0,2020-10-25,44.24205652,-94.72562874
Minnesota,Carlton,434,11,1,0,2020-10-25,46.59180601,-92.67601019
Minnesota,Carver,1789,22,7,0,2020-10-25,44.82017001,-93.8009918
Minnesota,Cass,370,4,5,0,2020-10-25,46.95043611,-94.32603968
Minnesota,Chippewa,435,6,3,0,2020-10-25,45.02343421,-95.56403693
Minnesota,Chisago,1002,21,2,0,2020-10-25,45.5021011,-92.90861945
Minnesota,Clay,2297,17,43,0,2020-10-25,46.89289518,-96.48761922
Minnesota,Clearwater,111,6,0,0,2020-10-25,47.57992111,-95.37790562
Minnesota,Cook,16,3,0,0,2020-10-25,47.90504893,-90.52629546
Minnesota,Cottonwood,280,4,0,0,2020-10-25,44.00715262,-95.18138802
Minnesota,Crow Wing,1010,20,22,1,2020-10-25,46.48096553,-94.06755609
Minnesota,Dakota,9823,137,138,1,2020-10-25,44.67172617,-93.06299363
Minnesota,Dodge,394,2,0,0,2020-10-25,44.02238415,-92.86244324
Minnesota,Douglas,696,24,3,0,2020-10-25,45.93348491,-95.45335469
Minnesota,Faribault,231,3,0,0,2020-10-25,43.67381499,-93.94787458
Minnesota,Fillmore,260,3,0,0,2020-10-25,43.67394126,-92.08980382
Minnesota,Freeborn,669,3,4,0,2020-10-25,43.67385583,-93.34884422
Minnesota,Goodhue,585,12,11,0,2020-10-25,44.40849741,-92.7234195
Minnesota,Grant,98,2,4,0,2020-10-25,45.93424769,-96.01139609
Minnesota,Hennepin,34033,314,991,7,2020-10-25,45.00761521,-93.47694895
Minnesota,Houston,204,7,1,0,2020-10-25,43.67129565,-91.49143057
Minnesota,Hubbard,390,11,2,0,2020-10-25,47.10778564,-94.91693868
Minnesota,Isanti,541,14,5,0,2020-10-25,45.56181234,-93.29487636
Minnesota,Itasca,727,8,17,0,2020-10-25,47.51009045,-93.63092229
Minnesota,Jackson,210,2,1,0,2020-10-25,43.67423373,-95.15398258
Minnesota,Kanabec,209,4,10,0,2020-10-25,45.9459309,-93.29275192
Minnesota,Kandiyohi,1670,12,5,0,2020-10-25,45.1526059,-95.00586446
Minnesota,Kittson,40,2,0,0,2020-10-25,48.77754106,-96.78317184
Minnesota,Koochiching,169,2,4,0,2020-10-25,48.24539665,-93.78352843
Minnesota,Lac qui Parle,133,1,3,0,2020-10-25,44.9973857,-96.17488219
Minnesota,Lake,119,1,0,0,2020-10-25,47.64270764,-91.44557998
Minnesota,Lake of the Woods,44,0,1,0,2020-10-25,48.77217001,-94.90274472
Minnesota,Le Sueur,623,3,5,0,2020-10-25,44.37136597,-93.72844721
Minnesota,Lincoln,182,0,0,0,2020-10-25,44.41311883,-96.26688165
Minnesota,Lyon,965,6,6,0,2020-10-25,44.41327865,-95.83806103
Minnesota,McLeod,597,9,4,0,2020-10-25,44.82367677,-94.27287017
Minnesota,Mahnomen,113,3,2,0,2020-10-25,47.32557075,-95.80921485
Minnesota,Marshall,121,11,1,0,2020-10-25,48.35825983,-96.37017407
Minnesota,Martin,613,2,17,0,2020-10-25,43.67429718,-94.55099908
Minnesota,Meeker,326,1,3,0,2020-10-25,45.12328869,-94.52839455
Minnesota,Mille Lacs,406,5,15,0,2020-10-25,45.93705297,-93.63236823
Minnesota,Morrison,726,14,9,0,2020-10-25,46.01265363,-94.27341528
Minnesota,Mower,1517,9,17,2,2020-10-25,43.67142874,-92.75234549
Minnesota,Murray,278,3,3,0,2020-10-25,44.02216709,-95.76328482
Minnesota,Nicollet,730,12,17,0,2020-10-25,44.35291112,-94.24710352
Minnesota,Nobles,2268,11,16,0,2020-10-25,43.67434621,-95.75329576
Minnesota,Norman,115,1,0,0,2020-10-25,47.32628443,-96.45620947
Minnesota,Olmsted,3252,20,30,0,2020-10-25,44.00374114,-92.40209944
Minnesota,Otter Tail,862,11,7,0,2020-10-25,46.40846929,-95.70835255
Minnesota,Pennington,191,6,1,0,2020-10-25,48.06642577,-96.0370814
Minnesota,Pine,543,12,0,0,2020-10-25,46.12105238,-92.74070188
Minnesota,Pipestone,350,5,17,0,2020-10-25,44.02301619,-96.25841142
Minnesota,Polk,643,25,4,0,2020-10-25,47.77372465,-96.40134647
Minnesota,Pope,156,1,0,0,2020-10-25,45.58606667,-95.44451209
Minnesota,Ramsey,14073,164,360,2,2020-10-25,45.01625271,-93.09872295
Minnesota,Red Lake,78,1,2,0,2020-10-25,47.87197525,-96.09561104
Minnesota,Redwood,275,4,11,0,2020-10-25,44.40555844,-95.25207021
Minnesota,Renville,252,2,11,0,2020-10-25,44.72836381,-94.94553734
Minnesota,Rice,1633,5,10,1,2020-10-25,44.3543376,-93.29658715
Minnesota,Rock,328,4,4,0,2020-10-25,43.67482683,-96.25296832
Minnesota,Roseau,264,5,0,0,2020-10-25,48.77501878,-95.81079919
Minnesota,St. Louis,2965,53,69,2,2020-10-25,47.6048407,-92.46879855
Minnesota,Scott,3382,34,34,0,2020-10-25,44.6490231,-93.53340251
Minnesota,Sherburne,1685,20,22,1,2020-10-25,45.44447208,-93.77617511
Minnesota,Sibley,252,3,3,0,2020-10-25,44.5796592,-94.23164924
Minnesota,Stearns,5825,82,43,0,2020-10-25,45.55192576,-94.61078221
Minnesota,Steele,759,3,3,0,2020-10-25,44.02240351,-93.22627088
Minnesota,Stevens,182,1,1,0,2020-10-25,45.58613007,-96.00163705
Minnesota,Swift,201,0,1,0,2020-10-25,45.2829032,-95.68264092
Minnesota,Todd,805,19,5,0,2020-10-25,46.06996226,-94.89785296
Minnesota,Traverse,56,1,0,0,2020-10-25,45.77298854,-96.47062949
Minnesota,Wabasha,378,8,0,0,2020-10-25,44.28424356,-92.23121312
Minnesota,Wadena,231,7,3,0,2020-10-25,46.58589171,-94.96968506
Minnesota,Waseca,928,1,9,0,2020-10-25,44.02211116,-93.58720034
Minnesota,Washington,5932,102,72,1,2020-10-25,45.03864533,-92.88429635
Minnesota,Watonwan,578,0,4,0,2020-10-25,43.97823903,-94.61413846
Minnesota,Wilkin,134,1,4,0,2020-10-25,46.35721532,-96.4684375
Minnesota,Winona,1250,7,19,0,2020-10-25,43.98772283,-91.78081305
Minnesota,Wright,2483,51,14,0,2020-10-25,45.17297924,-93.96234781
Minnesota,Yellow Medicine,283,2,6,1,2020-10-25,44.71710183,-95.86842453
Mississippi,Adams,1085,0,44,0,2020-10-25,31.47669768,-91.35326037
Mississippi,Alcorn,1001,0,12,0,2020-10-25,34.88084463,-88.57996173
Mississippi,Amite,425,0,13,0,2020-10-25,31.17467303,-90.80501621
Mississippi,Attala,794,0,26,0,2020-10-25,33.08658803,-89.57838564
Mississippi,Benton,341,0,6,0,2020-10-25,34.81681228,-89.18945516
Mississippi,Bolivar,2016,0,77,0,2020-10-25,33.79696941,-90.87372121
Mississippi,Calhoun,626,0,12,0,2020-10-25,33.93683395,-89.33686647
Mississippi,Carroll,493,0,12,0,2020-10-25,33.44834567,-89.91994479
Mississippi,Chickasaw,855,0,26,0,2020-10-25,33.91983202,-88.9481545
Mississippi,Choctaw,208,0,6,0,2020-10-25,33.34598242,-89.24809382
Mississippi,Claiborne,537,0,16,0,2020-10-25,31.97061673,-90.90702196
Mississippi,Clarke,758,0,51,0,2020-10-25,32.04158545,-88.68896219999998
Mississippi,Clay,693,0,21,0,2020-10-25,33.65358105,-88.77784255
Mississippi,Coahoma,1249,0,37,0,2020-10-25,34.22772299,-90.60415045
Mississippi,Copiah,1375,0,36,0,2020-10-25,31.86977774,-90.44565118
Mississippi,Covington,975,0,27,0,2020-10-25,31.63225413,-89.55389939
Mississippi,DeSoto,7039,0,79,0,2020-10-25,34.87625235,-89.99091418
Mississippi,Forrest,3046,0,78,0,2020-10-25,31.18961454,-89.25832496
Mississippi,Franklin,242,0,3,0,2020-10-25,31.47786634,-90.89672989
Mississippi,George,992,0,18,0,2020-10-25,30.86259065,-88.64436789
Mississippi,Greene,478,0,18,0,2020-10-25,31.21444233,-88.63922281
Mississippi,Grenada,1226,0,38,0,2020-10-25,33.77036166,-89.80245083
Mississippi,Hancock,840,0,28,0,2020-10-25,30.41830223,-89.48851033
Mississippi,Harrison,5223,0,84,0,2020-10-25,30.51359752,-89.12467576
Mississippi,Hinds,7973,0,177,0,2020-10-25,32.2656285,-90.44435448
Mississippi,Holmes,1147,0,60,0,2020-10-25,33.12345854,-90.08923538
Mississippi,Humphreys,438,0,16,0,2020-10-25,33.12825718,-90.52252707
Mississippi,Issaquena,107,0,4,0,2020-10-25,32.72531359,-90.97392828
Mississippi,Itawamba,1139,0,25,0,2020-10-25,34.27993475,-88.3606733
Mississippi,Jackson,4578,0,84,0,2020-10-25,30.54020656,-88.64184064
Mississippi,Jasper,687,0,17,0,2020-10-25,32.01922104,-89.11786866
Mississippi,Jefferson,276,0,10,0,2020-10-25,31.73397872,-91.03764977
Mississippi,Jefferson Davis,410,0,11,0,2020-10-25,31.56884708,-89.82670990000003
Mississippi,Jones,2924,0,84,0,2020-10-25,31.62257767,-89.16896899999998
Mississippi,Kemper,326,0,15,0,2020-10-25,32.75462946,-88.64105766
Mississippi,Lafayette,2504,0,43,0,2020-10-25,34.35687874,-89.48490961
Mississippi,Lamar,2255,0,38,0,2020-10-25,31.20572971,-89.5077704
Mississippi,Lauderdale,2478,0,135,0,2020-10-25,32.40419769,-88.66229662
Mississippi,Lawrence,518,0,14,0,2020-10-25,31.55147224,-90.10841127
Mississippi,Leake,1150,0,41,0,2020-10-25,32.7536828,-89.52402044
Mississippi,Lee,3573,0,80,0,2020-10-25,34.291877500000005,-88.68149954
Mississippi,Leflore,1671,0,87,0,2020-10-25,33.55545125,-90.29900733
Mississippi,Lincoln,1401,0,57,0,2020-10-25,31.53288662,-90.45391915
Mississippi,Lowndes,1799,0,62,0,2020-10-25,33.47386518,-88.44191529999998
Mississippi,Madison,3831,0,94,0,2020-10-25,32.63389156,-90.03513564
Mississippi,Marion,950,0,42,0,2020-10-25,31.23132643,-89.8209217
Mississippi,Marshall,1431,0,29,0,2020-10-25,34.76216286,-89.50299462
Mississippi,Monroe,1506,0,73,0,2020-10-25,33.89236763,-88.4808438
Mississippi,Montgomery,549,0,23,0,2020-10-25,33.49419589,-89.61729103
Mississippi,Neshoba,1849,0,111,0,2020-10-25,32.75339664,-89.11726492
Mississippi,Newton,866,0,27,0,2020-10-25,32.40021118,-89.11843336
Mississippi,Noxubee,598,0,17,0,2020-10-25,33.11009499,-88.56949061
Mississippi,Oktibbeha,2024,0,54,0,2020-10-25,33.42491685,-88.87905132
Mississippi,Panola,1700,0,40,0,2020-10-25,34.36398677,-89.95064249
Mississippi,Pearl River,1136,0,60,0,2020-10-25,30.77090935,-89.58677275
Mississippi,Perry,494,0,23,0,2020-10-25,31.17161885,-88.99281835
Mississippi,Pike,1384,0,56,0,2020-10-25,31.17507789,-90.40392572
Mississippi,Pontotoc,1472,0,20,0,2020-10-25,34.226046000000004,-89.03636807
Mississippi,Prentiss,1061,0,20,0,2020-10-25,34.61810501,-88.51986294
Mississippi,Quitman,420,0,6,0,2020-10-25,34.25157572,-90.28908
Mississippi,Rankin,3940,0,86,0,2020-10-25,32.26469147,-89.94537876
Mississippi,Scott,1254,0,29,0,2020-10-25,32.406704100000006,-89.53789439
Mississippi,Sharkey,285,0,14,0,2020-10-25,32.88149103,-90.8159538
Mississippi,Simpson,1215,0,49,0,2020-10-25,31.91282117,-89.91716179
Mississippi,Smith,594,0,16,0,2020-10-25,32.01744532,-89.50644846
Mississippi,Stone,475,0,14,0,2020-10-25,30.79187949,-89.11547539
Mississippi,Sunflower,1623,0,49,0,2020-10-25,33.60192578,-90.58882684
Mississippi,Tallahatchie,845,0,26,0,2020-10-25,33.95339918,-90.1729398
Mississippi,Tate,1168,0,39,0,2020-10-25,34.65133709,-89.94485778
Mississippi,Tippah,903,0,22,0,2020-10-25,34.76872156,-88.90988194
Mississippi,Tishomingo,812,0,41,0,2020-10-25,34.74023475,-88.23917219
Mississippi,Tunica,535,0,17,0,2020-10-25,34.64967704,-90.37481167
Mississippi,Union,1188,0,25,0,2020-10-25,34.49162015,-89.00776006
Mississippi,Walthall,639,0,27,0,2020-10-25,31.14971548,-90.10446654
Mississippi,Warren,1548,0,55,0,2020-10-25,32.35810271,-90.83352619
Mississippi,Washington,2583,0,99,0,2020-10-25,33.28392041,-90.94196237
Mississippi,Wayne,1017,0,22,0,2020-10-25,31.64135687,-88.69573913
Mississippi,Webster,376,0,13,0,2020-10-25,33.61300486,-89.28392912
Mississippi,Wilkinson,338,0,20,0,2020-10-25,31.16078225,-91.31018819
Mississippi,Winston,841,0,21,0,2020-10-25,33.08747908,-89.03391385
Mississippi,Yalobusha,545,0,14,0,2020-10-25,34.02824175,-89.70762049999998
Mississippi,Yazoo,1222,0,34,0,2020-10-25,32.77890365,-90.39656148
Missouri,Adair,502,3,0,0,2020-10-25,40.19058551,-92.60078167
Missouri,Andrew,435,7,8,0,2020-10-25,39.98492163,-94.80163024
Missouri,Atchison,76,1,1,0,2020-10-25,40.43238737,-95.42970639
Missouri,Audrain,571,8,11,0,2020-10-25,39.215877,-91.84242683
Missouri,Barry,800,14,9,1,2020-10-25,36.70978521,-93.82919888
Missouri,Barton,417,3,3,0,2020-10-25,37.50207671,-94.34757022
Missouri,Bates,247,4,5,0,2020-10-25,38.25271289,-94.34113157
Missouri,Benton,476,0,5,0,2020-10-25,38.29503305,-93.28756116
Missouri,Bollinger,465,2,2,0,2020-10-25,37.32449052,-90.02725304
Missouri,Boone,5938,49,14,0,2020-10-25,38.99186229,-92.30723575
Missouri,Buchanan,2943,27,39,0,2020-10-25,39.65816401,-94.80138942
Missouri,Butler,1135,14,8,0,2020-10-25,36.71462476,-90.40421163
Missouri,Caldwell,170,4,1,0,2020-10-25,39.65620858,-93.98308093
Missouri,Callaway,1178,26,5,0,2020-10-25,38.83674754,-91.92186505
Missouri,Camden,1565,21,33,0,2020-10-25,38.02199522,-92.76083747
Missouri,Cape Girardeau,2616,17,49,0,2020-10-25,37.38489388,-89.6843587
Missouri,Carroll,188,9,3,0,2020-10-25,39.42762566,-93.50626255
Missouri,Carter,172,4,3,0,2020-10-25,36.94160441,-90.96051322
Missouri,Cass,2008,15,30,0,2020-10-25,38.64789422,-94.353399
Missouri,Cedar,228,9,4,0,2020-10-25,37.72391475,-93.85445441
Missouri,Chariton,59,1,0,0,2020-10-25,39.51499357,-92.9629191
Missouri,Christian,2240,25,13,0,2020-10-25,36.9711783,-93.18537118
Missouri,Clark,108,3,1,0,2020-10-25,40.41040752,-91.73661677
Missouri,Clay,2491,14,49,0,2020-10-25,39.31132056,-94.41850862
Missouri,Clinton,487,8,15,0,2020-10-25,39.6013098,-94.40465394
Missouri,Cole,2898,49,22,0,2020-10-25,38.50455671,-92.27860244
Missouri,Cooper,608,3,3,0,2020-10-25,38.844478,-92.80896081
Missouri,Crawford,621,12,8,0,2020-10-25,37.97663738,-91.30528104
Missouri,Dade,136,1,0,0,2020-10-25,37.431814,-93.8503345
Missouri,Dallas,349,11,1,0,2020-10-25,37.6811355,-93.02127031
Missouri,Daviess,221,1,4,0,2020-10-25,39.96145298,-93.98519678
Missouri,DeKalb,296,9,2,0,2020-10-25,39.89201062,-94.40476508
Missouri,Dent,246,5,3,0,2020-10-25,37.60663134,-91.50790473
Missouri,Douglas,284,4,11,0,2020-10-25,36.9325593,-92.49905109
Missouri,Dunklin,1106,15,12,0,2020-10-25,36.27167174,-90.09122243
Missouri,Franklin,2610,68,44,0,2020-10-25,38.41127108,-91.07522826
Missouri,Gasconade,250,6,24,0,2020-10-25,38.43947277,-91.50847147
Missouri,Gentry,183,2,10,0,2020-10-25,40.21097916,-94.40944419
Missouri,Greene,8866,78,122,0,2020-10-25,37.2575872,-93.34230916
Missouri,Grundy,258,2,10,1,2020-10-25,40.11406587,-93.56509276
Missouri,Harrison,187,0,1,0,2020-10-25,40.35570088,-93.99222144
Missouri,Henry,373,3,7,1,2020-10-25,38.38482826,-93.79293734
Missouri,Hickory,197,4,3,0,2020-10-25,37.94163617,-93.3203037
Missouri,Holt,114,0,1,0,2020-10-25,40.09799248,-95.2163888
Missouri,Howard,244,0,2,0,2020-10-25,39.1435761,-92.69756691
Missouri,Howell,1121,19,10,0,2020-10-25,36.77383887,-91.88683935
Missouri,Iron,98,0,0,0,2020-10-25,37.55487945,-90.7735296
Missouri,Jackson,9855,90,123,1,2020-10-25,39.01002188,-94.34724536
Missouri,Jasper,5159,68,70,0,2020-10-25,37.20351921,-94.34050458
Missouri,Jefferson,5471,51,84,0,2020-10-25,38.25926778,-90.53870896
Missouri,Johnson,1474,22,10,0,2020-10-25,38.74719601,-93.80691168
Missouri,Knox,62,0,1,0,2020-10-25,40.12699751,-92.14780832
Missouri,Laclede,1178,19,22,0,2020-10-25,37.65896829,-92.5888493
Missouri,Lafayette,810,13,24,0,2020-10-25,39.06986886,-93.78076396
Missouri,Lawrence,1089,27,20,0,2020-10-25,37.10626634,-93.83293097
Missouri,Lewis,197,5,2,0,2020-10-25,40.09673161,-91.72070156
Missouri,Lincoln,1172,44,5,0,2020-10-25,39.05345619,-90.95588181
Missouri,Linn,159,1,4,0,2020-10-25,39.87001769,-93.10704106
Missouri,Livingston,556,0,7,0,2020-10-25,39.78110272,-93.54645978
Missouri,McDonald,1211,4,11,0,2020-10-25,36.62869595,-94.34867205
Missouri,Macon,205,2,1,0,2020-10-25,39.83049768,-92.56453089
Missouri,Madison,485,7,3,0,2020-10-25,37.47865134,-90.3467143
Missouri,Maries,184,9,0,0,2020-10-25,38.16193985,-91.92249662
Missouri,Marion,901,11,14,0,2020-10-25,39.80601912,-91.62203062
Missouri,Mercer,31,0,0,0,2020-10-25,40.42212303,-93.5682959
Missouri,Miller,859,25,9,0,2020-10-25,38.21450288,-92.42610898
Missouri,Mississippi,438,1,6,0,2020-10-25,36.82516239,-89.29505753
Missouri,Moniteau,612,11,9,0,2020-10-25,38.63571781,-92.57976951
Missouri,Monroe,152,6,2,0,2020-10-25,39.49593978,-92.00043978
Missouri,Montgomery,141,3,1,0,2020-10-25,38.94022054,-91.47000721
Missouri,Morgan,661,12,7,0,2020-10-25,38.4181765,-92.88791859
Missouri,New Madrid,763,12,22,0,2020-10-25,36.59666326,-89.66070007
Missouri,Newton,2008,16,21,0,2020-10-25,36.90519407,-94.3394104
Missouri,Nodaway,1120,19,11,0,2020-10-25,40.36079813,-94.88133008
Missouri,Oregon,228,5,0,0,2020-10-25,36.68710164,-91.4033755
Missouri,Osage,474,12,3,0,2020-10-25,38.46036182,-91.8613635
Missouri,Ozark,206,5,1,0,2020-10-25,36.64916339,-92.44459066
Missouri,Pemiscot,718,5,12,0,2020-10-25,36.2130572,-89.78742322
Missouri,Perry,795,6,8,0,2020-10-25,37.70660776,-89.82741088
Missouri,Pettis,1579,16,17,0,2020-10-25,38.72798918,-93.28471706
Missouri,Phelps,829,17,21,0,2020-10-25,37.87736118,-91.79351727
Missouri,Pike,349,6,8,0,2020-10-25,39.34310674,-91.16980779
Missouri,Platte,976,11,12,0,2020-10-25,39.38154439,-94.77068479
Missouri,Polk,932,10,10,0,2020-10-25,37.6162296,-93.39828174
Missouri,Pulaski,963,19,9,0,2020-10-25,37.82462075,-92.20783203
Missouri,Putnam,56,3,1,0,2020-10-25,40.47942497,-93.02042674
Missouri,Ralls,202,2,0,0,2020-10-25,39.52817427,-91.51838643
Missouri,Randolph,602,7,3,0,2020-10-25,39.44007257,-92.4971374
Missouri,Ray,270,6,2,0,2020-10-25,39.3537468,-93.98905745
Missouri,Reynolds,70,5,1,0,2020-10-25,37.36085952,-90.97009925
Missouri,Ripley,261,7,4,0,2020-10-25,36.65460667,-90.85990261
Missouri,St. Charles,10568,168,147,0,2020-10-25,38.77875681,-90.66662425
Missouri,St. Clair,118,0,1,0,2020-10-25,38.03699437,-93.77631447
Missouri,Ste. Genevieve,378,17,1,0,2020-10-25,37.89090059,-90.1949941
Missouri,St. Francois,2811,35,27,0,2020-10-25,37.81214171,-90.47598685
Missouri,St. Louis,29588,192,870,-1,2020-10-25,38.63770039999999,-90.4458375
Missouri,Saline,939,5,10,0,2020-10-25,39.13734288,-93.20259964
Missouri,Schuyler,41,2,0,0,2020-10-25,40.46921489,-92.52311943
Missouri,Scotland,72,1,1,0,2020-10-25,40.45214695,-92.14709064
Missouri,Scott,1390,13,19,0,2020-10-25,37.05588075,-89.56474493
Missouri,Shannon,230,3,4,0,2020-10-25,37.15772072,-91.40190382
Missouri,Shelby,107,5,1,0,2020-10-25,39.79742518,-92.07634971
Missouri,Stoddard,865,12,15,0,2020-10-25,36.85571651,-89.9444155
Missouri,Stone,678,9,9,0,2020-10-25,36.75000327,-93.45256475
