State,County,Total Cases,New Cases,Total Deaths,New Deaths,Date,Latitude,Longitude
Alabama,Autauga,2103,21,31,0,2020-10-28,32.53952745,-86.64408227
Alabama,Baldwin,6743,31,69,0,2020-10-28,30.72774991,-87.72207058
Alabama,Barbour,1045,3,9,0,2020-10-28,31.868263,-85.3871286
Alabama,Bibb,856,6,15,0,2020-10-28,32.99642064,-87.12511459999997
Alabama,Blount,1988,16,25,0,2020-10-28,33.98210918,-86.56790593
Alabama,Bullock,650,0,17,0,2020-10-28,32.10030533,-85.71265535
Alabama,Butler,1015,3,41,0,2020-10-28,31.75300095,-86.68057478
Alabama,Calhoun,4689,42,62,1,2020-10-28,33.77483727,-85.82630386
Alabama,Chambers,1370,2,47,0,2020-10-28,32.91360079,-85.39072749
Alabama,Cherokee,761,5,14,0,2020-10-28,34.17805983,-85.60638968
Alabama,Chilton,1909,5,32,0,2020-10-28,32.85044126,-86.7173256
Alabama,Choctaw,394,1,12,0,2020-10-28,32.02227341,-88.26564429999998
Alabama,Clarke,1380,14,17,0,2020-10-28,31.68099859,-87.83548597
Alabama,Clay,758,5,12,0,2020-10-28,33.26984193,-85.85836077
Alabama,Cleburne,577,4,9,0,2020-10-28,33.67679204,-85.52005899
Alabama,Coffee,1826,19,11,0,2020-10-28,31.39932826,-85.98901039
Alabama,Colbert,2082,22,32,0,2020-10-28,34.69847452,-87.80168544
Alabama,Conecuh,565,0,13,0,2020-10-28,31.43401703,-86.99320044
Alabama,Coosa,214,5,3,0,2020-10-28,32.93690146,-86.24847739
Alabama,Covington,1767,8,29,0,2020-10-28,31.2477854,-86.45050893
Alabama,Crenshaw,611,2,30,0,2020-10-28,31.72941803,-86.31593104
Alabama,Cullman,2600,43,25,0,2020-10-28,34.13020303,-86.86888037
Alabama,Dale,1808,19,52,0,2020-10-28,31.43037123,-85.61095742
Alabama,Dallas,1881,0,27,0,2020-10-28,32.32688101,-87.10866709999998
Alabama,DeKalb,3512,20,29,1,2020-10-28,34.45946862,-85.80782906
Alabama,Elmore,3265,19,58,5,2020-10-28,32.59785413,-86.14415284
Alabama,Escambia,1753,4,31,0,2020-10-28,31.1256789,-87.15918694
Alabama,Etowah,4365,24,52,1,2020-10-28,34.04567266,-86.04051873
Alabama,Fayette,594,5,13,0,2020-10-28,33.72076938,-87.73886638
Alabama,Franklin,2077,13,32,0,2020-10-28,34.44235334,-87.84289505
Alabama,Geneva,935,14,7,0,2020-10-28,31.09389027,-85.83572839
Alabama,Greene,346,0,16,0,2020-10-28,32.85504247,-87.95684022
Alabama,Hale,780,3,30,0,2020-10-28,32.76039258,-87.63284988
Alabama,Henry,728,5,6,0,2020-10-28,31.51148016,-85.24267944
Alabama,Houston,4212,19,34,0,2020-10-28,31.15197924,-85.29939599
Alabama,Jackson,2219,25,17,0,2020-10-28,34.78144169,-85.99750489
Alabama,Jefferson,23769,196,383,6,2020-10-28,33.55554728,-86.89506300000002
Alabama,Lamar,516,8,5,0,2020-10-28,33.77995024,-88.09668032
Alabama,Lauderdale,2371,33,43,1,2020-10-28,34.90171875,-87.65624729
Alabama,Lawrence,877,8,33,0,2020-10-28,34.52041498,-87.31069453
Alabama,Lee,6624,53,65,0,2020-10-28,32.60154883,-85.35132246
Alabama,Limestone,2951,15,31,0,2020-10-28,34.81185586,-86.98310072
Alabama,Lowndes,717,1,28,0,2020-10-28,32.1597283,-86.65158371
Alabama,Macon,541,2,20,0,2020-10-28,32.38759944,-85.69267724
Alabama,Madison,9467,45,98,0,2020-10-28,34.76327133,-86.55069633
Alabama,Marengo,1035,9,22,0,2020-10-28,32.24767634,-87.78796182
Alabama,Marion,1103,0,31,0,2020-10-28,34.13697363,-87.88704173
Alabama,Marshall,4452,26,51,0,2020-10-28,34.36975964,-86.30486727
Alabama,Mobile,17039,45,318,2,2020-10-28,30.78472347,-88.20842409
Alabama,Monroe,660,5,10,0,2020-10-28,31.56729412,-87.36995001
Alabama,Montgomery,10435,83,199,1,2020-10-28,32.2206831,-86.20969272
Alabama,Morgan,4263,40,35,0,2020-10-28,34.45500589,-86.85475946
Alabama,Perry,596,1,6,0,2020-10-28,32.64048341,-87.29770589
Alabama,Pickens,874,5,18,0,2020-10-28,33.28094866,-88.08818103
Alabama,Pike,1355,10,14,0,2020-10-28,31.80396383,-85.9408295
Alabama,Randolph,843,8,16,0,2020-10-28,33.29526734,-85.45708831
Alabama,Russell,1976,16,3,0,2020-10-28,32.28725256,-85.18415324
Alabama,St. Clair,3070,30,42,0,2020-10-28,33.71902176,-86.31029372
Alabama,Shelby,7563,59,65,0,2020-10-28,33.26879845,-86.66232561
Alabama,Sumter,477,3,21,0,2020-10-28,32.59117397,-88.19916205
Alabama,Talladega,2739,25,37,0,2020-10-28,33.37823223,-86.16886178
Alabama,Tallapoosa,1353,14,87,0,2020-10-28,32.86698258,-85.79833053
Alabama,Tuscaloosa,10539,77,141,1,2020-10-28,33.28726072,-87.52556818
Alabama,Walker,2855,18,93,0,2020-10-28,33.80270512,-87.30027177
Alabama,Washington,754,3,12,0,2020-10-28,31.4092794,-88.20689944
Alabama,Wilcox,571,1,12,0,2020-10-28,31.98773215,-87.30891118
Alabama,Winston,943,3,13,0,2020-10-28,34.15030532,-87.37325922
Alaska,Aleutians East,16,0,0,0,2020-10-28,55.32222414,-161.9722021
Alaska,Bristol Bay,0,0,0,0,2020-10-28,58.74513976,-156.701064
Alaska,Denali,31,0,0,0,2020-10-28,63.67264044,-150.0076108
Alaska,Fairbanks North Star,2173,33,14,0,2020-10-28,64.80726247,-146.5692662
Alaska,Haines,12,0,0,0,2020-10-28,59.09893571,-135.4679843
Alaska,Kenai Peninsula,975,33,4,1,2020-10-28,60.24429722,-151.53888840000005
Alaska,Ketchikan Gateway,80,-1,0,0,2020-10-28,55.57445008,-130.975561
Alaska,Kodiak Island,98,0,0,0,2020-10-28,57.65529415,-153.7493579
Alaska,Matanuska-Susitna,1300,76,2,0,2020-10-28,62.31305045,-149.5741743
Alaska,North Slope,267,1,0,0,2020-10-28,69.31479216,-153.4836093
Alaska,Northwest Arctic,243,5,0,0,2020-10-28,67.04919196,-159.7503946
Arizona,Apache,3934,44,169,0,2020-10-28,35.39465006,-109.4892383
Arizona,Cochise,2150,25,75,2,2020-10-28,31.87934684,-109.7516088
Arizona,Coconino,5165,44,148,1,2020-10-28,35.83883429,-111.7707178
Arizona,Gila,1914,7,70,0,2020-10-28,33.80190085,-110.8132779
Arizona,Graham,1185,23,28,0,2020-10-28,32.93166885,-109.8882178
Arizona,Greenlee,101,-2,1,0,2020-10-28,33.21498827,-109.2405279
Arizona,La Paz,618,2,17,0,2020-10-28,33.72854224,-113.9810029
Arizona,Maricopa,155951,493,3559,2,2020-10-28,33.34835867,-112.4918154
Arizona,Mohave,4340,27,230,0,2020-10-28,35.70471703,-113.7577902
Arizona,Navajo,6340,33,239,1,2020-10-28,35.3997715,-110.3218983
Arizona,Pima,27962,259,636,0,2020-10-28,32.0971334,-111.7890033
Arizona,Pinal,11873,41,224,7,2020-10-28,32.90525627,-111.3449483
Arizona,Santa Cruz,3004,9,65,0,2020-10-28,31.52508998,-110.8479088
Arizona,Yavapai,2939,20,89,1,2020-10-28,34.59933926,-112.5538588
Arizona,Yuma,13689,19,354,0,2020-10-28,32.76895712,-113.90666740000002
Arkansas,Arkansas,676,3,16,0,2020-10-28,34.29145151,-91.37277296
Arkansas,Ashley,547,8,11,0,2020-10-28,33.19153461,-91.7698471
Arkansas,Baxter,677,9,10,0,2020-10-28,36.28784385,-92.33782872
Arkansas,Benton,8262,85,119,1,2020-10-28,36.33644656,-94.25680817
Arkansas,Boone,1045,5,34,1,2020-10-28,36.3084504,-93.09374925
Arkansas,Bradley,371,1,8,0,2020-10-28,33.46755808,-92.15980837
Arkansas,Calhoun,53,0,0,0,2020-10-28,33.55598792,-92.49974403
Arkansas,Carroll,1007,7,16,1,2020-10-28,36.34038560000001,-93.54270261
Arkansas,Chicot,1053,3,23,1,2020-10-28,33.26458973,-91.29539209
Arkansas,Clark,501,4,5,0,2020-10-28,34.04613432,-93.17484713
Arkansas,Clay,493,3,12,0,2020-10-28,36.36826212,-90.4148172
Arkansas,Cleburne,462,1,15,0,2020-10-28,35.53864922,-92.02640019
Arkansas,Cleveland,238,4,13,0,2020-10-28,33.89723187,-92.18537045
Arkansas,Columbia,711,7,21,0,2020-10-28,33.21230701,-93.22642793
Arkansas,Conway,349,3,3,0,2020-10-28,35.26205537,-92.70506566
Arkansas,Craighead,4583,39,45,0,2020-10-28,35.83018283,-90.63235729
Arkansas,Crawford,2063,28,26,0,2020-10-28,35.58928601,-94.2446814
Arkansas,Crittenden,2428,31,52,0,2020-10-28,35.21247318,-90.30839406
Arkansas,Cross,593,6,22,0,2020-10-28,35.29631396,-90.77185818
Arkansas,Dallas,180,1,6,1,2020-10-28,33.97042763,-92.65167437
Arkansas,Desha,414,4,7,0,2020-10-28,33.83011025,-91.25500948
Arkansas,Drew,433,3,7,0,2020-10-28,33.59035001,-91.71777921
Arkansas,Faulkner,3389,31,36,1,2020-10-28,35.14719007,-92.33717519
Arkansas,Franklin,537,8,3,0,2020-10-28,35.51202821,-93.89299569
Arkansas,Fulton,330,7,9,0,2020-10-28,36.38177105,-91.81729127
Arkansas,Garland,2481,24,66,0,2020-10-28,34.57692074,-93.14921604
Arkansas,Grant,368,4,4,0,2020-10-28,34.29017991,-92.42320562
Arkansas,Greene,1541,34,20,1,2020-10-28,36.11735460000001,-90.55832668
Arkansas,Hempstead,557,3,5,0,2020-10-28,33.73325583,-93.66935133
Arkansas,Hot Spring,2212,4,38,2,2020-10-28,34.31709259,-92.95396325
Arkansas,Howard,590,8,14,0,2020-10-28,34.09007427,-93.9934871
Arkansas,Independence,1472,6,53,2,2020-10-28,35.74242707,-91.57001641
Arkansas,Izard,604,48,2,0,2020-10-28,36.09604046,-91.90847954
Arkansas,Jackson,773,13,6,0,2020-10-28,35.59802983,-91.21494602
Arkansas,Jefferson,4231,37,102,0,2020-10-28,34.26767081,-91.92619839
Arkansas,Johnson,1025,8,8,0,2020-10-28,35.56759135,-93.46036368
Arkansas,Lafayette,173,1,3,0,2020-10-28,33.24116713,-93.60677071
Arkansas,Lawrence,833,10,18,1,2020-10-28,36.04188196,-91.10867198
Arkansas,Lee,1110,0,18,0,2020-10-28,34.78498904,-90.78383866
Arkansas,Lincoln,2333,18,17,0,2020-10-28,33.95317155,-91.74002806
Arkansas,Little River,459,8,38,0,2020-10-28,33.70375665,-94.23468591
Arkansas,Logan,595,1,4,0,2020-10-28,35.21413234,-93.71951016
Arkansas,Lonoke,1781,29,28,0,2020-10-28,34.75392199,-91.88742357
Arkansas,Madison,431,1,6,0,2020-10-28,36.01038185,-93.72524943
Arkansas,Marion,155,2,2,0,2020-10-28,36.26844485,-92.68451899
Arkansas,Miller,1457,22,16,0,2020-10-28,33.31403423,-93.89285258
Arkansas,Mississippi,2316,19,68,0,2020-10-28,35.76271485,-90.05194370000002
Arkansas,Monroe,212,0,1,0,2020-10-28,34.6815935,-91.20540287
Arkansas,Montgomery,183,0,8,0,2020-10-28,34.53704874,-93.65824478
Arkansas,Nevada,311,10,14,0,2020-10-28,33.66340119,-93.30632432
Arkansas,Newton,314,7,20,1,2020-10-28,35.91947491,-93.21612969
Arkansas,Ouachita,385,6,9,0,2020-10-28,33.58839816,-92.87795984
Arkansas,Perry,139,2,0,0,2020-10-28,34.9459153,-92.94372564
Arkansas,Phillips,757,11,16,0,2020-10-28,34.43268455,-90.84800154
Arkansas,Pike,269,2,1,0,2020-10-28,34.16250414,-93.65789349
Arkansas,Poinsett,1115,44,20,0,2020-10-28,35.57433534,-90.66268713
Arkansas,Polk,360,2,5,0,2020-10-28,34.48254879,-94.22728802
Arkansas,Pope,2759,34,38,0,2020-10-28,35.44871474,-93.03212219
Arkansas,Prairie,231,7,4,0,2020-10-28,34.83624419,-91.55162157
Arkansas,Pulaski,12058,61,211,2,2020-10-28,34.77054088,-92.31355101
Arkansas,Randolph,659,9,24,0,2020-10-28,36.3415714,-91.02455531
Arkansas,St. Francis,1762,2,10,0,2020-10-28,35.02201976,-90.74828138
Arkansas,Saline,2884,30,30,1,2020-10-28,34.64916145,-92.67583224
Arkansas,Scott,220,1,1,0,2020-10-28,34.85588887,-94.0632176
Arkansas,Searcy,202,3,1,0,2020-10-28,35.9109364,-92.69936482
Arkansas,Sebastian,4877,28,93,0,2020-10-28,35.19605503,-94.27162713
Arkansas,Sevier,1362,11,16,0,2020-10-28,33.99780401,-94.2424869
Arkansas,Sharp,365,4,10,0,2020-10-28,36.16258158,-91.47819342
Arkansas,Stone,404,3,21,0,2020-10-28,35.86251946,-92.15684085
Arkansas,Union,1130,8,49,0,2020-10-28,33.16887091,-92.59746952
Arkansas,Van Buren,211,1,3,0,2020-10-28,35.58095779,-92.51295036
Arkansas,Washington,11522,54,151,1,2020-10-28,35.976844,-94.21800746
Arkansas,White,1493,15,33,1,2020-10-28,35.25688493,-91.74908296
Arkansas,Woodruff,124,4,0,0,2020-10-28,35.18902527,-91.2439489
Arkansas,Yell,1345,4,31,0,2020-10-28,35.00292371,-93.41171338
California,Alameda,23576,105,462,0,2020-10-28,37.64629437,-121.8929271
California,Alpine,3,0,0,0,2020-10-28,38.59678594,-119.8223594
California,Amador,335,4,16,0,2020-10-28,38.44583082,-120.65696
California,Butte,3107,12,52,0,2020-10-28,39.66727762,-121.6005252
California,Calaveras,347,5,21,3,2020-10-28,38.20537103,-120.552913
California,Colusa,553,2,6,0,2020-10-28,39.17881957,-122.2331726
California,Contra Costa,18817,54,243,1,2020-10-28,37.91923498,-121.9289527
California,Del Norte,180,0,1,0,2020-10-28,41.74228275,-123.8974063
California,El Dorado,1361,10,4,0,2020-10-28,38.77965956,-120.5233166
California,Fresno,31096,127,439,0,2020-10-28,36.75733899,-119.6466953
California,Glenn,678,7,3,0,2020-10-28,39.59875897,-122.3938452
California,Humboldt,568,0,10,0,2020-10-28,40.69923009,-123.876044
California,Imperial,12983,16,336,0,2020-10-28,33.0393082,-115.3669042
California,Inyo,234,3,15,0,2020-10-28,36.51112084,-117.41119779999998
California,Kern,34027,99,420,4,2020-10-28,35.34329425,-118.7277796
California,Kings,8411,147,83,0,2020-10-28,36.07409056,-119.8159973
California,Lake,700,2,16,0,2020-10-28,39.10124298,-122.7536244
California,Lassen,766,0,1,0,2020-10-28,40.67311306,-120.59350990000002
California,Los Angeles,303369,1292,7040,13,2020-10-28,34.30828379,-118.2282411
California,Madera,5057,20,76,2,2020-10-28,37.21513971,-119.76655890000002
California,Marin,7099,3,127,-2,2020-10-28,38.07122463,-122.7210631
California,Mariposa,80,1,2,0,2020-10-28,37.57978556,-119.9073334
California,Mendocino,1142,6,21,0,2020-10-28,39.4381191,-123.3911313
California,Merced,9572,41,155,0,2020-10-28,37.18922369,-120.7209035
California,Modoc,43,7,0,0,2020-10-28,41.58965602,-120.7244817
California,Mono,180,0,2,0,2020-10-28,37.93899289,-118.8872409
California,Monterey,11472,53,91,1,2020-10-28,36.21862405,-121.2413397
California,Napa,1979,13,16,0,2020-10-28,38.50735751,-122.332839
California,Nevada,628,5,8,0,2020-10-28,39.30394768,-120.7627281
California,Orange,59213,233,1467,13,2020-10-28,33.70147516,-117.76459979999998
California,Placer,4248,41,57,0,2020-10-28,39.06167234,-120.7240569
California,Plumas,73,3,0,0,2020-10-28,40.00355989,-120.8395236
California,Riverside,67299,306,1305,2,2020-10-28,33.74314981,-115.9933578
California,Sacramento,25750,149,496,5,2020-10-28,38.45106826,-121.3425374
California,San Benito,1444,2,15,0,2020-10-28,36.60308176,-121.069975
California,San Bernardino,63850,483,1073,0,2020-10-28,34.84060306,-116.1774685
California,San Diego,55540,330,881,4,2020-10-28,33.03484597,-116.7365326
California,San Joaquin,21906,177,490,1,2020-10-28,37.93433732,-121.2730061
California,San Luis Obispo,4191,17,32,0,2020-10-28,35.38822029,-120.4039028
California,San Mateo,11232,34,159,0,2020-10-28,37.4228808,-122.32755459999998
California,Santa Barbara,9874,47,126,4,2020-10-28,34.65329488,-120.0188492
California,Santa Clara,24558,133,402,10,2020-10-28,37.23104908,-121.6970462
California,Santa Cruz,2821,13,25,0,2020-10-28,37.05580291,-122.0066524
California,Shasta,1962,8,31,0,2020-10-28,40.76391419,-122.0396884
California,Sierra,6,0,0,0,2020-10-28,39.57713498,-120.52007009999998
California,Siskiyou,205,0,0,0,2020-10-28,41.59198861,-122.5407434
California,Solano,7480,35,76,0,2020-10-28,38.26827353,-121.9357113
California,Sonoma,9569,75,136,0,2020-10-28,38.52746429,-122.8862506
California,Stanislaus,17760,46,399,1,2020-10-28,37.55862499,-120.9970722
California,Sutter,1878,13,12,0,2020-10-28,39.03417539,-121.6945899
California,Tehama,913,21,9,1,2020-10-28,40.12570935,-122.2370171
California,Trinity,28,1,0,0,2020-10-28,40.64917670000001,-123.114713
California,Tulare,17678,88,288,0,2020-10-28,36.22026558,-118.8020203
California,Tuolumne,279,4,4,0,2020-10-28,38.02644018,-119.9525093
California,Ventura,14347,17,165,0,2020-10-28,34.44465746,-119.0910613
California,Yolo,3234,15,60,1,2020-10-28,38.68278902,-121.9018288
California,Yuba,1334,11,10,0,2020-10-28,39.26255932,-121.3535644
Colorado,Adams,14173,228,260,3,2020-10-28,39.87432092,-104.3362578
Colorado,Alamosa,316,9,9,0,2020-10-28,37.57250606,-105.7885451
Colorado,Arapahoe,12810,156,382,2,2020-10-28,39.64977461,-104.3353617
Colorado,Archuleta,67,0,0,0,2020-10-28,37.19474156,-107.0476867
Colorado,Baca,31,0,0,0,2020-10-28,37.31940883,-102.5603223
Colorado,Bent,14,0,0,0,2020-10-28,37.95474293,-103.0720195
Colorado,Boulder,5651,150,85,0,2020-10-28,40.09313619,-105.3546767
Colorado,Chaffee,402,8,20,0,2020-10-28,38.74745778,-106.19265729999998
Colorado,Cheyenne,15,0,0,0,2020-10-28,38.82777431,-102.6032558
Colorado,Clear Creek,75,4,1,0,2020-10-28,39.68864463,-105.6463118
Colorado,Conejos,66,0,0,0,2020-10-28,37.201606,-106.19174879999998
Colorado,Costilla,36,0,1,0,2020-10-28,37.27732493,-105.4276548
Colorado,Crowley,92,1,1,0,2020-10-28,38.32608609,-103.7844965
Colorado,Custer,21,0,0,0,2020-10-28,38.10883162,-105.3683478
Colorado,Delta,205,2,3,0,2020-10-28,38.86246243,-107.8631342
Colorado,Dolores,3,0,0,0,2020-10-28,37.75208676,-108.5211585
Colorado,Douglas,4008,65,64,0,2020-10-28,39.33133796,-104.930001
Colorado,Eagle,1447,19,10,0,2020-10-28,39.62754308,-106.6933637
Colorado,Elbert,224,5,3,0,2020-10-28,39.28656773,-104.1358721
Colorado,El Paso,10159,103,198,2,2020-10-28,38.83240149,-104.5251411
Colorado,Fremont,679,6,2,1,2020-10-28,38.47362326,-105.4399667
Colorado,Garfield,1187,24,5,0,2020-10-28,39.59921777,-107.902708
Colorado,Gilpin,28,0,0,0,2020-10-28,39.85646523,-105.5252597
Colorado,Grand,153,0,1,0,2020-10-28,40.10603347,-106.1178042
Colorado,Gunnison,307,1,7,0,2020-10-28,38.66611652,-107.0320729
Colorado,Hinsdale,3,0,0,0,2020-10-28,37.82247444,-107.3004345
Colorado,Huerfano,33,0,2,0,2020-10-28,37.68473101,-104.9612585
Colorado,Jackson,9,0,0,0,2020-10-28,40.66593870000001,-106.3408905
Colorado,Jefferson,8608,144,311,2,2020-10-28,39.58635604,-105.2517692
Colorado,Kiowa,4,0,0,0,2020-10-28,38.43260896,-102.7392145
Colorado,Kit Carson,132,1,3,0,2020-10-28,39.30497777,-102.6022199
Colorado,Lake,133,0,0,0,2020-10-28,39.20278823,-106.3555697
Colorado,La Plata,364,0,2,0,2020-10-28,37.28632032,-107.8429014
Colorado,Larimer,4105,34,57,0,2020-10-28,40.66671597,-105.4625784
Colorado,Las Animas,74,4,1,0,2020-10-28,37.3153406,-104.0376458
Colorado,Lincoln,25,0,0,0,2020-10-28,38.98749519,-103.5136649
Colorado,Logan,1233,10,12,0,2020-10-28,40.7249637,-103.110817
Colorado,Mesa,1470,51,13,2,2020-10-28,39.01787888,-108.469799
Colorado,Mineral,21,0,0,0,2020-10-28,37.66954283,-106.9281698
Colorado,Moffat,68,4,1,0,2020-10-28,40.61810999,-108.2070876
Colorado,Montezuma,212,1,5,0,2020-10-28,37.33859579,-108.5958857
Colorado,Montrose,470,0,13,0,2020-10-28,38.40214114,-108.26390220000002
Colorado,Morgan,864,8,48,0,2020-10-28,40.26279810000001,-103.8093302
Colorado,Otero,148,9,6,0,2020-10-28,37.9014485,-103.7173385
Colorado,Ouray,38,2,2,0,2020-10-28,38.14717457,-107.7675136
Colorado,Park,96,1,1,0,2020-10-28,39.120926,-105.7182065
Colorado,Phillips,55,5,0,0,2020-10-28,40.59414277,-102.3577703
Colorado,Pitkin,291,4,2,0,2020-10-28,39.21720112,-106.9310027
Colorado,Prowers,182,7,3,0,2020-10-28,37.95544985,-102.3926052
Colorado,Pueblo,2096,49,41,0,2020-10-28,38.17359144,-104.5127437
Colorado,Rio Blanco,29,1,0,0,2020-10-28,39.97913541,-108.2179009
Colorado,Rio Grande,122,0,3,0,2020-10-28,37.5836865,-106.3847838
Colorado,Routt,215,4,8,0,2020-10-28,40.48596505,-106.9905548
Colorado,Saguache,137,2,2,0,2020-10-28,38.08054629,-106.282466
Colorado,San Juan,7,0,0,0,2020-10-28,37.76248981,-107.67632890000002
Colorado,San Miguel,104,2,0,0,2020-10-28,38.00450883,-108.4020725
Colorado,Sedgwick,40,0,1,0,2020-10-28,40.87595412,-102.3519227
Colorado,Summit,718,23,4,0,2020-10-28,39.63803232,-106.1150762
Colorado,Teller,227,4,4,0,2020-10-28,38.88133511,-105.1614893
Colorado,Washington,102,6,0,0,2020-10-28,39.97015535,-103.202587
Colorado,Weld,6122,57,159,-1,2020-10-28,40.55499405,-104.3929621
Colorado,Yuma,218,4,1,0,2020-10-28,40.00346839,-102.4258673
Connecticut,Fairfield,23280,190,1435,2,2020-10-28,41.26809896,-73.3881171
Connecticut,Hartford,17783,111,1474,4,2020-10-28,41.80283011,-72.73103891
Connecticut,Litchfield,2228,19,143,0,2020-10-28,41.7937534,-73.2451475
Connecticut,Middlesex,1965,8,197,0,2020-10-28,41.45949668,-72.53714864
Connecticut,New Haven,16837,122,1128,2,2020-10-28,41.4080325,-72.93620426
Connecticut,New London,3715,20,140,0,2020-10-28,41.48896435,-72.10430976
Connecticut,Tolland,1750,12,68,0,2020-10-28,41.85853803,-72.3308481
Connecticut,Windham,1419,11,19,1,2020-10-28,41.82972709,-71.98182316
Delaware,Kent,3481,19,120,0,2020-10-28,39.08646628,-75.56884914
Delaware,New Castle,12895,81,340,0,2020-10-28,39.57992638,-75.64054974
Delaware,Sussex,7925,43,228,2,2020-10-28,38.66143781,-75.39031349
Florida,Alachua,10296,100,74,0,2020-10-28,29.67866525,-82.35928158
Florida,Baker,1771,13,19,0,2020-10-28,30.33060121,-82.28467476
Florida,Bay,6780,56,133,0,2020-10-28,30.26548745,-85.62122584
Florida,Bradford,1233,8,15,0,2020-10-28,29.95079741,-82.16611613
Florida,Brevard,11318,69,368,0,2020-10-28,28.29409504,-80.73091022
Florida,Broward,84983,645,1520,0,2020-10-28,26.15184651,-80.48725556
Florida,Calhoun,709,2,14,0,2020-10-28,30.40666734,-85.19394153
Florida,Charlotte,3611,23,157,0,2020-10-28,26.90131002,-81.92949121
Florida,Citrus,3210,15,131,1,2020-10-28,28.84804315,-82.47614748
Florida,Clay,6032,39,126,7,2020-10-28,29.98319144,-81.85609986
Florida,Collier,14326,79,255,0,2020-10-28,26.11091986,-81.34687065
Florida,Columbia,4240,5,81,10,2020-10-28,30.22509788,-82.62160164
Florida,DeSoto,1666,4,29,0,2020-10-28,27.18677893,-81.80941373
Florida,Dixie,891,4,11,0,2020-10-28,29.60631086,-83.15724673
Florida,Duval,34727,108,515,0,2020-10-28,30.33225875,-81.66976468
Florida,Escambia,13445,70,269,0,2020-10-28,30.67652764,-87.37284571
Florida,Flagler,2115,12,38,0,2020-10-28,29.45933576,-81.31508595
Florida,Franklin,764,5,4,0,2020-10-28,29.83791238,-84.82731662
Florida,Gadsden,3060,2,56,1,2020-10-28,30.57796289,-84.61915825
Florida,Gilchrist,603,0,18,0,2020-10-28,29.72856978,-82.79880657
Florida,Glades,601,2,6,0,2020-10-28,26.95635849,-81.18996211
Florida,Gulf,938,1,15,0,2020-10-28,29.93543004,-85.24270990000002
Florida,Hamilton,903,2,11,2,2020-10-28,30.49673973,-82.94998918
Florida,Hardee,1596,12,16,0,2020-10-28,27.49293939,-81.80956574
Florida,Hendry,2209,7,43,0,2020-10-28,26.55386945,-81.16469006
Florida,Hernando,3678,25,170,0,2020-10-28,28.55364461,-82.42700204
Florida,Highlands,2633,31,114,1,2020-10-28,27.34254618,-81.34071957
Florida,Hillsborough,47596,225,782,20,2020-10-28,27.9276559,-82.32013172
Florida,Holmes,907,18,12,0,2020-10-28,30.86747479,-85.81319222
Florida,Indian River,3803,39,125,0,2020-10-28,27.69308961,-80.60556721
Florida,Jackson,3123,15,84,0,2020-10-28,30.7954597,-85.21500423
Florida,Jefferson,665,0,9,0,2020-10-28,30.43669112,-83.89442308
Florida,Lafayette,1276,1,16,0,2020-10-28,29.98484137,-83.18166636
Florida,Lake,8580,60,227,1,2020-10-28,28.76202069,-81.7125123
Florida,Lee,23195,137,510,1,2020-10-28,26.58410348,-81.88399313
Florida,Leon,12246,109,115,1,2020-10-28,30.45955727,-84.27491114
Florida,Levy,1134,5,12,0,2020-10-28,29.31829741,-82.74007147
Florida,Liberty,534,0,11,0,2020-10-28,30.23766008,-84.8829258
Florida,Madison,1076,1,24,0,2020-10-28,30.44396917,-83.47398594
Florida,Manatee,13175,61,330,0,2020-10-28,27.47196942,-82.31831044
Florida,Marion,10795,40,348,1,2020-10-28,29.21227113,-82.05803627
Florida,Martin,5342,26,164,0,2020-10-28,27.0772071,-80.43109784
Florida,Miami-Dade,183996,746,3625,1,2020-10-28,25.6112362,-80.55170587
Florida,Monroe,2229,15,25,0,2020-10-28,25.20904673,-81.07812416
Florida,Nassau,2470,13,51,0,2020-10-28,30.61037141,-81.80297522
Florida,Okaloosa,6308,64,130,0,2020-10-28,30.69143028,-86.59267105
Florida,Okeechobee,1735,4,38,0,2020-10-28,27.386336199999995,-80.88944347
Florida,Orange,45755,263,549,3,2020-10-28,28.51367621,-81.31799498
Florida,Osceola,14114,70,202,4,2020-10-28,28.06312234,-81.14882926
Florida,Palm Beach,51415,243,1568,3,2020-10-28,26.64676272,-80.46536002
Florida,Pasco,10781,64,238,2,2020-10-28,28.30810945,-82.40227529
Florida,Pinellas,25534,120,818,0,2020-10-28,27.93130349,-82.72239666
Florida,Polk,22852,90,615,0,2020-10-28,27.95027105,-81.69732947
Florida,Putnam,2374,12,50,0,2020-10-28,29.60779729,-81.74230285
Florida,St. Johns,6436,52,80,0,2020-10-28,29.90096506,-81.43589967
Florida,St. Lucie,9024,43,333,2,2020-10-28,27.37763908,-80.47106649
Florida,Santa Rosa,5918,24,87,0,2020-10-28,30.693414500000006,-87.02458128
Florida,Sarasota,9567,50,338,0,2020-10-28,27.18546175,-82.33174248
Florida,Seminole,10188,43,241,3,2020-10-28,28.7158582,-81.24060348
Florida,Sumter,2882,13,87,2,2020-10-28,28.70181754,-82.0794267
Florida,Suwannee,2989,6,77,0,2020-10-28,30.19746066,-82.99099670000003
Florida,Taylor,1464,5,16,0,2020-10-28,30.04848048,-83.60445406
Florida,Union,1129,3,43,0,2020-10-28,30.04412971,-82.37497443
Florida,Volusia,12670,81,318,0,2020-10-28,29.05858895,-81.18263252
Florida,Wakulla,1317,5,11,0,2020-10-28,30.16548905,-84.39895211
Florida,Walton,2427,25,30,0,2020-10-28,30.64204028,-86.16935664
Florida,Washington,1232,6,24,0,2020-10-28,30.61359259,-85.66002461
Georgia,Appling,1163,4,37,0,2020-10-28,31.74847232,-82.28909114
Georgia,Atkinson,483,1,6,0,2020-10-28,31.29633502,-82.87545866
Georgia,Bacon,637,1,16,0,2020-10-28,31.55456473,-82.45936528
Georgia,Baker,91,0,6,0,2020-10-28,31.32669878,-84.44218806
Georgia,Baldwin,2315,9,64,0,2020-10-28,33.06882326,-83.24701748
Georgia,Banks,555,-1,8,0,2020-10-28,34.35607081,-83.49644388
Georgia,Barrow,2616,14,51,0,2020-10-28,33.99148694,-83.71436292
Georgia,Bartow,3637,23,94,0,2020-10-28,34.23732119,-84.83887523
Georgia,Ben Hill,871,0,33,0,2020-10-28,31.76095874,-83.22145359
Georgia,Berrien,493,2,13,0,2020-10-28,31.27590016,-83.22529920000002
Georgia,Bibb,6618,14,197,1,2020-10-28,32.80904227,-83.70489165
Georgia,Bleckley,514,3,27,0,2020-10-28,32.43829035,-83.33035166
Georgia,Brantley,462,7,13,0,2020-10-28,31.19576557,-81.97743999
Georgia,Brooks,554,2,27,0,2020-10-28,30.83922642,-83.58303423
Georgia,Bryan,1318,8,16,2,2020-10-28,32.00979311,-81.44002948
Georgia,Bulloch,3093,4,33,0,2020-10-28,32.39577406,-81.74811421
Georgia,Burke,893,7,12,0,2020-10-28,33.05917989,-81.99928721
Georgia,Butts,743,3,44,0,2020-10-28,33.283094500000004,-83.95435040000002
Georgia,Calhoun,270,0,9,0,2020-10-28,31.53169785,-84.62725131
Georgia,Camden,1423,7,18,0,2020-10-28,30.92951916,-81.66601818
Georgia,Candler,546,1,25,1,2020-10-28,32.40209349,-82.07702563
Georgia,Carroll,3341,4,76,1,2020-10-28,33.58138199,-85.07976677
Georgia,Catoosa,1444,15,22,0,2020-10-28,34.89872298,-85.13757014
Georgia,Charlton,647,1,10,0,2020-10-28,30.78371028,-82.13951596
Georgia,Chatham,9446,40,187,0,2020-10-28,32.00043026,-81.12489526
Georgia,Chattahoochee,1747,0,1,0,2020-10-28,32.34341231,-84.78809239
Georgia,Chattooga,944,4,29,0,2020-10-28,34.47197698,-85.34535662
Georgia,Cherokee,7161,79,102,0,2020-10-28,34.24393976,-84.47431861
Georgia,Clarke,5748,19,48,0,2020-10-28,33.95436462,-83.37124007
Georgia,Clay,124,0,3,0,2020-10-28,31.62221166,-84.97713865
Georgia,Clayton,8253,53,175,0,2020-10-28,33.54187245,-84.35594188
Georgia,Clinch,450,2,12,0,2020-10-28,30.91395822,-82.70432472
Georgia,Cobb,21977,110,457,3,2020-10-28,33.94243204,-84.5761255
Georgia,Coffee,2260,5,60,0,2020-10-28,31.54892966,-82.85492059999999
Georgia,Colquitt,2132,9,40,1,2020-10-28,31.18810588,-83.7677946
Georgia,Columbia,4386,15,64,0,2020-10-28,33.54534185,-82.263524
Georgia,Cook,584,2,16,0,2020-10-28,31.16068491,-83.42947229
Georgia,Coweta,2971,7,63,0,2020-10-28,33.35334302,-84.76129976
Georgia,Crawford,196,0,6,0,2020-10-28,32.71391813,-83.98061238
Georgia,Crisp,647,4,23,0,2020-10-28,31.92289565,-83.76811843
Georgia,Dade,356,1,6,0,2020-10-28,34.854916700000004,-85.50490424
Georgia,Dawson,915,4,11,0,2020-10-28,34.44244079,-84.16964071
Georgia,Decatur,1297,5,34,0,2020-10-28,30.87967778,-84.57619536
Georgia,DeKalb,21231,130,398,0,2020-10-28,33.76944049,-84.22396017
Georgia,Dodge,612,3,19,0,2020-10-28,32.17265114,-83.16948926
Georgia,Dooly,374,3,18,0,2020-10-28,32.15630737,-83.79746561
Georgia,Dougherty,3300,6,191,0,2020-10-28,31.53328528,-84.21722377
Georgia,Douglas,4114,30,72,0,2020-10-28,33.70291126,-84.77026156
Georgia,Early,550,0,35,0,2020-10-28,31.32155345,-84.90255207
Georgia,Echols,246,0,2,0,2020-10-28,30.71101099,-82.89687287
Georgia,Effingham,1827,11,28,0,2020-10-28,32.36616021,-81.34280942
Georgia,Elbert,754,2,9,1,2020-10-28,34.11302332,-82.83936148
Georgia,Emanuel,1204,1,39,2,2020-10-28,32.59221302,-82.30239915
Georgia,Evans,487,2,7,0,2020-10-28,32.15328841,-81.8870105
Georgia,Fannin,832,4,29,1,2020-10-28,34.86430205,-84.316964
Georgia,Fayette,2129,0,57,0,2020-10-28,33.41357794,-84.49089434
Georgia,Floyd,3975,19,60,1,2020-10-28,34.26268279,-85.21577392
Georgia,Forsyth,4772,37,53,0,2020-10-28,34.22604035,-84.12315129999998
Georgia,Franklin,935,2,18,0,2020-10-28,34.37525597,-83.23159927
Georgia,Fulton,31220,182,620,1,2020-10-28,33.79216944,-84.46319413
Georgia,Gilmer,1043,7,23,0,2020-10-28,34.69316688,-84.45802506
Georgia,Glascock,49,0,2,0,2020-10-28,33.22879932,-82.61297636
Georgia,Glynn,3734,11,104,0,2020-10-28,31.23279254,-81.53811412
Georgia,Gordon,2387,17,45,0,2020-10-28,34.50487351,-84.87296253
Georgia,Grady,860,2,25,0,2020-10-28,30.87454847,-84.23418364
Georgia,Greene,573,3,25,0,2020-10-28,33.5769205,-83.17139104
Georgia,Gwinnett,30596,107,445,2,2020-10-28,33.96044201,-84.02137802
Georgia,Habersham,1884,8,78,0,2020-10-28,34.63331566,-83.53094677
Georgia,Hall,10694,36,178,2,2020-10-28,34.32207823,-83.81896936
Georgia,Hancock,413,0,44,0,2020-10-28,33.2721566,-82.99766919
Georgia,Haralson,650,8,10,0,2020-10-28,33.79602175,-85.21005667
Georgia,Harris,851,1,25,0,2020-10-28,32.73709786,-84.90538572
Georgia,Hart,576,0,16,0,2020-10-28,34.34626973,-82.96567682
Georgia,Heard,229,1,6,0,2020-10-28,33.29686567,-85.12886832
Georgia,Henry,6223,19,113,1,2020-10-28,33.4533428,-84.14814659999998
Georgia,Houston,3615,4,94,0,2020-10-28,32.45802497,-83.66879087
Georgia,Irwin,356,-2,8,0,2020-10-28,31.60213036,-83.27501387
Georgia,Jackson,2392,17,41,1,2020-10-28,34.13794553,-83.56814788
Georgia,Jasper,247,1,4,0,2020-10-28,33.31535543,-83.68844964
Georgia,Jeff Davis,798,6,23,0,2020-10-28,31.80405727,-82.63724870000001
Georgia,Jefferson,856,3,33,0,2020-10-28,33.05867328,-82.41609057
Georgia,Jenkins,469,2,32,0,2020-10-28,32.79248718,-81.96040187
Georgia,Johnson,440,0,22,0,2020-10-28,32.70211082,-82.66166794
Georgia,Jones,646,3,16,0,2020-10-28,33.02512137,-83.56019163
Georgia,Lamar,423,1,20,0,2020-10-28,33.07841647,-84.14263877
Georgia,Lanier,318,0,7,0,2020-10-28,31.038285700000007,-83.06472457
Georgia,Laurens,2010,21,87,1,2020-10-28,32.46325233,-82.92221316
Georgia,Lee,748,2,29,0,2020-10-28,31.779330600000005,-84.14324253
Georgia,Liberty,1275,28,25,0,2020-10-28,31.82588896,-81.49251135
Georgia,Lincoln,235,1,7,0,2020-10-28,33.79201475,-82.45024131
Georgia,Long,276,-1,4,0,2020-10-28,31.75218791,-81.74952375
Georgia,Lowndes,4475,18,85,0,2020-10-28,30.83568832,-83.27056716
Georgia,Lumpkin,1048,5,15,0,2020-10-28,34.57286511,-84.00425681
Georgia,McDuffie,685,6,15,0,2020-10-28,33.47851918,-82.48252774
Georgia,McIntosh,308,4,8,0,2020-10-28,31.49683595,-81.40163426
Georgia,Macon,249,0,10,0,2020-10-28,32.35207048,-84.04234127
Georgia,Madison,789,2,11,0,2020-10-28,34.12920917,-83.21218732
Georgia,Marion,200,3,9,0,2020-10-28,32.3483402,-84.52733571
Georgia,Meriwether,596,-2,16,0,2020-10-28,33.04163534,-84.68859732
Georgia,Miller,313,1,2,0,2020-10-28,31.16568912,-84.73151117
Georgia,Mitchell,847,2,45,0,2020-10-28,31.22483255,-84.19381821
Georgia,Monroe,762,6,53,0,2020-10-28,33.014289,-83.92097166
Georgia,Montgomery,373,-3,10,0,2020-10-28,32.17201038,-82.53527476
Georgia,Morgan,531,3,6,0,2020-10-28,33.59232073,-83.49129491
Georgia,Murray,1051,18,9,0,2020-10-28,34.78897608,-84.74993177
Georgia,Muscogee,6378,16,174,0,2020-10-28,32.50931999,-84.87142262
Georgia,Newton,2868,12,95,0,2020-10-28,33.55514538,-83.84547140000002
Georgia,Oconee,869,4,30,0,2020-10-28,33.83749973,-83.43679568
Georgia,Oglethorpe,420,3,13,0,2020-10-28,33.878629600000004,-83.08278123
Georgia,Paulding,3176,29,61,1,2020-10-28,33.91969522,-84.86848792
Georgia,Peach,776,4,26,0,2020-10-28,32.56934316,-83.82937
Georgia,Pickens,785,10,10,0,2020-10-28,34.46589159,-84.46406611
Georgia,Pierce,680,1,24,0,2020-10-28,31.35928155,-82.21598442
Georgia,Pike,389,2,11,0,2020-10-28,33.09310242,-84.38790389
Georgia,Polk,1711,4,29,1,2020-10-28,34.00267074,-85.18677781
Georgia,Pulaski,339,0,23,0,2020-10-28,32.23334561,-83.47549959999998
Georgia,Putnam,800,5,27,0,2020-10-28,33.32056115,-83.37552891
Georgia,Quitman,40,1,1,0,2020-10-28,31.86728114,-85.01773177
Georgia,Rabun,429,1,11,0,2020-10-28,34.88389445,-83.40304637
Georgia,Randolph,339,0,29,0,2020-10-28,31.76622818,-84.75732369
Georgia,Richmond,7964,23,183,1,2020-10-28,33.35777107,-82.07026432
Georgia,Rockdale,2136,14,40,0,2020-10-28,33.65145002,-84.02202167
Georgia,Schley,109,0,2,0,2020-10-28,32.2654021,-84.31258912
Georgia,Screven,450,0,11,0,2020-10-28,32.74976524,-81.60779441
Georgia,Seminole,393,0,11,0,2020-10-28,30.93464824,-84.86823924
Georgia,Spalding,1599,11,62,0,2020-10-28,33.26310031,-84.28013991
Georgia,Stephens,1280,2,41,0,2020-10-28,34.55151201,-83.29405315
Georgia,Stewart,567,-1,16,0,2020-10-28,32.07996777,-84.83208037
Georgia,Sumter,959,0,68,0,2020-10-28,32.03650571,-84.19821492
Georgia,Talbot,174,0,8,0,2020-10-28,32.69642758,-84.53351366
Georgia,Taliaferro,28,1,0,0,2020-10-28,33.56543317,-82.88136816
Georgia,Tattnall,933,7,15,0,2020-10-28,32.04785085,-82.05539188
Georgia,Taylor,232,2,12,0,2020-10-28,32.55792548,-84.25077141
Georgia,Telfair,507,3,24,0,2020-10-28,31.92829517,-82.93491155
Georgia,Terrell,341,0,32,0,2020-10-28,31.77527543,-84.44069698
Georgia,Thomas,1605,4,69,0,2020-10-28,30.86392347,-83.91847289
Georgia,Tift,1964,13,64,1,2020-10-28,31.45743864,-83.5236119
Georgia,Toombs,1499,3,56,0,2020-10-28,32.12059861,-82.32957247
Georgia,Towns,441,3,13,0,2020-10-28,34.91369188,-83.74107459999998
Georgia,Treutlen,311,2,12,1,2020-10-28,32.40422134,-82.56904553
Georgia,Troup,3068,12,108,1,2020-10-28,33.03349196,-85.02812115
Georgia,Turner,335,0,24,0,2020-10-28,31.71612656,-83.62069378
Georgia,Twiggs,217,1,10,0,2020-10-28,32.67435595,-83.43078662
Georgia,Union,890,4,26,1,2020-10-28,34.82995757,-83.98967069
Georgia,Upson,839,1,70,0,2020-10-28,32.87920671,-84.30024826
Georgia,Walker,1894,17,44,1,2020-10-28,34.73376362,-85.30165174
Georgia,Walton,2354,15,68,0,2020-10-28,33.78017694,-83.73552314
Georgia,Ware,1737,3,63,0,2020-10-28,31.05449097,-82.42224148
Georgia,Warren,165,1,5,0,2020-10-28,33.41146451,-82.67795848
Georgia,Washington,776,12,13,0,2020-10-28,32.96711864,-82.79357039
Georgia,Wayne,1242,7,33,0,2020-10-28,31.5521809,-81.91894878
Georgia,Webster,44,0,2,0,2020-10-28,32.04066113,-84.54742852
Georgia,Wheeler,369,0,16,0,2020-10-28,32.12009104,-82.72574721
Georgia,White,1005,5,23,0,2020-10-28,34.64624278,-83.74905525
Georgia,Whitfield,5469,59,64,0,2020-10-28,34.80987459,-84.96093476
Georgia,Wilcox,257,1,25,0,2020-10-28,31.97496928,-83.43438555
Georgia,Wilkes,300,3,6,0,2020-10-28,33.78290391,-82.74286107
Georgia,Wilkinson,369,1,17,0,2020-10-28,32.80291082,-83.17140684
Georgia,Worth,607,3,32,0,2020-10-28,31.55162306,-83.85090513
Idaho,Ada,16710,159,167,0,2020-10-28,43.4526575,-116.24155159999998
Idaho,Adams,57,0,2,0,2020-10-28,44.89333571,-116.4545247
Idaho,Bannock,2520,54,14,1,2020-10-28,42.67002716,-112.2233311
Idaho,Bear Lake,74,1,1,0,2020-10-28,42.28269683,-111.32892379999998
Idaho,Benewah,175,3,3,0,2020-10-28,47.21754179,-116.6586851
Idaho,Bingham,1612,22,22,4,2020-10-28,43.21672879999999,-112.3978437
Idaho,Blaine,883,18,7,0,2020-10-28,43.4085812,-113.9752658
Idaho,Boise,82,5,2,0,2020-10-28,43.98829931,-115.7309284
Idaho,Bonner,492,5,1,0,2020-10-28,48.29996017,-116.6017932
Idaho,Bonneville,4553,94,35,5,2020-10-28,43.38713372,-111.6161537
Idaho,Boundary,156,9,1,0,2020-10-28,48.76684761,-116.4630179
Idaho,Butte,101,3,0,0,2020-10-28,43.72592209,-113.1735463
Idaho,Camas,41,0,0,0,2020-10-28,43.46665742,-114.8065892
Idaho,Canyon,10013,84,108,0,2020-10-28,43.61970148,-116.7095499
Idaho,Caribou,287,10,4,0,2020-10-28,42.77149116,-111.5597683
Idaho,Cassia,1397,16,9,1,2020-10-28,42.28347888,-113.6012409
Idaho,Clark,40,0,0,0,2020-10-28,44.28496071,-112.3505704
Idaho,Clearwater,142,-2,0,0,2020-10-28,46.67459924,-115.6622393
Idaho,Custer,95,1,1,0,2020-10-28,44.24186819,-114.2855494
Idaho,Elmore,530,9,4,0,2020-10-28,43.3507101,-115.4701578
Idaho,Franklin,367,8,2,0,2020-10-28,42.18332217,-111.8149666
Idaho,Fremont,481,4,4,0,2020-10-28,44.22800938,-111.4809943
Idaho,Gem,428,3,6,0,2020-10-28,44.06482372,-116.398376
Idaho,Gooding,588,26,8,1,2020-10-28,42.96927962,-114.8108306
Idaho,Idaho,373,3,1,0,2020-10-28,45.84721541,-115.4634436
Idaho,Jefferson,980,13,3,0,2020-10-28,43.82078483,-112.3131749
Idaho,Jerome,1119,26,9,0,2020-10-28,42.68891267,-114.2655033
Idaho,Kootenai,4135,67,49,0,2020-10-28,47.67282258,-116.7020872
Idaho,Latah,949,0,1,0,2020-10-28,46.81587887,-116.7113698
Idaho,Lemhi,251,21,0,0,2020-10-28,44.9438088,-113.9309747
Idaho,Lewis,81,0,3,0,2020-10-28,46.23315327,-116.434146
Idaho,Lincoln,207,9,2,1,2020-10-28,43.0012336,-114.1358773
Idaho,Madison,2611,26,3,0,2020-10-28,43.78141028,-111.65384740000002
Idaho,Minidoka,1207,8,9,1,2020-10-28,42.85518524,-113.6357257
Idaho,Nez Perce,862,9,24,0,2020-10-28,46.32638236,-116.7500975
Idaho,Oneida,54,3,0,0,2020-10-28,42.19494279999999,-112.5407838
Idaho,Owyhee,398,6,5,0,2020-10-28,42.58016894,-116.1693871
Idaho,Payette,1137,7,10,0,2020-10-28,44.00545243,-116.7647695
Idaho,Power,367,6,2,0,2020-10-28,42.69254894,-112.83957420000002
Idaho,Shoshone,268,2,20,0,2020-10-28,47.35364087,-115.8916749
Idaho,Teton,288,5,2,0,2020-10-28,43.75303583,-111.2056773
Idaho,Twin Falls,4097,110,46,0,2020-10-28,42.35440512,-114.6685381
Idaho,Valley,117,0,1,0,2020-10-28,44.76728382,-115.5676773
Idaho,Washington,460,9,8,0,2020-10-28,44.45275475,-116.7847688
Illinois,Adams,2004,69,22,1,2020-10-28,39.98815591,-91.18786813
Illinois,Alexander,136,4,1,0,2020-10-28,37.18049267,-89.32910838
Illinois,Bond,518,5,9,0,2020-10-28,38.88829622,-89.43534887
Illinois,Boone,1953,48,25,0,2020-10-28,42.32359279,-88.82345779
Illinois,Brown,117,2,0,0,2020-10-28,39.96209138,-90.75068024
Illinois,Bureau,948,23,17,1,2020-10-28,41.40385234,-89.5283051
Illinois,Calhoun,64,-2,0,0,2020-10-28,39.16840183,-90.66330078
Illinois,Carroll,437,7,12,0,2020-10-28,42.06823429,-89.93395545
Illinois,Cass,468,4,11,0,2020-10-28,39.96991073,-90.24734436
Illinois,Champaign,6390,105,28,-1,2020-10-28,40.13919438,-88.20046615
Illinois,Christian,846,17,29,0,2020-10-28,39.54581621,-89.27780482
Illinois,Clark,314,2,17,0,2020-10-28,39.33425789,-87.78705622
Illinois,Clay,324,7,13,0,2020-10-28,38.75388572,-88.48914513
Illinois,Clinton,1828,17,29,1,2020-10-28,38.60704876,-89.42385254
Illinois,Coles,2030,59,40,0,2020-10-28,39.51949084,-88.22358557
Illinois,Cook,181108,2276,5450,11,2020-10-28,41.84144849,-87.81658794
Illinois,Crawford,663,10,6,0,2020-10-28,39.0032229,-87.75954624
Illinois,Cumberland,308,6,6,0,2020-10-28,39.27432424,-88.2401158
Illinois,DeKalb,2469,37,42,0,2020-10-28,41.89373302,-88.76958483
Illinois,De Witt,275,3,6,0,2020-10-28,40.17514519,-88.90959682
Illinois,Douglas,733,23,9,0,2020-10-28,39.76768052,-88.21854195
Illinois,DuPage,23780,372,615,7,2020-10-28,41.85116968,-88.08642662
Illinois,Edgar,159,2,10,0,2020-10-28,39.6809186,-87.74759563
Illinois,Edwards,114,3,0,0,2020-10-28,38.41353228,-88.05720863
Illinois,Effingham,1226,22,4,0,2020-10-28,39.05935711,-88.58969584
Illinois,Fayette,699,10,24,0,2020-10-28,39.00072038,-89.02452658
Illinois,Ford,208,4,14,0,2020-10-28,40.59706922,-88.22350769
Illinois,Franklin,1033,28,10,1,2020-10-28,37.99189086,-88.92567818
Illinois,Fulton,557,7,1,0,2020-10-28,40.47289135,-90.20862357
Illinois,Gallatin,110,2,2,0,2020-10-28,37.76430935,-88.22953869
Illinois,Greene,299,4,15,0,2020-10-28,39.35907414,-90.388865
Illinois,Grundy,1019,32,7,0,2020-10-28,41.28569601,-88.41905692
Illinois,Hamilton,135,8,2,0,2020-10-28,38.08163641,-88.53883373
Illinois,Hancock,321,7,4,0,2020-10-28,40.40423981,-91.16313899
Illinois,Hardin,56,1,0,0,2020-10-28,37.51810645,-88.26873022
Illinois,Henderson,131,2,0,0,2020-10-28,40.81908672,-90.92491462
Illinois,Henry,863,1,7,0,2020-10-28,41.3533994,-90.13296166
Illinois,Iroquois,515,10,19,0,2020-10-28,40.74717633,-87.82466784
Illinois,Jackson,1584,34,26,0,2020-10-28,37.78595185,-89.38232563
Illinois,Jasper,272,6,10,0,2020-10-28,39.01054275,-88.15437049
Illinois,Jefferson,920,9,52,3,2020-10-28,38.29980057,-88.9240025
Illinois,Jersey,481,4,21,0,2020-10-28,39.08869046,-90.35393073
Illinois,Jo Daviess,536,18,9,0,2020-10-28,42.36542373,-90.21094405
Illinois,Johnson,376,10,0,0,2020-10-28,37.45939802,-88.88165419
Illinois,Kane,17421,323,348,0,2020-10-28,41.93842729,-88.42861412
Illinois,Kankakee,3505,61,81,1,2020-10-28,41.13746989,-87.86205334
Illinois,Kendall,2797,53,30,0,2020-10-28,41.59081014,-88.42869583
Illinois,Knox,1362,31,21,2,2020-10-28,40.93148779,-90.21330340000002
Illinois,Lake,21373,363,514,3,2020-10-28,42.3224907,-88.00367925
Illinois,LaSalle,2554,81,65,0,2020-10-28,41.34426129999999,-88.88633881
Illinois,Lawrence,351,13,8,0,2020-10-28,38.71987914,-87.72884035
Illinois,Lee,769,15,2,0,2020-10-28,41.74583951,-89.29977132
Illinois,Livingston,692,30,10,0,2020-10-28,40.89188292,-88.55784752
Illinois,Logan,614,7,4,0,2020-10-28,40.12581572,-89.36638784
Illinois,McDonough,789,9,20,0,2020-10-28,40.45674722,-90.67775541
Illinois,McHenry,6671,126,121,0,2020-10-28,42.32451172,-88.45248227
Illinois,McLean,4301,46,38,2,2020-10-28,40.48996987,-88.84621113
Illinois,Macon,3308,74,54,1,2020-10-28,39.86064913,-88.96342505
Illinois,Macoupin,829,5,11,0,2020-10-28,39.26119767,-89.92424028
Illinois,Madison,7373,109,157,2,2020-10-28,38.83042506,-89.90422563
Illinois,Marion,1102,51,20,1,2020-10-28,38.64963204,-88.91899208
Illinois,Marshall,166,5,3,0,2020-10-28,41.0327901,-89.34510444
Illinois,Mason,317,0,5,0,2020-10-28,40.23917274,-89.91824452
Illinois,Massac,158,2,2,0,2020-10-28,37.22078441,-88.71036614
Illinois,Menard,188,1,1,0,2020-10-28,40.02742725,-89.80246001
Illinois,Mercer,287,0,6,0,2020-10-28,41.20596782,-90.74290052
Illinois,Monroe,971,36,30,0,2020-10-28,38.27594376,-90.17761038
Illinois,Montgomery,644,19,16,0,2020-10-28,39.23198845,-89.47809254
Illinois,Morgan,983,27,24,0,2020-10-28,39.71654544,-90.20255104
Illinois,Moultrie,443,9,6,1,2020-10-28,39.64187451,-88.62099969
Illinois,Ogle,1271,35,7,0,2020-10-28,42.04165196,-89.32184679
Illinois,Peoria,4748,68,77,4,2020-10-28,40.78702156,-89.76078901
Illinois,Perry,465,14,16,0,2020-10-28,38.08510853,-89.36856219
Illinois,Piatt,265,8,1,1,2020-10-28,40.01360584,-88.59319339
Illinois,Pike,388,21,7,0,2020-10-28,39.62265059,-90.8877017
Illinois,Pope,42,0,1,0,2020-10-28,37.41391284,-88.56152109
Illinois,Pulaski,245,0,1,0,2020-10-28,37.22631423,-89.13085001
Illinois,Putnam,98,5,0,0,2020-10-28,41.2013541,-89.2869272
Illinois,Randolph,1314,21,15,0,2020-10-28,38.05095369,-89.82512254
Illinois,Richland,342,5,18,0,2020-10-28,38.71240969,-88.08475366
Illinois,Rock Island,4173,45,93,1,2020-10-28,41.46613806,-90.57042164
Illinois,St. Clair,8096,54,221,0,2020-10-28,38.46996033,-89.93063427
Illinois,Saline,596,23,9,0,2020-10-28,37.75332999,-88.54119706
Illinois,Sangamon,4248,97,63,0,2020-10-28,39.75836914,-89.65872023
Illinois,Schuyler,93,-1,1,0,2020-10-28,40.1571798,-90.61114163
Illinois,Scott,109,2,0,0,2020-10-28,39.6429169,-90.47814431
Illinois,Shelby,715,13,12,0,2020-10-28,39.39133527,-88.80611122
Illinois,Stark,92,4,3,0,2020-10-28,41.09309773,-89.79745866
Illinois,Stephenson,1075,43,9,2,2020-10-28,42.35129217,-89.662598
Illinois,Tazewell,2809,74,56,0,2020-10-28,40.50716185,-89.51404662
Illinois,Union,799,7,25,0,2020-10-28,37.47119609,-89.25548938
Illinois,Vermilion,1810,26,11,0,2020-10-28,40.18417171,-87.73384359
Illinois,Wabash,241,8,5,0,2020-10-28,38.44272901,-87.84922065
Illinois,Warren,529,13,9,0,2020-10-28,40.84925021,-90.6147432
Illinois,Washington,327,5,2,0,2020-10-28,38.35309213,-89.40982703
Illinois,Wayne,509,7,14,1,2020-10-28,38.42955355,-88.42586459
Illinois,White,274,4,4,0,2020-10-28,38.08706198,-88.17657461
Illinois,Whiteside,1584,70,30,2,2020-10-28,41.75509713,-89.91556058
Illinois,Will,19141,334,430,1,2020-10-28,41.44619267,-87.97862712
Illinois,Williamson,1938,33,61,0,2020-10-28,37.73033511,-88.92994027
Illinois,Winnebago,10703,240,182,2,2020-10-28,42.33641854,-89.16085327
Illinois,Woodford,676,16,15,0,2020-10-28,40.78579374,-89.20973757
Indiana,Adams,617,40,7,0,2020-10-28,40.7457653,-84.93671406
Indiana,Allen,8886,145,235,3,2020-10-28,41.09194313,-85.06800636
Indiana,Bartholomew,1507,17,58,0,2020-10-28,39.20744865,-85.89558181
Indiana,Benton,113,2,0,0,2020-10-28,40.60626947,-87.31093999
Indiana,Blackford,252,10,5,0,2020-10-28,40.47388153,-85.32499702
Indiana,Boone,1325,15,50,0,2020-10-28,40.0509304,-86.46841646
Indiana,Brown,152,2,3,0,2020-10-28,39.19605589,-86.22868909
Indiana,Carroll,352,5,13,0,2020-10-28,40.580783200000006,-86.56198812
Indiana,Cass,2327,26,25,0,2020-10-28,40.76135835,-86.34830753
Indiana,Clark,3129,44,65,0,2020-10-28,38.48015445,-85.70510334
Indiana,Clay,475,6,7,0,2020-10-28,39.39561833,-87.11723506
Indiana,Clinton,952,17,16,0,2020-10-28,40.30319754,-86.47277257
Indiana,Crawford,166,1,1,0,2020-10-28,38.28814402,-86.44518825
Indiana,Daviess,941,9,36,0,2020-10-28,38.70186039,-87.07185406
Indiana,Dearborn,1058,20,28,0,2020-10-28,39.14647946,-84.97333539
Indiana,Decatur,547,14,39,0,2020-10-28,39.30712658,-85.50087166
Indiana,DeKalb,800,19,11,0,2020-10-28,41.39804622,-84.99906934
Indiana,Delaware,3185,41,77,2,2020-10-28,40.22787247,-85.39732772
Indiana,Dubois,1535,56,26,0,2020-10-28,38.36597551,-86.87924170000002
Indiana,Elkhart,9549,147,145,3,2020-10-28,41.59761169,-85.85875695
Indiana,Fayette,810,20,22,1,2020-10-28,39.63684962,-85.17797541
Indiana,Floyd,1905,21,69,1,2020-10-28,38.32117957,-85.90385377
Indiana,Fountain,356,17,3,0,2020-10-28,40.12361933,-87.24217689
Indiana,Franklin,388,5,25,0,2020-10-28,39.4142482,-85.06062647
Indiana,Fulton,411,16,8,2,2020-10-28,41.0469907,-86.26252745
Indiana,Gibson,967,11,12,0,2020-10-28,38.30393723,-87.58054938
Indiana,Grant,1381,27,40,0,2020-10-28,40.51587228,-85.65468702
Indiana,Greene,594,13,38,0,2020-10-28,39.03630547,-86.96223202
Indiana,Hamilton,6541,79,119,2,2020-10-28,40.07306535,-86.05244729
Indiana,Hancock,1271,21,44,0,2020-10-28,39.82304555,-85.77566351
Indiana,Harrison,824,17,24,0,2020-10-28,38.19467379,-86.10948271
Indiana,Hendricks,3472,30,138,1,2020-10-28,39.76719009,-86.51037283
Indiana,Henry,1377,34,30,0,2020-10-28,39.93029017,-85.39625719
Indiana,Howard,1725,24,66,0,2020-10-28,40.48527731,-86.11351892
Indiana,Huntington,472,18,5,0,2020-10-28,40.82907273,-85.48822092
Indiana,Jackson,1233,8,19,0,2020-10-28,38.90915820000001,-86.03851889
Indiana,Jasper,723,16,5,0,2020-10-28,41.02078733,-87.11553319
Indiana,Jay,351,3,6,0,2020-10-28,40.43781032,-85.00576229
Indiana,Jefferson,409,44,5,0,2020-10-28,38.78576239,-85.43633383
Indiana,Jennings,396,8,13,0,2020-10-28,38.99588883,-85.62710784
Indiana,Johnson,3352,45,131,0,2020-10-28,39.48994426,-86.10149107
Indiana,Knox,861,22,10,0,2020-10-28,38.68861576,-87.4194665
Indiana,Kosciusko,2147,44,29,0,2020-10-28,41.24521668,-85.86312322
Indiana,LaGrange,831,3,15,0,2020-10-28,41.64232188,-85.42674232
Indiana,Lake,14804,177,364,2,2020-10-28,41.41874274,-87.38277575
Indiana,LaPorte,2441,27,65,1,2020-10-28,41.54366008,-86.74072188
Indiana,Lawrence,1022,30,38,0,2020-10-28,38.84112637,-86.48361629
Indiana,Madison,2607,60,97,1,2020-10-28,40.16143691,-85.71964711
Indiana,Marion,26448,193,794,-1,2020-10-28,39.78163624,-86.13826325
Indiana,Marshall,1528,38,29,1,2020-10-28,41.32467367,-86.26185087
Indiana,Martin,205,1,0,0,2020-10-28,38.7099921,-86.80373186
Indiana,Miami,698,8,5,0,2020-10-28,40.76940965,-86.04525048
Indiana,Monroe,3426,51,38,0,2020-10-28,39.16130004,-86.52414358
Indiana,Montgomery,653,9,22,0,2020-10-28,40.04034823,-86.89335024
Indiana,Morgan,1009,5,40,0,2020-10-28,39.47899078,-86.44573375
Indiana,Newton,241,1,11,0,2020-10-28,40.95610449,-87.39635768
Indiana,Noble,1273,28,35,0,2020-10-28,41.39672484,-85.41966713
Indiana,Ohio,137,1,7,0,2020-10-28,38.955305,-84.96515993
Indiana,Orange,432,7,25,0,2020-10-28,38.54118920000001,-86.49523093
Indiana,Owen,221,4,1,0,2020-10-28,39.31145587,-86.83900724
Indiana,Parke,264,4,4,0,2020-10-28,39.77202286,-87.20375833
Indiana,Perry,404,27,14,0,2020-10-28,38.07809328,-86.63741946
Indiana,Pike,367,4,18,0,2020-10-28,38.40112197,-87.23574907
Indiana,Porter,3614,60,51,1,2020-10-28,41.45986947,-87.06848888
Indiana,Posey,783,5,7,0,2020-10-28,38.02097333,-87.86480429
Indiana,Pulaski,181,2,4,0,2020-10-28,41.04166107,-86.69890683
Indiana,Putnam,788,5,17,0,2020-10-28,39.66437981,-86.84517605
Indiana,Randolph,427,6,11,1,2020-10-28,40.15734772,-85.01139319
Indiana,Ripley,501,13,8,0,2020-10-28,39.10235626,-85.26212744
Indiana,Rush,265,11,4,0,2020-10-28,39.62002287,-85.4655599
Indiana,St. Joseph,9866,141,173,2,2020-10-28,41.61756781,-86.29040834
Indiana,Scott,569,10,16,0,2020-10-28,38.68672078,-85.74627859
Indiana,Shelby,945,27,36,1,2020-10-28,39.52305623,-85.79158570000001
Indiana,Spencer,433,10,6,0,2020-10-28,38.01519732,-87.0079644
Indiana,Starke,473,13,10,2,2020-10-28,41.27890281,-86.64686895
Indiana,Steuben,684,10,9,1,2020-10-28,41.64423868,-85.00101094
Indiana,Sullivan,474,7,14,0,2020-10-28,39.08952258,-87.41414469
Indiana,Switzerland,103,4,0,0,2020-10-28,38.82767338,-85.03022429
Indiana,Tippecanoe,4098,74,16,0,2020-10-28,40.38872739,-86.89413959
Indiana,Tipton,286,1,23,0,2020-10-28,40.31123252,-86.05234925
Indiana,Union,124,6,0,0,2020-10-28,39.62550777,-84.92497066
Indiana,Vanderburgh,6269,45,70,6,2020-10-28,38.02658833,-87.58763124
Indiana,Vermillion,287,11,1,0,2020-10-28,39.8523352,-87.46160542
Indiana,Vigo,2883,77,41,0,2020-10-28,39.42944561,-87.39169027
Indiana,Wabash,489,30,9,0,2020-10-28,40.84704239,-85.79328272
Indiana,Warren,102,10,1,0,2020-10-28,40.34728141,-87.35602659
Indiana,Warrick,2089,21,65,0,2020-10-28,38.08922676,-87.2716085
Indiana,Washington,398,6,3,0,2020-10-28,38.60219804,-86.1049363
Indiana,Wayne,1498,43,33,0,2020-10-28,39.8633444,-85.01044989
Indiana,Wells,490,17,11,0,2020-10-28,40.72934187,-85.22132966
Indiana,White,640,10,16,0,2020-10-28,40.74911165,-86.86492015
Indiana,Whitley,508,16,6,0,2020-10-28,41.13863784,-85.50791236
Iowa,Adair,191,14,1,0,2020-10-28,41.33075609,-94.47105874
Iowa,Adams,84,1,1,1,2020-10-28,41.02903567,-94.69932645
Iowa,Allamakee,387,7,9,0,2020-10-28,43.28383218,-91.37860922
Iowa,Appanoose,234,1,3,0,2020-10-28,40.74324454,-92.86865906
Iowa,Audubon,156,5,1,0,2020-10-28,41.6844628,-94.90581859
Iowa,Benton,622,24,2,0,2020-10-28,42.08011739,-92.06463573
Iowa,Black Hawk,5862,135,102,1,2020-10-28,42.4704581,-92.30524729
Iowa,Boone,736,10,9,0,2020-10-28,42.03657094,-93.9313999
Iowa,Bremer,702,15,9,0,2020-10-28,42.77461496,-92.31795937
Iowa,Buchanan,475,13,5,0,2020-10-28,42.4709188,-91.83510825
Iowa,Buena Vista,2279,11,12,0,2020-10-28,42.73545875,-95.15100162
Iowa,Butler,396,8,3,0,2020-10-28,42.73172833,-92.79015971
Iowa,Calhoun,323,11,4,0,2020-10-28,42.38521079,-94.64046046
Iowa,Carroll,1189,21,13,0,2020-10-28,42.03617207,-94.86032705
Iowa,Cass,412,10,3,0,2020-10-28,41.33149454,-94.92792482
Iowa,Cedar,494,17,7,0,2020-10-28,41.77233777,-91.13246684
Iowa,Cerro Gordo,1461,59,27,0,2020-10-28,43.08177563,-93.2612239
Iowa,Cherokee,411,5,2,0,2020-10-28,42.73538914,-95.62389402
Iowa,Chickasaw,369,5,1,0,2020-10-28,43.06001295,-92.31773347
Iowa,Clarke,357,0,3,0,2020-10-28,41.02868181,-93.78499767
Iowa,Clay,547,6,4,0,2020-10-28,43.08247182,-95.15096481
Iowa,Clayton,461,11,3,0,2020-10-28,42.84443388,-91.34133693
Iowa,Clinton,1516,14,27,0,2020-10-28,41.89981633,-90.53275096
Iowa,Crawford,1370,7,14,0,2020-10-28,42.03718237,-95.3819718
Iowa,Dallas,3525,40,47,3,2020-10-28,41.68560356,-94.04127625
Iowa,Davis,185,6,4,0,2020-10-28,40.74773536,-92.41005468
Iowa,Decatur,160,7,0,0,2020-10-28,40.73742757,-93.78645949
Iowa,Delaware,817,15,13,0,2020-10-28,42.47104597,-91.3664492
Iowa,Des Moines,1473,64,10,0,2020-10-28,40.92012606,-91.18326592
Iowa,Dickinson,776,24,9,0,2020-10-28,43.37787725,-95.1510206
Iowa,Dubuque,5383,88,58,0,2020-10-28,42.46815349,-90.88181925
Iowa,Emmet,446,11,20,0,2020-10-28,43.37782951,-94.67858943
Iowa,Fayette,392,8,4,0,2020-10-28,42.86271799,-91.8441231
Iowa,Floyd,452,12,11,0,2020-10-28,43.06000529999999,-92.78940097
Iowa,Franklin,393,11,18,0,2020-10-28,42.73270384,-93.26256925
Iowa,Fremont,212,3,1,0,2020-10-28,40.74542720000001,-95.60129045
Iowa,Greene,189,1,0,0,2020-10-28,42.03614551,-94.39658081
Iowa,Grundy,332,14,6,0,2020-10-28,42.40183723,-92.78829551
Iowa,Guthrie,413,6,15,0,2020-10-28,41.68378965,-94.50111014
Iowa,Hamilton,479,1,4,0,2020-10-28,42.38382428,-93.70197703
Iowa,Hancock,339,8,4,0,2020-10-28,43.08178477,-93.73454884
Iowa,Hardin,488,5,7,0,2020-10-28,42.38353877,-93.23654611
Iowa,Harrison,684,11,15,0,2020-10-28,41.68330137,-95.81558439
Iowa,Henry,1095,21,5,0,2020-10-28,40.98767962,-91.54436349
Iowa,Howard,281,7,9,0,2020-10-28,43.35671042,-92.31702714
Iowa,Humboldt,350,12,3,0,2020-10-28,42.7764426,-94.20722537
Iowa,Ida,208,12,2,0,2020-10-28,42.38696136,-95.51355387
Iowa,Iowa,429,11,9,0,2020-10-28,41.68630265,-92.0643373
Iowa,Jackson,662,16,3,0,2020-10-28,42.17178824,-90.57354837
Iowa,Jasper,1150,27,34,0,2020-10-28,41.68576082,-93.05567785
Iowa,Jefferson,247,2,1,0,2020-10-28,41.03192394,-91.94849466
Iowa,Johnson,5965,59,31,1,2020-10-28,41.67169354,-91.58754744
Iowa,Jones,470,16,4,0,2020-10-28,42.12118609,-91.13139641
Iowa,Keokuk,171,7,1,0,2020-10-28,41.33649833,-92.1785067
Iowa,Kossuth,485,8,0,0,2020-10-28,43.20405458,-94.20691791
Iowa,Lee,983,24,11,1,2020-10-28,40.64181461,-91.48183025
Iowa,Linn,5823,131,132,0,2020-10-28,42.07923082,-91.59809485
Iowa,Louisa,534,9,15,0,2020-10-28,41.21842119,-91.26102611
Iowa,Lucas,210,4,6,0,2020-10-28,41.02958964,-93.32780803
Iowa,Lyon,559,3,8,0,2020-10-28,43.38107862,-96.20926845
Iowa,Madison,371,7,3,0,2020-10-28,41.33081904,-94.01554631
Iowa,Mahaska,728,19,24,0,2020-10-28,41.33521503,-92.64083907
Iowa,Marion,1048,16,11,0,2020-10-28,41.33445101,-93.09934783
Iowa,Marshall,2090,46,36,0,2020-10-28,42.03586837,-92.9990819
Iowa,Mills,413,8,3,0,2020-10-28,41.03299766,-95.61920963
Iowa,Mitchell,288,5,1,0,2020-10-28,43.35638371,-92.78887719
Iowa,Monona,247,2,2,0,2020-10-28,42.05220391,-95.95743843
Iowa,Monroe,264,2,11,0,2020-10-28,41.02988815,-92.8690667
Iowa,Montgomery,187,7,7,0,2020-10-28,41.03018714,-95.15642896
Iowa,Muscatine,1512,25,58,0,2020-10-28,41.48370744,-91.1121697
Iowa,O'Brien,704,17,14,0,2020-10-28,43.08310673,-95.62474482
Iowa,Osceola,293,4,0,0,2020-10-28,43.37824276,-95.62422844
Iowa,Page,419,6,0,0,2020-10-28,40.7393172,-95.1497813
Iowa,Palo Alto,326,10,2,0,2020-10-28,43.08193849,-94.67824621
Iowa,Plymouth,1703,25,31,0,2020-10-28,42.737633,-96.21366621
Iowa,Pocahontas,238,6,2,0,2020-10-28,42.73420133,-94.67862564
Iowa,Polk,19440,267,289,0,2020-10-28,41.68679484,-93.57767461
Iowa,Pottawattamie,3332,65,45,1,2020-10-28,41.33640314,-95.53907776
Iowa,Poweshiek,472,10,11,0,2020-10-28,41.68625425,-92.53155731
Iowa,Ringgold,92,0,2,0,2020-10-28,40.73518949,-94.24368535
Iowa,Sac,407,4,4,0,2020-10-28,42.38624071,-95.10547892
Iowa,Scott,4744,82,42,1,2020-10-28,41.63935978,-90.61959493
Iowa,Shelby,393,12,2,0,2020-10-28,41.6850066,-95.31015553
Iowa,Sioux,2498,28,17,0,2020-10-28,43.08221074,-96.1767568
Iowa,Story,4082,43,18,0,2020-10-28,42.03621213,-93.46499005
Iowa,Tama,986,28,37,0,2020-10-28,42.07991767,-92.53266945
Iowa,Taylor,252,4,2,0,2020-10-28,40.73710579,-94.69778563
Iowa,Union,263,11,5,1,2020-10-28,41.0277278,-94.24234847
Iowa,Van Buren,184,3,2,0,2020-10-28,40.75326764,-91.95017958
Iowa,Wapello,1573,32,62,0,2020-10-28,41.03064984,-92.40954728
Iowa,Warren,1294,21,7,0,2020-10-28,41.33559454,-93.56007641
Iowa,Washington,677,10,11,0,2020-10-28,41.33577126,-91.71725711
Iowa,Wayne,134,2,3,0,2020-10-28,40.73969028,-93.32752197
Iowa,Webster,1923,32,15,0,2020-10-28,42.42853483,-94.17987389
Iowa,Winnebago,506,4,19,0,2020-10-28,43.37751174,-93.73407298
Iowa,Winneshiek,496,13,9,0,2020-10-28,43.29094334,-91.84422722
Iowa,Woodbury,7359,74,98,1,2020-10-28,42.38979414,-96.0459439
Iowa,Worth,146,0,0,0,2020-10-28,43.37750768,-93.26087602
Iowa,Wright,748,14,1,0,2020-10-28,42.73305373,-93.73515113
Kansas,Allen,112,0,1,0,2020-10-28,37.88582951,-95.30030847
Kansas,Anderson,186,9,0,0,2020-10-28,38.21413251,-95.29272815
Kansas,Atchison,512,0,5,0,2020-10-28,39.53185661,-95.30870026
Kansas,Barber,48,7,0,0,2020-10-28,37.2288586,-98.68460053
Kansas,Barton,757,0,7,0,2020-10-28,38.47889676,-98.75636726
Kansas,Bourbon,306,0,3,0,2020-10-28,37.85508555,-94.84865997
Kansas,Brown,232,28,5,0,2020-10-28,39.82652589,-95.56421698
Kansas,Butler,934,34,3,0,2020-10-28,37.78134351,-96.83878537
Kansas,Chase,107,0,3,0,2020-10-28,38.30292938,-96.59563862
Kansas,Chautauqua,25,3,0,0,2020-10-28,37.14994405,-96.2454192
Kansas,Cherokee,699,18,7,0,2020-10-28,37.16928494,-94.8462897
Kansas,Cheyenne,115,4,5,0,2020-10-28,39.78580976,-101.7318201
Kansas,Clark,65,1,4,0,2020-10-28,37.23577007,-99.81883015
Kansas,Clay,114,12,3,0,2020-10-28,39.34948772,-97.16518128
Kansas,Cloud,144,14,1,0,2020-10-28,39.48028352,-97.64925343
Kansas,Coffey,160,6,9,0,2020-10-28,38.2365018,-95.73379515
Kansas,Comanche,20,0,0,0,2020-10-28,37.19114520000001,-99.27113247
Kansas,Cowley,523,23,10,0,2020-10-28,37.23781842,-96.83776647
Kansas,Crawford,1449,0,12,0,2020-10-28,37.50675523,-94.85245778
Kansas,Decatur,89,1,1,0,2020-10-28,39.78468441,-100.4594081
Kansas,Dickinson,326,23,4,1,2020-10-28,38.86600962,-97.15532383
Kansas,Doniphan,211,0,1,0,2020-10-28,39.79067154,-95.14056866
Kansas,Douglas,2901,21,19,1,2020-10-28,38.88503636,-95.2925121
Kansas,Edwards,76,9,0,0,2020-10-28,37.88735543,-99.31263309
Kansas,Elk,13,0,0,0,2020-10-28,37.45338105,-96.24369667
Kansas,Ellis,1420,44,18,0,2020-10-28,38.91458712,-99.31751551
Kansas,Ellsworth,278,47,1,0,2020-10-28,38.69677695,-98.20462799
Kansas,Finney,2981,0,18,0,2020-10-28,38.04340344,-100.7381938
Kansas,Ford,3271,61,13,0,2020-10-28,37.69200114,-99.88825298
Kansas,Franklin,559,28,5,2,2020-10-28,38.56443815,-95.28644341
Kansas,Geary,392,3,4,0,2020-10-28,38.99871131,-96.7577178
Kansas,Gove,182,20,12,2,2020-10-28,38.91588178,-100.4829321
Kansas,Graham,56,0,1,0,2020-10-28,39.34987223,-99.88332493
Kansas,Grant,434,0,8,0,2020-10-28,37.56227336,-101.3079758
Kansas,Gray,211,14,2,2,2020-10-28,37.73836671,-100.4369088
Kansas,Greeley,34,0,0,0,2020-10-28,38.4808095,-101.8061079
Kansas,Greenwood,97,8,0,0,2020-10-28,37.8774388,-96.23250453
Kansas,Hamilton,60,0,0,0,2020-10-28,37.99978709,-101.7921066
Kansas,Harper,155,3,2,0,2020-10-28,37.19175361,-98.07578384
Kansas,Harvey,558,5,7,0,2020-10-28,38.04293782,-97.42747573
Kansas,Haskell,103,0,1,0,2020-10-28,37.5620394,-100.8710738
Kansas,Hodgeman,36,3,0,0,2020-10-28,38.08780079,-99.89829881
Kansas,Jackson,323,0,4,0,2020-10-28,39.41673394,-95.79356799
Kansas,Jefferson,282,0,6,0,2020-10-28,39.2347941,-95.38289232
Kansas,Jewell,29,0,1,0,2020-10-28,39.78470589,-98.21820662
Kansas,Johnson,14205,168,199,3,2020-10-28,38.88548175,-94.82250877
Kansas,Kearny,159,0,6,0,2020-10-28,38.00017981,-101.321681
Kansas,Kingman,128,3,3,0,2020-10-28,37.55909527,-98.13638678
Kansas,Kiowa,69,0,0,0,2020-10-28,37.55848695,-99.2856537
Kansas,Labette,394,0,6,0,2020-10-28,37.19113093,-95.29849679
Kansas,Lane,23,0,0,0,2020-10-28,38.48119447,-100.4660754
Kansas,Leavenworth,2568,28,18,0,2020-10-28,39.20183497,-95.03620809
Kansas,Lincoln,23,3,1,0,2020-10-28,39.04549684,-98.20756994
Kansas,Linn,117,7,1,0,2020-10-28,38.21267844,-94.84254089
Kansas,Logan,68,0,0,0,2020-10-28,38.91735806,-101.148475
Kansas,Lyon,1325,11,40,0,2020-10-28,38.45576156,-96.15275715
Kansas,McPherson,412,0,6,0,2020-10-28,38.39184858,-97.64769869
Kansas,Marion,124,6,1,0,2020-10-28,38.35855394,-97.0985251
Kansas,Marshall,71,4,0,0,2020-10-28,39.78359669,-96.52278974
Kansas,Meade,144,3,1,0,2020-10-28,37.23859987,-100.364831
Kansas,Miami,526,17,2,0,2020-10-28,38.56383358,-94.83832189
Kansas,Mitchell,63,1,0,0,2020-10-28,39.39331582,-98.20906732
Kansas,Montgomery,656,0,6,0,2020-10-28,37.19236568,-95.74329258
Kansas,Morris,60,3,0,0,2020-10-28,38.68827511,-96.65128437
Kansas,Morton,56,15,2,0,2020-10-28,37.19141121,-101.79925190000002
Kansas,Nemaha,315,0,2,0,2020-10-28,39.78345387,-96.01392079
Kansas,Neosho,274,0,0,0,2020-10-28,37.55862897,-95.30670046
Kansas,Ness,148,0,9,0,2020-10-28,38.47974157,-99.91547333
Kansas,Norton,668,92,15,1,2020-10-28,39.78443827,-99.90286639
Kansas,Osage,161,3,3,0,2020-10-28,38.65235984,-95.72707998
Kansas,Osborne,23,0,0,0,2020-10-28,39.3503437,-98.76753828
Kansas,Ottawa,114,3,0,0,2020-10-28,39.13237408,-97.65020313
Kansas,Pawnee,431,18,1,0,2020-10-28,38.18108732,-99.23692334
Kansas,Phillips,197,11,9,0,2020-10-28,39.78465501,-99.34668865
Kansas,Pottawatomie,382,0,0,0,2020-10-28,39.37925655,-96.34564657
Kansas,Pratt,155,32,0,0,2020-10-28,37.64780729,-98.73922153
Kansas,Rawlins,92,7,0,0,2020-10-28,39.78525843,-101.0761617
Kansas,Reno,2174,20,16,0,2020-10-28,37.95230263,-98.08607292
Kansas,Republic,80,1,1,0,2020-10-28,39.82799632,-97.65036709
Kansas,Rice,156,13,1,0,2020-10-28,38.34616184,-98.19992118
Kansas,Riley,2189,37,11,0,2020-10-28,39.28935726,-96.73420026
Kansas,Rooks,154,4,7,0,2020-10-28,39.35022773,-99.32484567
Kansas,Rush,98,0,0,0,2020-10-28,38.52275276,-99.30863983
Kansas,Russell,186,6,4,0,2020-10-28,38.91462787,-98.76254297
Kansas,Saline,1127,35,13,0,2020-10-28,38.78369175,-97.65185177
Kansas,Scott,179,2,1,0,2020-10-28,38.48222076,-100.9066539
Kansas,Sedgwick,11369,175,129,2,2020-10-28,37.6842718,-97.4608198
Kansas,Seward,2120,0,13,0,2020-10-28,37.19324632,-100.8507201
Kansas,Shawnee,3491,36,82,1,2020-10-28,39.04100763,-95.7557264
Kansas,Sheridan,165,14,0,0,2020-10-28,39.35018161,-100.4418259
Kansas,Sherman,239,21,6,2,2020-10-28,39.35147699,-101.7197624
Kansas,Smith,23,1,0,0,2020-10-28,39.78516566,-98.78566062
Kansas,Stafford,82,5,1,0,2020-10-28,38.03100851,-98.71762001
Kansas,Stanton,52,2,2,0,2020-10-28,37.56304714,-101.7843534
Kansas,Stevens,237,10,1,0,2020-10-28,37.1923008,-101.3118967
Kansas,Sumner,296,9,3,0,2020-10-28,37.23682549,-97.47721621
Kansas,Thomas,355,15,2,0,2020-10-28,39.35107575,-101.0553705
Kansas,Trego,106,7,3,0,2020-10-28,38.91467218,-99.87284448
Kansas,Wabaunsee,84,2,1,0,2020-10-28,38.95471985,-96.20350509
Kansas,Wallace,52,9,0,0,2020-10-28,38.91686134,-101.7638876
Kansas,Washington,39,7,0,0,2020-10-28,39.78420784,-97.0875323
Kansas,Wichita,44,9,0,0,2020-10-28,38.48178252,-101.3471509
Kansas,Wilson,118,4,3,1,2020-10-28,37.55937174,-95.74323255
Kansas,Woodson,27,0,0,0,2020-10-28,37.8865336,-95.74006277
Kansas,Wyandotte,8270,33,164,0,2020-10-28,39.11727348,-94.76378225
Kentucky,Adair,506,5,21,0,2020-10-28,37.10459774,-85.28129668
Kentucky,Allen,551,5,11,0,2020-10-28,36.75197631,-86.19457544
Kentucky,Anderson,256,5,1,0,2020-10-28,38.00671029,-84.99171713
Kentucky,Ballard,73,1,1,0,2020-10-28,37.05842757,-88.99427697
Kentucky,Barren,1224,31,13,0,2020-10-28,36.96469836,-85.93338945
Kentucky,Bath,129,7,1,0,2020-10-28,38.14735938,-83.74588932
Kentucky,Bell,693,14,17,0,2020-10-28,36.73355174,-83.67766671
Kentucky,Boone,2196,31,25,0,2020-10-28,38.97065142,-84.72615357
Kentucky,Bourbon,319,8,1,0,2020-10-28,38.2054607,-84.21827874
Kentucky,Boyd,692,18,22,1,2020-10-28,38.36176608,-82.68652187
Kentucky,Boyle,459,7,0,0,2020-10-28,37.62680923,-84.8633779
Kentucky,Bracken,71,0,1,0,2020-10-28,38.69158994,-84.08532444
Kentucky,Breathitt,138,8,1,1,2020-10-28,37.52333168,-83.31959161
Kentucky,Breckinridge,198,7,2,0,2020-10-28,37.77377239,-86.42885017
Kentucky,Bullitt,1483,36,14,0,2020-10-28,37.97162523,-85.68955617
Kentucky,Butler,419,9,16,0,2020-10-28,37.20946153,-86.68748787
Kentucky,Caldwell,268,13,0,0,2020-10-28,37.14749129,-87.86948214
Kentucky,Calloway,993,16,9,0,2020-10-28,36.62093411,-88.2731593
Kentucky,Campbell,1282,27,16,0,2020-10-28,38.94384345,-84.37875208
Kentucky,Carlisle,104,1,1,0,2020-10-28,36.85372876,-88.96692220000001
Kentucky,Carroll,226,2,5,0,2020-10-28,38.66599534,-85.12601074
Kentucky,Carter,350,7,4,0,2020-10-28,38.31690743,-83.05092385
Kentucky,Casey,317,1,15,0,2020-10-28,37.32533118,-84.92726209
Kentucky,Christian,1892,36,29,1,2020-10-28,36.89267803,-87.49055367
Kentucky,Clark,534,3,11,0,2020-10-28,37.9689263,-84.14615986
Kentucky,Clay,550,20,6,0,2020-10-28,37.16451126,-83.712575
Kentucky,Clinton,241,6,3,0,2020-10-28,36.72581156,-85.13377529
Kentucky,Crittenden,169,5,1,0,2020-10-28,37.35839237,-88.08826090000002
Kentucky,Cumberland,144,8,0,0,2020-10-28,36.78926125,-85.39050034
Kentucky,Daviess,2005,31,29,0,2020-10-28,37.73028906,-87.09019479999998
Kentucky,Edmonson,187,2,12,0,2020-10-28,37.21218923,-86.23955613
Kentucky,Elliott,335,2,0,0,2020-10-28,38.11624059,-83.09771563
Kentucky,Estill,283,5,0,0,2020-10-28,37.69241417,-83.95956369
Kentucky,Fayette,10637,103,89,1,2020-10-28,38.0368225,-84.45576892
Kentucky,Fleming,187,8,0,0,2020-10-28,38.36758311,-83.69657514
Kentucky,Floyd,396,10,4,0,2020-10-28,37.56213922,-82.74750924
Kentucky,Franklin,875,19,14,0,2020-10-28,38.2379395,-84.87962551
Kentucky,Fulton,234,-1,3,0,2020-10-28,36.55238827,-89.20140068
Kentucky,Gallatin,127,1,8,0,2020-10-28,38.75398691,-84.8558382
Kentucky,Garrard,331,9,4,0,2020-10-28,37.6388668,-84.53289319
Kentucky,Grant,267,9,6,0,2020-10-28,38.64962758,-84.62415957
Kentucky,Graves,892,7,30,0,2020-10-28,36.72292505,-88.65143315
Kentucky,Grayson,513,3,16,0,2020-10-28,37.46231118,-86.34248968
Kentucky,Green,336,2,8,0,2020-10-28,37.26484328,-85.5540745
Kentucky,Greenup,638,10,11,0,2020-10-28,38.54332505,-82.9215658
Kentucky,Hancock,150,3,2,0,2020-10-28,37.83766422,-86.78280584
Kentucky,Hardin,2084,78,13,0,2020-10-28,37.6976111,-85.96319251
Kentucky,Harlan,596,7,14,0,2020-10-28,36.85699301,-83.21899516
Kentucky,Harrison,272,7,1,0,2020-10-28,38.44188174,-84.32869741
Kentucky,Hart,431,23,1,0,2020-10-28,37.29943898,-85.88461055
Kentucky,Henderson,1327,20,28,2,2020-10-28,37.79344553,-87.57392021
Kentucky,Henry,288,8,2,0,2020-10-28,38.44942688,-85.11587507
Kentucky,Hickman,122,1,1,0,2020-10-28,36.67948079999999,-88.97875928
Kentucky,Hopkins,1036,12,43,0,2020-10-28,37.30939025,-87.54670406
Kentucky,Jackson,463,9,17,0,2020-10-28,37.41866422,-83.99825483
Kentucky,Jefferson,22551,347,360,4,2020-10-28,38.18664655,-85.65931031
Kentucky,Jessamine,994,25,11,0,2020-10-28,37.87119786,-84.58252003
Kentucky,Johnson,322,8,2,0,2020-10-28,37.85106355,-82.8264322
Kentucky,Kenton,2746,57,51,2,2020-10-28,38.93950319,-84.53241199
Kentucky,Knott,354,9,4,0,2020-10-28,37.35388197,-82.94981134
Kentucky,Knox,868,26,10,1,2020-10-28,36.89225732,-83.85403396
Kentucky,Larue,286,12,1,0,2020-10-28,37.54567114,-85.70138352
Kentucky,Laurel,1455,20,7,0,2020-10-28,37.10975748,-84.11321779
Kentucky,Lawrence,157,4,0,0,2020-10-28,38.07136018,-82.72882223
Kentucky,Lee,159,20,4,1,2020-10-28,37.59645942,-83.71513901
Kentucky,Leslie,131,2,1,0,2020-10-28,37.09246661,-83.37999606
Kentucky,Letcher,304,1,2,0,2020-10-28,37.12306748,-82.85346474
Kentucky,Lewis,295,8,16,0,2020-10-28,38.53184419,-83.37735618
Kentucky,Lincoln,339,12,19,0,2020-10-28,37.45475628,-84.6565327
Kentucky,Livingston,129,3,1,0,2020-10-28,37.21137452,-88.34797529
Kentucky,Logan,786,9,31,0,2020-10-28,36.85949479,-86.877635
Kentucky,Lyon,109,3,4,0,2020-10-28,37.02080035,-88.07886257
Kentucky,McCracken,1150,20,12,0,2020-10-28,37.05350953,-88.70445755
Kentucky,McCreary,261,-1,1,0,2020-10-28,36.73874143,-84.48102924
Kentucky,McLean,205,9,3,0,2020-10-28,37.5301951,-87.26803443
Kentucky,Madison,2369,26,13,0,2020-10-28,37.71659336,-84.27220275
Kentucky,Magoffin,175,11,0,0,2020-10-28,37.70820545,-83.0657714
Kentucky,Marion,477,24,10,0,2020-10-28,37.55218078,-85.26898542
Kentucky,Marshall,485,13,7,0,2020-10-28,36.88007070000001,-88.32803576
Kentucky,Martin,206,11,3,0,2020-10-28,37.79990579,-82.51247478
Kentucky,Mason,176,5,2,0,2020-10-28,38.59471935,-83.82151043
Kentucky,Meade,392,9,3,0,2020-10-28,37.96163597,-86.21028219
Kentucky,Menifee,86,2,1,0,2020-10-28,37.94090733,-83.59985712
Kentucky,Mercer,366,-1,6,0,2020-10-28,37.81474237,-84.87488475
Kentucky,Metcalfe,200,7,2,0,2020-10-28,36.99459295,-85.63123699
Kentucky,Monroe,298,10,4,0,2020-10-28,36.71225341,-85.71596443
Kentucky,Montgomery,498,28,4,0,2020-10-28,38.03253032,-83.9145241
Kentucky,Morgan,133,4,0,0,2020-10-28,37.92465657,-83.25558245
Kentucky,Muhlenberg,974,1,13,0,2020-10-28,37.21425819,-87.14632053
Kentucky,Nelson,959,67,4,0,2020-10-28,37.80335779,-85.4657193
Kentucky,Nicholas,116,6,3,0,2020-10-28,38.33342292,-84.01889177
Kentucky,Ohio,611,3,10,0,2020-10-28,37.47751843,-86.85368087
Kentucky,Oldham,1439,16,26,0,2020-10-28,38.39791089,-85.448222
Kentucky,Owen,123,3,3,0,2020-10-28,38.51679143,-84.82404619
Kentucky,Owsley,95,1,1,0,2020-10-28,37.42823949,-83.68811419
Kentucky,Pendleton,131,5,0,0,2020-10-28,38.69607718,-84.35599463
Kentucky,Perry,534,6,9,0,2020-10-28,37.25023553,-83.22922731
Kentucky,Pike,928,60,3,0,2020-10-28,37.47088263,-82.39487445
Kentucky,Powell,146,3,0,0,2020-10-28,37.83218794,-83.82553961
Kentucky,Pulaski,997,8,13,0,2020-10-28,37.10466131,-84.57629079
Kentucky,Robertson,31,3,1,0,2020-10-28,38.51923469,-84.05055616
Kentucky,Rockcastle,361,17,2,0,2020-10-28,37.36642393,-84.31176452
Kentucky,Rowan,360,13,1,0,2020-10-28,38.19484205,-83.42088935
Kentucky,Russell,392,3,6,0,2020-10-28,36.99308373,-85.06070117
Kentucky,Scott,1152,26,20,0,2020-10-28,38.29622293,-84.5816631
Kentucky,Shelby,1496,14,24,0,2020-10-28,38.21476019,-85.194223
Kentucky,Simpson,359,5,8,0,2020-10-28,36.74058474,-86.58047435
Kentucky,Spencer,315,7,1,0,2020-10-28,38.03223971,-85.32749335
Kentucky,Taylor,510,20,7,0,2020-10-28,37.3677562,-85.3329931
Kentucky,Todd,295,1,12,0,2020-10-28,36.8381152,-87.17878374
Kentucky,Trigg,251,8,0,0,2020-10-28,36.80767017,-87.87333656
Kentucky,Trimble,88,2,0,0,2020-10-28,38.61056487,-85.33775972
Kentucky,Union,515,7,6,0,2020-10-28,37.66166713,-87.94300009
Kentucky,Warren,5253,52,57,0,2020-10-28,36.99903045,-86.42672751
Kentucky,Washington,242,5,1,0,2020-10-28,37.75599461,-85.17407732
Kentucky,Wayne,288,3,2,0,2020-10-28,36.80310688,-84.8251971
Kentucky,Webster,318,4,5,0,2020-10-28,37.52168356,-87.67989953
Kentucky,Whitley,819,13,6,0,2020-10-28,36.75700531,-84.14541217
Kentucky,Wolfe,65,1,0,0,2020-10-28,37.73941626,-83.49303612
Kentucky,Woodford,380,6,0,0,2020-10-28,38.04178222,-84.7417556
Louisiana,Acadia,3147,8,101,0,2020-10-28,30.2950649,-92.41419698
Louisiana,Allen,1844,4,60,1,2020-10-28,30.65385745,-92.82442028
Louisiana,Ascension,4169,23,99,0,2020-10-28,30.20406249,-90.91328409999998
Louisiana,Assumption,801,2,24,0,2020-10-28,29.89946234,-91.06461642
Louisiana,Avoyelles,1743,6,62,0,2020-10-28,31.07796211,-92.00079449
Louisiana,Beauregard,1069,0,40,0,2020-10-28,30.64836518,-93.34173616
Louisiana,Bienville,610,4,35,0,2020-10-28,32.34569994,-93.05398492
Louisiana,Bossier,4286,27,120,0,2020-10-28,32.67932307,-93.60460152
Louisiana,Caddo,10146,41,395,0,2020-10-28,32.57991587,-93.88375652
Louisiana,Calcasieu,8419,17,230,0,2020-10-28,30.22931235,-93.35400434
Louisiana,Caldwell,360,5,3,0,2020-10-28,32.0902519,-92.11752148
Louisiana,Cameron,247,7,2,0,2020-10-28,29.87592238,-93.19310676
Louisiana,Catahoula,463,2,14,0,2020-10-28,31.66778967,-91.84526385
Louisiana,Claiborne,603,0,26,0,2020-10-28,32.82308512,-92.99526883
Louisiana,Concordia,611,1,16,0,2020-10-28,31.44817835,-91.63814433
Louisiana,De Soto,1030,3,35,0,2020-10-28,32.05457447,-93.74130302
Louisiana,East Baton Rouge,16142,50,459,1,2020-10-28,30.53842039,-91.09777565
Louisiana,East Carroll,584,-2,6,0,2020-10-28,32.73926954,-91.23425694
Louisiana,East Feliciana,1801,5,78,0,2020-10-28,30.84425359,-91.04976723
Louisiana,Evangeline,1412,-1,39,0,2020-10-28,30.72985248,-92.39915924
Louisiana,Franklin,1335,6,47,0,2020-10-28,32.13675181,-91.67589857
Louisiana,Grant,541,1,30,0,2020-10-28,31.59882456,-92.56124347
Louisiana,Iberia,3080,8,97,1,2020-10-28,29.86803617,-91.75871777
Louisiana,Iberville,1480,5,61,0,2020-10-28,30.25734305,-91.3499598
Louisiana,Jackson,860,2,24,1,2020-10-28,32.30251776,-92.55692092
Louisiana,Jefferson,18726,39,585,0,2020-10-28,29.74075478,-90.11115756
Louisiana,Jefferson Davis,1354,1,43,0,2020-10-28,30.26896765,-92.81210004
Louisiana,Lafayette,9477,14,139,0,2020-10-28,30.2049055,-92.06959876
Louisiana,Lafourche,3905,6,128,0,2020-10-28,29.52470226,-90.40976986
Louisiana,LaSalle,501,2,10,0,2020-10-28,31.67884782,-92.15907765
Louisiana,Lincoln,1676,4,49,0,2020-10-28,32.6003154,-92.6659741
Louisiana,Livingston,4221,5,80,1,2020-10-28,30.44143993,-90.73061664
Louisiana,Madison,893,1,9,0,2020-10-28,32.36918118,-91.23973355
Louisiana,Morehouse,895,3,27,1,2020-10-28,32.81686191,-91.80421614
Louisiana,Natchitoches,1493,10,28,0,2020-10-28,31.72321584,-93.09816516
Louisiana,Orleans,13499,28,593,1,2020-10-28,30.06971951,-89.92660315
Louisiana,Ouachita,7036,11,165,0,2020-10-28,32.47645559,-92.15704172
Louisiana,Plaquemines,894,1,19,0,2020-10-28,29.42245447,-89.60322085
Louisiana,Pointe Coupee,1139,1,42,0,2020-10-28,30.71409502,-91.60209535
Louisiana,Rapides,4715,0,158,0,2020-10-28,31.19778499,-92.52997303
Louisiana,Red River,438,2,24,0,2020-10-28,32.09530039,-93.34213308
Louisiana,Richland,889,-2,18,1,2020-10-28,32.41391005,-91.76634876
Louisiana,Sabine,1001,8,15,0,2020-10-28,31.56388699,-93.55433981
Louisiana,St. Bernard,1551,3,32,0,2020-10-28,29.87761636,-89.51887093
Louisiana,St. Charles,1955,-1,63,0,2020-10-28,29.90709658,-90.35555967
Louisiana,St. Helena,438,1,4,0,2020-10-28,30.82210324,-90.71013176
Louisiana,St. James,847,6,40,0,2020-10-28,30.02531716,-90.80212061
Louisiana,St. John the Baptist,1653,4,107,0,2020-10-28,30.12597499,-90.4753503
Louisiana,St. Landry,3675,-3,135,0,2020-10-28,30.59724262,-92.00135806
Louisiana,St. Martin,2230,12,64,1,2020-10-28,30.13112107,-91.61403569
Louisiana,St. Mary,2021,0,86,0,2020-10-28,29.69262097,-91.44702164
Louisiana,St. Tammany,7749,22,270,0,2020-10-28,30.40942847,-89.95642711
Louisiana,Tangipahoa,5026,22,126,0,2020-10-28,30.62888673,-90.40664996
Louisiana,Tensas,186,-1,2,0,2020-10-28,32.00760749,-91.32915234
Louisiana,Terrebonne,3870,8,125,1,2020-10-28,29.37343766,-90.82626855
Louisiana,Union,1118,0,51,0,2020-10-28,32.83121059,-92.3749373
Louisiana,Vermilion,2129,4,70,0,2020-10-28,29.83517605,-92.30292538
Louisiana,Vernon,1125,7,56,0,2020-10-28,31.10884837,-93.18153838
Louisiana,Washington,1752,5,71,0,2020-10-28,30.85288548,-90.03866652
Louisiana,Webster,1483,2,40,0,2020-10-28,32.70847669,-93.33121835
Louisiana,West Baton Rouge,964,-6,42,0,2020-10-28,30.46058217,-91.30989571
Louisiana,West Carroll,376,1,13,0,2020-10-28,32.78550125,-91.461201
Louisiana,West Feliciana,755,-2,25,0,2020-10-28,30.87882871,-91.4148538
Louisiana,Winn,688,0,19,0,2020-10-28,31.94449367,-92.63789413
Maine,Androscoggin,855,3,10,0,2020-10-28,44.1664747,-70.20380627
Maine,Aroostook,67,3,1,0,2020-10-28,46.65926321,-68.59841248
Maine,Cumberland,2523,16,70,0,2020-10-28,43.8370751,-70.37226999
Maine,Franklin,77,3,1,0,2020-10-28,44.97330019,-70.44381045
Maine,Hancock,71,2,1,0,2020-10-28,44.59816444,-68.38401854
Maine,Kennebec,332,4,11,0,2020-10-28,44.40759555,-69.76738544
Maine,Knox,78,11,1,0,2020-10-28,44.11486325,-69.10529169
Maine,Lincoln,61,1,1,0,2020-10-28,44.05996956,-69.54227124
Maine,Oxford,164,2,2,0,2020-10-28,44.49952995,-70.75682123
Maine,Penobscot,302,2,6,0,2020-10-28,45.40194593,-68.65020455
Maine,Piscataquis,10,0,0,0,2020-10-28,45.83839062,-69.2860223
Maine,Sagadahoc,82,0,0,0,2020-10-28,43.95415864,-69.85074999
Maine,Somerset,153,7,8,0,2020-10-28,45.51229767,-69.95995554
Maine,Waldo,150,1,14,0,2020-10-28,44.4858305,-69.12061935
Maine,Washington,57,9,0,0,2020-10-28,45.01607142,-67.62813524
Maine,York,1404,13,20,0,2020-10-28,43.47808377,-70.71052375
Maryland,Allegany,679,19,24,0,2020-10-28,39.62357628,-78.69280486
Maryland,Anne Arundel,11921,49,273,1,2020-10-28,39.00670238,-76.60329337
Maryland,Baltimore,20510,91,666,1,2020-10-28,39.45784712,-76.62911955
Maryland,Calvert,1184,8,29,0,2020-10-28,38.53961642,-76.56820632
Maryland,Caroline,740,0,8,0,2020-10-28,38.87172293,-75.82904158
Maryland,Carroll,2231,12,129,0,2020-10-28,39.56453592,-77.02373735
Maryland,Cecil,1348,8,36,0,2020-10-28,39.56647682,-75.94627411
Maryland,Charles,3168,14,102,0,2020-10-28,38.51092331,-76.98580666
Maryland,Dorchester,782,3,10,0,2020-10-28,38.45413522,-76.02752426
Maryland,Frederick,4748,27,139,0,2020-10-28,39.47296601,-77.39999394
Maryland,Garrett,142,3,1,0,2020-10-28,39.52786077,-79.27355126
Maryland,Harford,3583,28,81,0,2020-10-28,39.55010644,-76.30775940000002
Maryland,Howard,5865,20,126,0,2020-10-28,39.25305293,-76.93126208
Maryland,Kent,343,1,25,0,2020-10-28,39.24976208,-76.04741541
Maryland,Montgomery,25562,124,870,1,2020-10-28,39.13676329,-77.20358245
Maryland,Prince George's,32648,149,859,5,2020-10-28,38.83070039,-76.8496441
Maryland,Queen Anne's,777,4,26,0,2020-10-28,39.06198912,-76.03530977
Maryland,St. Mary's,1475,5,60,0,2020-10-28,38.30058422,-76.60629279999998
Maryland,Somerset,421,2,6,0,2020-10-28,38.1163542,-75.75118623
Maryland,Talbot,647,2,6,0,2020-10-28,38.76618159,-76.10882561
Maryland,Washington,2281,29,44,0,2020-10-28,39.60835778,-77.82002295
Maryland,Wicomico,2494,1,51,0,2020-10-28,38.37301947,-75.62705831
Maryland,Worcester,1212,2,31,0,2020-10-28,38.21274277,-75.33200012
Maryland,Baltimore,20510,91,666,1,2020-10-28,39.45784712,-76.62911955
Massachusetts,Barnstable,1999,7,183,1,2020-10-28,41.72980578,-70.28854339
Massachusetts,Berkshire,780,6,52,0,2020-10-28,42.37428441,-73.20524838
Massachusetts,Bristol,12167,181,750,7,2020-10-28,41.79228404,-71.10872211
Massachusetts,Essex,23642,224,1343,1,2020-10-28,42.6687626,-70.94687179
Massachusetts,Franklin,472,0,72,0,2020-10-28,42.58119713,-72.58602547
Massachusetts,Hampden,9901,101,815,3,2020-10-28,42.13440424,-72.63235561
Massachusetts,Hampshire,1472,7,155,1,2020-10-28,42.33997957,-72.65898478
Massachusetts,Middlesex,31808,214,2265,8,2020-10-28,42.48607732,-71.39049229
Massachusetts,Norfolk,11733,57,1108,2,2020-10-28,42.16073095,-71.20530408
Massachusetts,Plymouth,11350,56,832,4,2020-10-28,41.94070556,-70.80802823
Massachusetts,Suffolk,28152,160,1173,2,2020-10-28,42.3279514,-71.07850442
Massachusetts,Worcester,16471,122,1169,7,2020-10-28,42.35026951,-71.90493363
Michigan,Alcona,54,0,3,1,2020-10-28,44.6846864,-83.59507875
Michigan,Alger,117,6,1,0,2020-10-28,46.41292944,-86.60260122
Michigan,Allegan,1325,36,7,0,2020-10-28,42.59147037,-85.89102866
Michigan,Alpena,163,2,14,0,2020-10-28,45.03477666,-83.62212411
Michigan,Antrim,130,0,0,0,2020-10-28,44.99690221,-85.15503082
Michigan,Arenac,102,4,3,0,2020-10-28,44.0636262,-83.89277559
Michigan,Baraga,101,13,4,0,2020-10-28,46.6720582,-88.36363591
Michigan,Barry,716,28,6,0,2020-10-28,42.59513984,-85.30834519
Michigan,Bay,1433,29,62,0,2020-10-28,43.70639106,-83.98731479
Michigan,Benzie,125,1,2,0,2020-10-28,44.63899297,-86.01608482
Michigan,Berrien,2774,39,82,1,2020-10-28,41.95447397,-86.41313079999998
Michigan,Branch,899,24,11,0,2020-10-28,41.91600556,-85.05929476
Michigan,Calhoun,2976,106,71,0,2020-10-28,42.24633834,-85.00493569
Michigan,Cass,1025,10,24,0,2020-10-28,41.91522292,-85.99405727
Michigan,Charlevoix,190,7,4,0,2020-10-28,45.37790017,-85.19614053
Michigan,Cheboygan,154,4,2,0,2020-10-28,45.44787015,-84.50122149
Michigan,Chippewa,161,14,0,0,2020-10-28,46.29552653,-84.54353449
Michigan,Clare,291,15,11,0,2020-10-28,43.98794227,-84.84819859999998
Michigan,Clinton,1149,24,16,0,2020-10-28,42.94400871,-84.60145248
Michigan,Crawford,153,3,5,0,2020-10-28,44.68255561,-84.61006219
Michigan,Delta,1263,62,27,1,2020-10-28,45.90484910000001,-86.9080745
Michigan,Dickinson,660,24,20,0,2020-10-28,46.00999672,-87.86961634
Michigan,Eaton,1180,24,11,0,2020-10-28,42.59599185,-84.83740035
Michigan,Emmet,268,18,4,0,2020-10-28,45.52625509,-84.89083249
Michigan,Genesee,6898,99,338,0,2020-10-28,43.02244215,-83.70589709
Michigan,Gladwin,216,7,2,0,2020-10-28,43.98901072,-84.38774817
Michigan,Gogebic,413,9,9,2,2020-10-28,46.40862701,-89.69377193
Michigan,Grand Traverse,810,22,13,0,2020-10-28,44.69565625,-85.55585247
Michigan,Gratiot,533,19,17,1,2020-10-28,43.29265605,-84.60505416
Michigan,Hillsdale,530,17,29,0,2020-10-28,41.88753639,-84.59312019
Michigan,Houghton,942,13,9,0,2020-10-28,46.89988536,-88.68495385
Michigan,Huron,277,4,5,0,2020-10-28,43.83353985,-83.04078453
Michigan,Ingham,4683,53,65,0,2020-10-28,42.59716886,-84.37472069
Michigan,Ionia,731,16,8,0,2020-10-28,42.94502238,-85.07413319
Michigan,Iosco,294,5,16,0,2020-10-28,44.35486835,-83.63484895
Michigan,Iron,443,2,25,0,2020-10-28,46.20974132,-88.53136251
Michigan,Isabella,1065,26,15,0,2020-10-28,43.64060976,-84.84664923
Michigan,Jackson,1861,51,67,1,2020-10-28,42.24807035,-84.42258681
Michigan,Kalamazoo,4889,72,106,0,2020-10-28,42.24542231,-85.53038622
Michigan,Kalkaska,130,0,4,0,2020-10-28,44.68512729,-85.09085699
Michigan,Kent,14778,365,185,1,2020-10-28,43.03197711,-85.54934642
Michigan,Keweenaw,23,3,0,0,2020-10-28,47.63197653,-88.41434263
Michigan,Lake,64,0,1,0,2020-10-28,43.99050893,-85.802173
Michigan,Lapeer,942,27,38,0,2020-10-28,43.09052506,-83.22153148
Michigan,Leelanau,151,-1,2,0,2020-10-28,44.94430054,-85.80150326
Michigan,Lenawee,1162,23,20,1,2020-10-28,41.89475156,-84.06603727
Michigan,Livingston,2142,86,33,0,2020-10-28,42.60302282,-83.91297209
Michigan,Luce,66,11,1,1,2020-10-28,46.47227431,-85.54471223
Michigan,Mackinac,162,4,0,0,2020-10-28,46.07028979,-85.04980537
Michigan,Macomb,18829,281,1088,1,2020-10-28,42.69158356,-82.92752801
Michigan,Manistee,139,3,3,0,2020-10-28,44.33352407,-86.05626916
Michigan,Marquette,1083,39,15,0,2020-10-28,46.4338914,-87.64043701
Michigan,Mason,250,6,1,0,2020-10-28,43.99509218,-86.24988902
Michigan,Mecosta,541,17,4,0,2020-10-28,43.64064262,-85.32463223
Michigan,Menominee,729,14,5,0,2020-10-28,45.58038692,-87.55370409
Michigan,Midland,1066,29,14,0,2020-10-28,43.64330771,-84.38804374
Michigan,Missaukee,91,0,1,0,2020-10-28,44.33772443,-85.09256478
Michigan,Monroe,2076,30,38,2,2020-10-28,41.92734151,-83.53749864
Michigan,Montcalm,680,35,13,0,2020-10-28,43.31082541,-85.15252824
Michigan,Montmorency,29,2,0,0,2020-10-28,45.0275929,-84.12696227
Michigan,Muskegon,2227,78,82,0,2020-10-28,43.29123859,-86.15176712
Michigan,Newaygo,650,20,3,0,2020-10-28,43.554374,-85.80070107
Michigan,Oakland,25563,494,1237,0,2020-10-28,42.66090111,-83.38595416
Michigan,Oceana,637,15,6,0,2020-10-28,43.64124435,-86.26726673
Michigan,Ogemaw,117,3,5,0,2020-10-28,44.33481032,-84.12725175
Michigan,Ontonagon,106,3,0,0,2020-10-28,46.665226200000006,-89.31390481
Michigan,Osceola,182,5,1,0,2020-10-28,43.98992088,-85.32566756
Michigan,Oscoda,56,0,2,0,2020-10-28,44.68192279,-84.12939244
Michigan,Otsego,262,10,12,0,2020-10-28,45.02085831,-84.59898295
Michigan,Ottawa,5279,151,76,3,2020-10-28,42.95996803,-85.9969107
Michigan,Presque Isle,65,-1,1,0,2020-10-28,45.34018577,-83.91498656
Michigan,Roscommon,193,8,6,0,2020-10-28,44.33473082,-84.61067651
Michigan,Saginaw,3927,54,155,1,2020-10-28,43.33433923,-84.05131209999998
Michigan,St. Clair,1594,49,65,1,2020-10-28,42.92655373,-82.67937954
Michigan,St. Joseph,1256,46,21,0,2020-10-28,41.91441767,-85.52797979
Michigan,Sanilac,210,10,7,0,2020-10-28,43.42406072,-82.82055898
Michigan,Schoolcraft,81,7,1,0,2020-10-28,46.19235734,-86.19972234
Michigan,Shiawassee,728,9,34,0,2020-10-28,42.95392800000001,-84.14585902
Michigan,Tuscola,678,7,35,0,2020-10-28,43.46606813,-83.41897025
Michigan,Van Buren,1124,32,19,0,2020-10-28,42.25190229,-86.01939087
Michigan,Washtenaw,5568,104,119,1,2020-10-28,42.253105,-83.83853204
Michigan,Wayne,40861,465,3052,2,2020-10-28,42.28098405,-83.281255
Michigan,Wexford,180,1,4,0,2020-10-28,44.33853602,-85.57712739
Minnesota,Aitkin,188,2,2,0,2020-10-28,46.60962049,-93.4116826
Minnesota,Anoka,9160,121,153,2,2020-10-28,45.27476015,-93.24604565
Minnesota,Becker,604,16,4,0,2020-10-28,46.93479392,-95.67158144
Minnesota,Beltrami,927,13,8,1,2020-10-28,47.97373527,-94.93732139
Minnesota,Benton,1009,33,9,0,2020-10-28,45.69804958,-93.99514135
Minnesota,Big Stone,153,10,1,0,2020-10-28,45.42712824,-96.41403739
Minnesota,Blue Earth,2085,19,7,0,2020-10-28,44.03554215,-94.06699781
Minnesota,Brown,335,2,3,0,2020-10-28,44.24205652,-94.72562874
Minnesota,Carlton,483,21,2,0,2020-10-28,46.59180601,-92.67601019
Minnesota,Carver,1867,20,7,0,2020-10-28,44.82017001,-93.8009918
Minnesota,Cass,405,15,5,0,2020-10-28,46.95043611,-94.32603968
Minnesota,Chippewa,469,3,3,0,2020-10-28,45.02343421,-95.56403693
Minnesota,Chisago,1114,31,2,0,2020-10-28,45.5021011,-92.90861945
Minnesota,Clay,2464,102,43,0,2020-10-28,46.89289518,-96.48761922
Minnesota,Clearwater,128,14,1,1,2020-10-28,47.57992111,-95.37790562
Minnesota,Cook,18,1,0,0,2020-10-28,47.90504893,-90.52629546
Minnesota,Cottonwood,290,4,0,0,2020-10-28,44.00715262,-95.18138802
Minnesota,Crow Wing,1083,21,22,0,2020-10-28,46.48096553,-94.06755609
Minnesota,Dakota,10132,105,138,0,2020-10-28,44.67172617,-93.06299363
Minnesota,Dodge,405,1,0,0,2020-10-28,44.02238415,-92.86244324
Minnesota,Douglas,734,6,4,1,2020-10-28,45.93348491,-95.45335469
Minnesota,Faribault,244,5,0,0,2020-10-28,43.67381499,-93.94787458
Minnesota,Fillmore,265,1,0,0,2020-10-28,43.67394126,-92.08980382
Minnesota,Freeborn,700,9,4,0,2020-10-28,43.67385583,-93.34884422
Minnesota,Goodhue,633,8,11,0,2020-10-28,44.40849741,-92.7234195
Minnesota,Grant,102,3,4,0,2020-10-28,45.93424769,-96.01139609
Minnesota,Hennepin,34988,331,995,1,2020-10-28,45.00761521,-93.47694895
Minnesota,Houston,220,8,1,0,2020-10-28,43.67129565,-91.49143057
Minnesota,Hubbard,423,13,3,0,2020-10-28,47.10778564,-94.91693868
Minnesota,Isanti,583,12,5,0,2020-10-28,45.56181234,-93.29487636
Minnesota,Itasca,771,8,17,0,2020-10-28,47.51009045,-93.63092229
Minnesota,Jackson,219,2,1,0,2020-10-28,43.67423373,-95.15398258
Minnesota,Kanabec,230,5,10,0,2020-10-28,45.9459309,-93.29275192
Minnesota,Kandiyohi,1783,30,5,0,2020-10-28,45.1526059,-95.00586446
Minnesota,Kittson,50,1,0,0,2020-10-28,48.77754106,-96.78317184
Minnesota,Koochiching,176,4,5,0,2020-10-28,48.24539665,-93.78352843
Minnesota,Lac qui Parle,145,1,3,0,2020-10-28,44.9973857,-96.17488219
Minnesota,Lake,129,3,0,0,2020-10-28,47.64270764,-91.44557998
Minnesota,Lake of the Woods,45,1,1,0,2020-10-28,48.77217001,-94.90274472
Minnesota,Le Sueur,651,6,6,0,2020-10-28,44.37136597,-93.72844721
Minnesota,Lincoln,191,2,0,0,2020-10-28,44.41311883,-96.26688165
Minnesota,Lyon,1007,11,6,0,2020-10-28,44.41327865,-95.83806103
Minnesota,McLeod,615,5,4,0,2020-10-28,44.82367677,-94.27287017
Minnesota,Mahnomen,128,11,2,0,2020-10-28,47.32557075,-95.80921485
Minnesota,Marshall,137,6,1,0,2020-10-28,48.35825983,-96.37017407
Minnesota,Martin,619,4,18,0,2020-10-28,43.67429718,-94.55099908
Minnesota,Meeker,348,3,3,0,2020-10-28,45.12328869,-94.52839455
Minnesota,Mille Lacs,432,5,16,1,2020-10-28,45.93705297,-93.63236823
Minnesota,Morrison,802,26,9,-1,2020-10-28,46.01265363,-94.27341528
Minnesota,Mower,1539,4,18,1,2020-10-28,43.67142874,-92.75234549
Minnesota,Murray,291,2,3,0,2020-10-28,44.02216709,-95.76328482
Minnesota,Nicollet,756,9,18,0,2020-10-28,44.35291112,-94.24710352
Minnesota,Nobles,2319,10,18,2,2020-10-28,43.67434621,-95.75329576
Minnesota,Norman,128,7,0,0,2020-10-28,47.32628443,-96.45620947
Minnesota,Olmsted,3359,45,30,0,2020-10-28,44.00374114,-92.40209944
Minnesota,Otter Tail,921,20,7,0,2020-10-28,46.40846929,-95.70835255
Minnesota,Pennington,209,2,1,0,2020-10-28,48.06642577,-96.0370814
Minnesota,Pine,563,9,0,0,2020-10-28,46.12105238,-92.74070188
Minnesota,Pipestone,361,2,17,0,2020-10-28,44.02301619,-96.25841142
Minnesota,Polk,786,62,4,0,2020-10-28,47.77372465,-96.40134647
Minnesota,Pope,165,0,0,0,2020-10-28,45.58606667,-95.44451209
Minnesota,Ramsey,14471,129,364,2,2020-10-28,45.01625271,-93.09872295
Minnesota,Red Lake,82,1,2,0,2020-10-28,47.87197525,-96.09561104
Minnesota,Redwood,294,10,11,0,2020-10-28,44.40555844,-95.25207021
Minnesota,Renville,263,5,13,1,2020-10-28,44.72836381,-94.94553734
Minnesota,Rice,1683,9,10,0,2020-10-28,44.3543376,-93.29658715
Minnesota,Rock,355,7,5,1,2020-10-28,43.67482683,-96.25296832
Minnesota,Roseau,300,10,0,0,2020-10-28,48.77501878,-95.81079919
Minnesota,St. Louis,3142,63,71,1,2020-10-28,47.6048407,-92.46879855
Minnesota,Scott,3549,53,34,0,2020-10-28,44.6490231,-93.53340251
Minnesota,Sherburne,1763,30,22,0,2020-10-28,45.44447208,-93.77617511
Minnesota,Sibley,262,2,3,0,2020-10-28,44.5796592,-94.23164924
Minnesota,Stearns,6082,91,48,4,2020-10-28,45.55192576,-94.61078221
Minnesota,Steele,787,5,3,0,2020-10-28,44.02240351,-93.22627088
Minnesota,Stevens,186,-1,1,0,2020-10-28,45.58613007,-96.00163705
Minnesota,Swift,212,3,2,1,2020-10-28,45.2829032,-95.68264092
Minnesota,Todd,872,7,6,0,2020-10-28,46.06996226,-94.89785296
Minnesota,Traverse,58,0,0,0,2020-10-28,45.77298854,-96.47062949
Minnesota,Wabasha,405,8,0,0,2020-10-28,44.28424356,-92.23121312
Minnesota,Wadena,257,2,3,0,2020-10-28,46.58589171,-94.96968506
Minnesota,Waseca,941,4,9,0,2020-10-28,44.02211116,-93.58720034
Minnesota,Washington,6233,144,72,0,2020-10-28,45.03864533,-92.88429635
Minnesota,Watonwan,581,2,4,0,2020-10-28,43.97823903,-94.61413846
Minnesota,Wilkin,142,2,4,0,2020-10-28,46.35721532,-96.4684375
Minnesota,Winona,1296,18,19,0,2020-10-28,43.98772283,-91.78081305
Minnesota,Wright,2653,44,15,0,2020-10-28,45.17297924,-93.96234781
Minnesota,Yellow Medicine,294,2,6,0,2020-10-28,44.71710183,-95.86842453
Mississippi,Adams,1094,1,45,1,2020-10-28,31.47669768,-91.35326037
Mississippi,Alcorn,1045,24,12,0,2020-10-28,34.88084463,-88.57996173
Mississippi,Amite,428,1,13,0,2020-10-28,31.17467303,-90.80501621
Mississippi,Attala,805,0,27,1,2020-10-28,33.08658803,-89.57838564
Mississippi,Benton,367,7,10,2,2020-10-28,34.81681228,-89.18945516
Mississippi,Bolivar,2039,11,79,2,2020-10-28,33.79696941,-90.87372121
Mississippi,Calhoun,633,6,13,0,2020-10-28,33.93683395,-89.33686647
Mississippi,Carroll,503,6,12,0,2020-10-28,33.44834567,-89.91994479
Mississippi,Chickasaw,867,5,27,1,2020-10-28,33.91983202,-88.9481545
Mississippi,Choctaw,209,1,6,0,2020-10-28,33.34598242,-89.24809382
Mississippi,Claiborne,539,0,16,0,2020-10-28,31.97061673,-90.90702196
Mississippi,Clarke,770,7,53,0,2020-10-28,32.04158545,-88.68896219999998
Mississippi,Clay,710,5,22,0,2020-10-28,33.65358105,-88.77784255
Mississippi,Coahoma,1258,3,37,0,2020-10-28,34.22772299,-90.60415045
Mississippi,Copiah,1393,6,36,0,2020-10-28,31.86977774,-90.44565118
Mississippi,Covington,988,3,29,0,2020-10-28,31.63225413,-89.55389939
Mississippi,DeSoto,7285,75,80,1,2020-10-28,34.87625235,-89.99091418
Mississippi,Forrest,3118,24,78,0,2020-10-28,31.18961454,-89.25832496
Mississippi,Franklin,251,3,3,0,2020-10-28,31.47786634,-90.89672989
Mississippi,George,1017,3,19,0,2020-10-28,30.86259065,-88.64436789
Mississippi,Greene,481,2,18,0,2020-10-28,31.21444233,-88.63922281
Mississippi,Grenada,1229,3,39,0,2020-10-28,33.77036166,-89.80245083
Mississippi,Hancock,868,9,28,0,2020-10-28,30.41830223,-89.48851033
Mississippi,Harrison,5491,93,85,1,2020-10-28,30.51359752,-89.12467576
Mississippi,Hinds,8050,39,179,0,2020-10-28,32.2656285,-90.44435448
Mississippi,Holmes,1150,1,60,0,2020-10-28,33.12345854,-90.08923538
Mississippi,Humphreys,451,2,17,1,2020-10-28,33.12825718,-90.52252707
Mississippi,Issaquena,107,0,4,0,2020-10-28,32.72531359,-90.97392828
Mississippi,Itawamba,1172,13,26,0,2020-10-28,34.27993475,-88.3606733
Mississippi,Jackson,4800,107,88,1,2020-10-28,30.54020656,-88.64184064
Mississippi,Jasper,696,4,17,0,2020-10-28,32.01922104,-89.11786866
Mississippi,Jefferson,279,2,10,0,2020-10-28,31.73397872,-91.03764977
Mississippi,Jefferson Davis,421,4,12,1,2020-10-28,31.56884708,-89.82670990000003
Mississippi,Jones,2966,5,84,0,2020-10-28,31.62257767,-89.16896899999998
Mississippi,Kemper,333,6,15,0,2020-10-28,32.75462946,-88.64105766
Mississippi,Lafayette,2550,19,43,0,2020-10-28,34.35687874,-89.48490961
Mississippi,Lamar,2319,28,40,2,2020-10-28,31.20572971,-89.5077704
Mississippi,Lauderdale,2546,47,135,0,2020-10-28,32.40419769,-88.66229662
Mississippi,Lawrence,544,10,14,0,2020-10-28,31.55147224,-90.10841127
Mississippi,Leake,1163,5,42,0,2020-10-28,32.7536828,-89.52402044
Mississippi,Lee,3665,25,82,0,2020-10-28,34.291877500000005,-88.68149954
Mississippi,Leflore,1706,15,88,0,2020-10-28,33.55545125,-90.29900733
Mississippi,Lincoln,1433,4,59,0,2020-10-28,31.53288662,-90.45391915
Mississippi,Lowndes,1819,7,62,0,2020-10-28,33.47386518,-88.44191529999998
Mississippi,Madison,3861,18,94,0,2020-10-28,32.63389156,-90.03513564
Mississippi,Marion,959,5,43,0,2020-10-28,31.23132643,-89.8209217
Mississippi,Marshall,1484,11,30,0,2020-10-28,34.76216286,-89.50299462
Mississippi,Monroe,1538,8,73,0,2020-10-28,33.89236763,-88.4808438
Mississippi,Montgomery,558,4,23,0,2020-10-28,33.49419589,-89.61729103
Mississippi,Neshoba,1868,7,111,0,2020-10-28,32.75339664,-89.11726492
Mississippi,Newton,872,4,27,0,2020-10-28,32.40021118,-89.11843336
Mississippi,Noxubee,602,1,17,0,2020-10-28,33.11009499,-88.56949061
Mississippi,Oktibbeha,2048,11,55,0,2020-10-28,33.42491685,-88.87905132
Mississippi,Panola,1720,14,40,0,2020-10-28,34.36398677,-89.95064249
Mississippi,Pearl River,1163,13,60,0,2020-10-28,30.77090935,-89.58677275
Mississippi,Perry,524,12,23,0,2020-10-28,31.17161885,-88.99281835
Mississippi,Pike,1406,2,56,0,2020-10-28,31.17507789,-90.40392572
Mississippi,Pontotoc,1506,16,20,0,2020-10-28,34.226046000000004,-89.03636807
Mississippi,Prentiss,1092,9,20,0,2020-10-28,34.61810501,-88.51986294
Mississippi,Quitman,423,2,6,0,2020-10-28,34.25157572,-90.28908
Mississippi,Rankin,4046,30,86,0,2020-10-28,32.26469147,-89.94537876
Mississippi,Scott,1270,8,29,0,2020-10-28,32.406704100000006,-89.53789439
Mississippi,Sharkey,287,0,15,0,2020-10-28,32.88149103,-90.8159538
Mississippi,Simpson,1231,8,49,0,2020-10-28,31.91282117,-89.91716179
Mississippi,Smith,602,4,16,0,2020-10-28,32.01744532,-89.50644846
Mississippi,Stone,491,5,14,0,2020-10-28,30.79187949,-89.11547539
Mississippi,Sunflower,1643,3,49,0,2020-10-28,33.60192578,-90.58882684
Mississippi,Tallahatchie,855,9,26,0,2020-10-28,33.95339918,-90.1729398
Mississippi,Tate,1210,17,39,0,2020-10-28,34.65133709,-89.94485778
Mississippi,Tippah,949,18,24,1,2020-10-28,34.76872156,-88.90988194
Mississippi,Tishomingo,827,5,41,0,2020-10-28,34.74023475,-88.23917219
Mississippi,Tunica,537,1,17,0,2020-10-28,34.64967704,-90.37481167
Mississippi,Union,1258,61,25,0,2020-10-28,34.49162015,-89.00776006
Mississippi,Walthall,644,3,27,0,2020-10-28,31.14971548,-90.10446654
Mississippi,Warren,1561,1,56,0,2020-10-28,32.35810271,-90.83352619
Mississippi,Washington,2627,24,100,1,2020-10-28,33.28392041,-90.94196237
Mississippi,Wayne,1027,0,22,0,2020-10-28,31.64135687,-88.69573913
Mississippi,Webster,378,0,13,0,2020-10-28,33.61300486,-89.28392912
Mississippi,Wilkinson,342,4,21,1,2020-10-28,31.16078225,-91.31018819
Mississippi,Winston,852,6,21,0,2020-10-28,33.08747908,-89.03391385
Mississippi,Yalobusha,564,8,16,2,2020-10-28,34.02824175,-89.70762049999998
Mississippi,Yazoo,1234,7,34,0,2020-10-28,32.77890365,-90.39656148
Missouri,Adair,531,12,0,0,2020-10-28,40.19058551,-92.60078167
Missouri,Andrew,450,7,8,0,2020-10-28,39.98492163,-94.80163024
Missouri,Atchison,77,0,1,0,2020-10-28,40.43238737,-95.42970639
Missouri,Audrain,588,2,10,-1,2020-10-28,39.215877,-91.84242683
Missouri,Barry,844,28,9,0,2020-10-28,36.70978521,-93.82919888
Missouri,Barton,436,4,3,0,2020-10-28,37.50207671,-94.34757022
Missouri,Bates,253,1,5,0,2020-10-28,38.25271289,-94.34113157
Missouri,Benton,484,2,5,0,2020-10-28,38.29503305,-93.28756116
Missouri,Bollinger,511,35,2,0,2020-10-28,37.32449052,-90.02725304
Missouri,Boone,6091,113,14,0,2020-10-28,38.99186229,-92.30723575
Missouri,Buchanan,2985,9,41,1,2020-10-28,39.65816401,-94.80138942
Missouri,Butler,1251,63,8,0,2020-10-28,36.71462476,-90.40421163
Missouri,Caldwell,174,4,1,0,2020-10-28,39.65620858,-93.98308093
Missouri,Callaway,1256,40,5,0,2020-10-28,38.83674754,-91.92186505
Missouri,Camden,1611,9,35,1,2020-10-28,38.02199522,-92.76083747
Missouri,Cape Girardeau,2696,6,50,0,2020-10-28,37.38489388,-89.6843587
Missouri,Carroll,199,4,3,0,2020-10-28,39.42762566,-93.50626255
Missouri,Carter,179,3,3,0,2020-10-28,36.94160441,-90.96051322
Missouri,Cass,2092,34,30,0,2020-10-28,38.64789422,-94.353399
Missouri,Cedar,238,6,4,0,2020-10-28,37.72391475,-93.85445441
Missouri,Chariton,61,1,0,0,2020-10-28,39.51499357,-92.9629191
Missouri,Christian,2316,17,13,0,2020-10-28,36.9711783,-93.18537118
Missouri,Clark,113,0,1,0,2020-10-28,40.41040752,-91.73661677
Missouri,Clay,2570,34,49,0,2020-10-28,39.31132056,-94.41850862
Missouri,Clinton,509,7,19,2,2020-10-28,39.6013098,-94.40465394
Missouri,Cole,3006,44,24,2,2020-10-28,38.50455671,-92.27860244
Missouri,Cooper,626,13,3,0,2020-10-28,38.844478,-92.80896081
Missouri,Crawford,646,7,8,0,2020-10-28,37.97663738,-91.30528104
Missouri,Dade,142,2,0,0,2020-10-28,37.431814,-93.8503345
Missouri,Dallas,364,5,1,0,2020-10-28,37.6811355,-93.02127031
Missouri,Daviess,222,0,3,0,2020-10-28,39.96145298,-93.98519678
Missouri,DeKalb,302,1,2,0,2020-10-28,39.89201062,-94.40476508
Missouri,Dent,257,1,3,0,2020-10-28,37.60663134,-91.50790473
Missouri,Douglas,288,0,12,0,2020-10-28,36.9325593,-92.49905109
Missouri,Dunklin,1147,17,12,0,2020-10-28,36.27167174,-90.09122243
Missouri,Franklin,2723,29,44,0,2020-10-28,38.41127108,-91.07522826
Missouri,Gasconade,265,5,24,0,2020-10-28,38.43947277,-91.50847147
Missouri,Gentry,184,1,10,0,2020-10-28,40.21097916,-94.40944419
Missouri,Greene,9098,79,131,5,2020-10-28,37.2575872,-93.34230916
Missouri,Grundy,264,5,11,0,2020-10-28,40.11406587,-93.56509276
Missouri,Harrison,190,1,1,0,2020-10-28,40.35570088,-93.99222144
Missouri,Henry,386,8,7,0,2020-10-28,38.38482826,-93.79293734
Missouri,Hickory,211,8,3,0,2020-10-28,37.94163617,-93.3203037
Missouri,Holt,120,4,1,0,2020-10-28,40.09799248,-95.2163888
Missouri,Howard,249,2,2,0,2020-10-28,39.1435761,-92.69756691
Missouri,Howell,1188,15,10,0,2020-10-28,36.77383887,-91.88683935
Missouri,Iron,102,-1,0,0,2020-10-28,37.55487945,-90.7735296
Missouri,Jackson,10144,111,126,3,2020-10-28,39.01002188,-94.34724536
Missouri,Jasper,5329,94,75,2,2020-10-28,37.20351921,-94.34050458
Missouri,Jefferson,5644,47,84,0,2020-10-28,38.25926778,-90.53870896
Missouri,Johnson,1503,9,10,0,2020-10-28,38.74719601,-93.80691168
Missouri,Knox,64,0,1,0,2020-10-28,40.12699751,-92.14780832
Missouri,Laclede,1213,16,22,0,2020-10-28,37.65896829,-92.5888493
Missouri,Lafayette,854,9,24,0,2020-10-28,39.06986886,-93.78076396
Missouri,Lawrence,1126,21,21,0,2020-10-28,37.10626634,-93.83293097
Missouri,Lewis,204,3,2,0,2020-10-28,40.09673161,-91.72070156
Missouri,Lincoln,1224,19,5,0,2020-10-28,39.05345619,-90.95588181
Missouri,Linn,164,3,4,0,2020-10-28,39.87001769,-93.10704106
Missouri,Livingston,562,4,8,0,2020-10-28,39.78110272,-93.54645978
Missouri,McDonald,1223,6,12,1,2020-10-28,36.62869595,-94.34867205
Missouri,Macon,223,11,1,0,2020-10-28,39.83049768,-92.56453089
Missouri,Madison,508,9,3,0,2020-10-28,37.47865134,-90.3467143
Missouri,Maries,192,5,0,0,2020-10-28,38.16193985,-91.92249662
Missouri,Marion,938,9,14,0,2020-10-28,39.80601912,-91.62203062
Missouri,Mercer,31,0,0,0,2020-10-28,40.42212303,-93.5682959
Missouri,Miller,886,8,11,2,2020-10-28,38.21450288,-92.42610898
Missouri,Mississippi,447,4,6,0,2020-10-28,36.82516239,-89.29505753
Missouri,Moniteau,634,11,11,1,2020-10-28,38.63571781,-92.57976951
Missouri,Monroe,169,4,2,0,2020-10-28,39.49593978,-92.00043978
Missouri,Montgomery,163,6,1,0,2020-10-28,38.94022054,-91.47000721
Missouri,Morgan,682,10,7,0,2020-10-28,38.4181765,-92.88791859
Missouri,New Madrid,782,8,22,0,2020-10-28,36.59666326,-89.66070007
Missouri,Newton,2045,14,21,0,2020-10-28,36.90519407,-94.3394104
Missouri,Nodaway,1141,13,11,0,2020-10-28,40.36079813,-94.88133008
Missouri,Oregon,233,1,0,0,2020-10-28,36.68710164,-91.4033755
Missouri,Osage,494,6,3,0,2020-10-28,38.46036182,-91.8613635
Missouri,Ozark,214,3,1,0,2020-10-28,36.64916339,-92.44459066
Missouri,Pemiscot,736,6,12,0,2020-10-28,36.2130572,-89.78742322
Missouri,Perry,814,2,8,0,2020-10-28,37.70660776,-89.82741088
Missouri,Pettis,1630,13,19,2,2020-10-28,38.72798918,-93.28471706
Missouri,Phelps,852,14,24,0,2020-10-28,37.87736118,-91.79351727
Missouri,Pike,354,3,8,0,2020-10-28,39.34310674,-91.16980779
Missouri,Platte,1010,19,13,0,2020-10-28,39.38154439,-94.77068479
Missouri,Polk,973,31,10,0,2020-10-28,37.6162296,-93.39828174
Missouri,Pulaski,1020,17,11,0,2020-10-28,37.82462075,-92.20783203
Missouri,Putnam,57,0,1,0,2020-10-28,40.47942497,-93.02042674
Missouri,Ralls,210,3,0,0,2020-10-28,39.52817427,-91.51838643
Missouri,Randolph,627,11,3,0,2020-10-28,39.44007257,-92.4971374
Missouri,Ray,281,7,2,0,2020-10-28,39.3537468,-93.98905745
Missouri,Reynolds,83,3,1,0,2020-10-28,37.36085952,-90.97009925
Missouri,Ripley,273,2,4,0,2020-10-28,36.65460667,-90.85990261
Missouri,St. Charles,10949,122,147,0,2020-10-28,38.77875681,-90.66662425
Missouri,St. Clair,123,2,1,0,2020-10-28,38.03699437,-93.77631447
Missouri,Ste. Genevieve,405,7,1,0,2020-10-28,37.89090059,-90.1949941
Missouri,St. Francois,2887,25,27,0,2020-10-28,37.81214171,-90.47598685
Missouri,St. Louis,30566,431,886,1,2020-10-28,38.63770039999999,-90.4458375
Missouri,Saline,955,3,10,0,2020-10-28,39.13734288,-93.20259964
Missouri,Schuyler,42,1,0,0,2020-10-28,40.46921489,-92.52311943
Missouri,Scotland,73,0,1,0,2020-10-28,40.45214695,-92.14709064
