State,County,Total Cases,New Cases,Total Deaths,New Deaths,Date,Latitude,Longitude
Alabama,Autauga,2385,34,32,0,2020-11-12,32.53952745,-86.64408227
Alabama,Baldwin,7454,45,84,0,2020-11-12,30.72774991,-87.72207058
Alabama,Barbour,1113,1,9,0,2020-11-12,31.868263,-85.3871286
Alabama,Bibb,966,5,17,0,2020-11-12,32.99642064,-87.12511459999997
Alabama,Blount,2429,29,34,0,2020-11-12,33.98210918,-86.56790593
Alabama,Bullock,669,1,19,0,2020-11-12,32.10030533,-85.71265535
Alabama,Butler,1062,0,41,0,2020-11-12,31.75300095,-86.68057478
Alabama,Calhoun,5345,63,77,0,2020-11-12,33.77483727,-85.82630386
Alabama,Chambers,1514,6,48,0,2020-11-12,32.91360079,-85.39072749
Alabama,Cherokee,870,5,15,0,2020-11-12,34.17805983,-85.60638968
Alabama,Chilton,2048,11,36,0,2020-11-12,32.85044126,-86.7173256
Alabama,Choctaw,407,0,12,0,2020-11-12,32.02227341,-88.26564429999998
Alabama,Clarke,1472,5,18,0,2020-11-12,31.68099859,-87.83548597
Alabama,Clay,825,-1,13,0,2020-11-12,33.26984193,-85.85836077
Alabama,Cleburne,646,8,11,0,2020-11-12,33.67679204,-85.52005899
Alabama,Coffee,2074,20,12,0,2020-11-12,31.39932826,-85.98901039
Alabama,Colbert,2603,46,37,0,2020-11-12,34.69847452,-87.80168544
Alabama,Conecuh,627,3,14,0,2020-11-12,31.43401703,-86.99320044
Alabama,Coosa,247,1,3,0,2020-11-12,32.93690146,-86.24847739
Alabama,Covington,1991,9,32,0,2020-11-12,31.2477854,-86.45050893
Alabama,Crenshaw,665,5,30,0,2020-11-12,31.72941803,-86.31593104
Alabama,Cullman,3454,56,30,0,2020-11-12,34.13020303,-86.86888037
Alabama,Dale,2111,21,55,0,2020-11-12,31.43037123,-85.61095742
Alabama,Dallas,2025,5,28,0,2020-11-12,32.32688101,-87.10866709999998
Alabama,DeKalb,4057,52,34,0,2020-11-12,34.45946862,-85.80782906
Alabama,Elmore,3544,22,60,0,2020-11-12,32.59785413,-86.14415284
Alabama,Escambia,1847,0,31,0,2020-11-12,31.1256789,-87.15918694
Alabama,Etowah,5087,57,60,0,2020-11-12,34.04567266,-86.04051873
Alabama,Fayette,702,8,15,0,2020-11-12,33.72076938,-87.73886638
Alabama,Franklin,2286,5,33,0,2020-11-12,34.44235334,-87.84289505
Alabama,Geneva,1065,12,8,0,2020-11-12,31.09389027,-85.83572839
Alabama,Greene,364,2,17,0,2020-11-12,32.85504247,-87.95684022
Alabama,Hale,847,4,30,0,2020-11-12,32.76039258,-87.63284988
Alabama,Henry,799,2,6,0,2020-11-12,31.51148016,-85.24267944
Alabama,Houston,4631,34,36,0,2020-11-12,31.15197924,-85.29939599
Alabama,Jackson,2595,32,23,0,2020-11-12,34.78144169,-85.99750489
Alabama,Jefferson,26813,299,454,12,2020-11-12,33.55554728,-86.89506300000002
Alabama,Lamar,576,6,7,0,2020-11-12,33.77995024,-88.09668032
Alabama,Lauderdale,3140,52,49,0,2020-11-12,34.90171875,-87.65624729
Alabama,Lawrence,1037,9,35,0,2020-11-12,34.52041498,-87.31069453
Alabama,Lee,7043,49,65,0,2020-11-12,32.60154883,-85.35132246
Alabama,Limestone,3512,55,38,0,2020-11-12,34.81185586,-86.98310072
Alabama,Lowndes,753,3,29,0,2020-11-12,32.1597283,-86.65158371
Alabama,Macon,630,9,20,0,2020-11-12,32.38759944,-85.69267724
Alabama,Madison,10806,171,117,0,2020-11-12,34.76327133,-86.55069633
Alabama,Marengo,1116,5,24,0,2020-11-12,32.24767634,-87.78796182
Alabama,Marion,1243,17,33,0,2020-11-12,34.13697363,-87.88704173
Alabama,Marshall,5066,46,53,0,2020-11-12,34.36975964,-86.30486727
Alabama,Mobile,18228,139,334,0,2020-11-12,30.78472347,-88.20842409
Alabama,Monroe,713,5,10,0,2020-11-12,31.56729412,-87.36995001
Alabama,Montgomery,11375,88,221,0,2020-11-12,32.2206831,-86.20969272
Alabama,Morgan,5157,96,41,0,2020-11-12,34.45500589,-86.85475946
Alabama,Perry,631,5,6,0,2020-11-12,32.64048341,-87.29770589
Alabama,Pickens,1040,10,18,0,2020-11-12,33.28094866,-88.08818103
Alabama,Pike,1461,9,14,0,2020-11-12,31.80396383,-85.9408295
Alabama,Randolph,912,3,19,0,2020-11-12,33.29526734,-85.45708831
Alabama,Russell,2033,4,3,0,2020-11-12,32.28725256,-85.18415324
Alabama,St. Clair,3613,33,54,0,2020-11-12,33.71902176,-86.31029372
Alabama,Shelby,8635,96,73,0,2020-11-12,33.26879845,-86.66232561
Alabama,Sumter,517,3,21,0,2020-11-12,32.59117397,-88.19916205
Alabama,Talladega,3045,36,40,0,2020-11-12,33.37823223,-86.16886178
Alabama,Tallapoosa,1542,25,87,0,2020-11-12,32.86698258,-85.79833053
Alabama,Tuscaloosa,11440,71,147,0,2020-11-12,33.28726072,-87.52556818
Alabama,Walker,3203,27,96,0,2020-11-12,33.80270512,-87.30027177
Alabama,Washington,852,11,12,0,2020-11-12,31.4092794,-88.20689944
Alabama,Wilcox,597,0,12,0,2020-11-12,31.98773215,-87.30891118
Alabama,Winston,1082,10,21,0,2020-11-12,34.15030532,-87.37325922
Alaska,Aleutians East,20,0,0,0,2020-11-12,55.32222414,-161.9722021
Alaska,Bristol Bay,0,0,0,0,2020-11-12,58.74513976,-156.701064
Alaska,Denali,37,0,0,0,2020-11-12,63.67264044,-150.0076108
Alaska,Fairbanks North Star,2676,41,17,0,2020-11-12,64.80726247,-146.5692662
Alaska,Haines,16,1,0,0,2020-11-12,59.09893571,-135.4679843
Alaska,Kenai Peninsula,1559,42,5,0,2020-11-12,60.24429722,-151.53888840000005
Alaska,Ketchikan Gateway,153,1,0,0,2020-11-12,55.57445008,-130.975561
Alaska,Kodiak Island,153,3,0,0,2020-11-12,57.65529415,-153.7493579
Alaska,Matanuska-Susitna,2169,41,5,0,2020-11-12,62.31305045,-149.5741743
Alaska,North Slope,361,6,0,0,2020-11-12,69.31479216,-153.4836093
Alaska,Northwest Arctic,301,3,0,0,2020-11-12,67.04919196,-159.7503946
Arizona,Apache,4270,29,187,0,2020-11-12,35.39465006,-109.4892383
Arizona,Cochise,2572,33,76,0,2020-11-12,31.87934684,-109.7516088
Arizona,Coconino,6124,89,153,0,2020-11-12,35.83883429,-111.7707178
Arizona,Gila,2259,15,77,0,2020-11-12,33.80190085,-110.8132779
Arizona,Graham,1562,29,31,0,2020-11-12,32.93166885,-109.8882178
Arizona,Greenlee,122,2,2,0,2020-11-12,33.21498827,-109.2405279
Arizona,La Paz,666,1,18,0,2020-11-12,33.72854224,-113.9810029
Arizona,Maricopa,170842,635,3759,12,2020-11-12,33.34835867,-112.4918154
Arizona,Mohave,4893,17,242,0,2020-11-12,35.70471703,-113.7577902
Arizona,Navajo,6988,59,260,0,2020-11-12,35.3997715,-110.3218983
Arizona,Pima,31538,334,669,0,2020-11-12,32.0971334,-111.7890033
Arizona,Pinal,13174,41,234,0,2020-11-12,32.90525627,-111.3449483
Arizona,Santa Cruz,3208,21,66,0,2020-11-12,31.52508998,-110.8479088
Arizona,Yavapai,3409,2,101,0,2020-11-12,34.59933926,-112.5538588
Arizona,Yuma,14935,92,365,0,2020-11-12,32.76895712,-113.90666740000002
Arkansas,Arkansas,807,9,20,0,2020-11-12,34.29145151,-91.37277296
Arkansas,Ashley,643,11,13,0,2020-11-12,33.19153461,-91.7698471
Arkansas,Baxter,1016,19,16,1,2020-11-12,36.28784385,-92.33782872
Arkansas,Benton,9977,139,133,0,2020-11-12,36.33644656,-94.25680817
Arkansas,Boone,1308,46,40,0,2020-11-12,36.3084504,-93.09374925
Arkansas,Bradley,390,2,8,0,2020-11-12,33.46755808,-92.15980837
Arkansas,Calhoun,95,4,0,0,2020-11-12,33.55598792,-92.49974403
Arkansas,Carroll,1141,13,20,0,2020-11-12,36.34038560000001,-93.54270261
Arkansas,Chicot,1073,4,24,1,2020-11-12,33.26458973,-91.29539209
Arkansas,Clark,648,9,6,0,2020-11-12,34.04613432,-93.17484713
Arkansas,Clay,609,19,17,0,2020-11-12,36.36826212,-90.4148172
Arkansas,Cleburne,570,7,18,0,2020-11-12,35.53864922,-92.02640019
Arkansas,Cleveland,286,1,13,0,2020-11-12,33.89723187,-92.18537045
Arkansas,Columbia,839,7,22,0,2020-11-12,33.21230701,-93.22642793
Arkansas,Conway,453,26,5,1,2020-11-12,35.26205537,-92.70506566
Arkansas,Craighead,5766,68,59,1,2020-11-12,35.83018283,-90.63235729
Arkansas,Crawford,2519,42,33,0,2020-11-12,35.58928601,-94.2446814
Arkansas,Crittenden,2815,24,53,0,2020-11-12,35.21247318,-90.30839406
Arkansas,Cross,653,5,24,1,2020-11-12,35.29631396,-90.77185818
Arkansas,Dallas,211,4,6,0,2020-11-12,33.97042763,-92.65167437
Arkansas,Desha,469,4,8,0,2020-11-12,33.83011025,-91.25500948
Arkansas,Drew,488,5,7,0,2020-11-12,33.59035001,-91.71777921
Arkansas,Faulkner,3942,71,44,0,2020-11-12,35.14719007,-92.33717519
Arkansas,Franklin,644,3,4,0,2020-11-12,35.51202821,-93.89299569
Arkansas,Fulton,415,5,12,0,2020-11-12,36.38177105,-91.81729127
Arkansas,Garland,3053,35,82,0,2020-11-12,34.57692074,-93.14921604
Arkansas,Grant,434,10,4,0,2020-11-12,34.29017991,-92.42320562
Arkansas,Greene,2067,49,24,0,2020-11-12,36.11735460000001,-90.55832668
Arkansas,Hempstead,699,12,5,0,2020-11-12,33.73325583,-93.66935133
Arkansas,Hot Spring,2522,27,39,0,2020-11-12,34.31709259,-92.95396325
Arkansas,Howard,702,5,15,0,2020-11-12,34.09007427,-93.9934871
Arkansas,Independence,1795,10,68,0,2020-11-12,35.74242707,-91.57001641
Arkansas,Izard,862,9,4,0,2020-11-12,36.09604046,-91.90847954
Arkansas,Jackson,1136,34,6,0,2020-11-12,35.59802983,-91.21494602
Arkansas,Jefferson,4679,50,103,0,2020-11-12,34.26767081,-91.92619839
Arkansas,Johnson,1112,7,11,0,2020-11-12,35.56759135,-93.46036368
Arkansas,Lafayette,227,1,3,0,2020-11-12,33.24116713,-93.60677071
Arkansas,Lawrence,986,10,25,0,2020-11-12,36.04188196,-91.10867198
Arkansas,Lee,1129,3,18,0,2020-11-12,34.78498904,-90.78383866
Arkansas,Lincoln,2363,3,18,0,2020-11-12,33.95317155,-91.74002806
Arkansas,Little River,536,10,39,0,2020-11-12,33.70375665,-94.23468591
Arkansas,Logan,696,13,5,0,2020-11-12,35.21413234,-93.71951016
Arkansas,Lonoke,2180,31,36,1,2020-11-12,34.75392199,-91.88742357
Arkansas,Madison,507,11,6,0,2020-11-12,36.01038185,-93.72524943
Arkansas,Marion,246,9,2,0,2020-11-12,36.26844485,-92.68451899
Arkansas,Miller,1850,19,22,0,2020-11-12,33.31403423,-93.89285258
Arkansas,Mississippi,2732,37,73,1,2020-11-12,35.76271485,-90.05194370000002
Arkansas,Monroe,260,2,4,1,2020-11-12,34.6815935,-91.20540287
Arkansas,Montgomery,208,3,9,0,2020-11-12,34.53704874,-93.65824478
Arkansas,Nevada,378,4,14,0,2020-11-12,33.66340119,-93.30632432
Arkansas,Newton,360,5,21,0,2020-11-12,35.91947491,-93.21612969
Arkansas,Ouachita,465,14,9,0,2020-11-12,33.58839816,-92.87795984
Arkansas,Perry,192,4,3,1,2020-11-12,34.9459153,-92.94372564
Arkansas,Phillips,825,7,16,0,2020-11-12,34.43268455,-90.84800154
Arkansas,Pike,307,1,1,0,2020-11-12,34.16250414,-93.65789349
Arkansas,Poinsett,1414,26,32,0,2020-11-12,35.57433534,-90.66268713
Arkansas,Polk,507,19,5,0,2020-11-12,34.48254879,-94.22728802
Arkansas,Pope,3074,27,39,0,2020-11-12,35.44871474,-93.03212219
Arkansas,Prairie,308,4,5,0,2020-11-12,34.83624419,-91.55162157
Arkansas,Pulaski,13855,203,234,3,2020-11-12,34.77054088,-92.31355101
Arkansas,Randolph,799,10,27,1,2020-11-12,36.3415714,-91.02455531
Arkansas,St. Francis,1884,8,11,0,2020-11-12,35.02201976,-90.74828138
Arkansas,Saline,3648,74,44,0,2020-11-12,34.64916145,-92.67583224
Arkansas,Scott,287,4,2,0,2020-11-12,34.85588887,-94.0632176
Arkansas,Searcy,241,3,1,0,2020-11-12,35.9109364,-92.69936482
Arkansas,Sebastian,5887,96,110,3,2020-11-12,35.19605503,-94.27162713
Arkansas,Sevier,1545,4,16,0,2020-11-12,33.99780401,-94.2424869
Arkansas,Sharp,482,16,13,0,2020-11-12,36.16258158,-91.47819342
Arkansas,Stone,423,2,22,0,2020-11-12,35.86251946,-92.15684085
Arkansas,Union,1302,14,54,1,2020-11-12,33.16887091,-92.59746952
Arkansas,Van Buren,258,4,3,0,2020-11-12,35.58095779,-92.51295036
Arkansas,Washington,13049,178,162,0,2020-11-12,35.976844,-94.21800746
Arkansas,White,2122,57,41,0,2020-11-12,35.25688493,-91.74908296
Arkansas,Woodruff,160,2,0,0,2020-11-12,35.18902527,-91.2439489
Arkansas,Yell,1463,11,33,1,2020-11-12,35.00292371,-93.41171338
California,Alameda,25400,151,486,3,2020-11-12,37.64629437,-121.8929271
California,Alpine,26,0,0,0,2020-11-12,38.59678594,-119.8223594
California,Amador,389,5,16,0,2020-11-12,38.44583082,-120.65696
California,Butte,3348,21,56,0,2020-11-12,39.66727762,-121.6005252
California,Calaveras,373,0,21,0,2020-11-12,38.20537103,-120.552913
California,Colusa,591,0,6,0,2020-11-12,39.17881957,-122.2331726
California,Contra Costa,20452,126,253,0,2020-11-12,37.91923498,-121.9289527
California,Del Norte,204,0,1,0,2020-11-12,41.74228275,-123.8974063
California,El Dorado,1564,6,4,0,2020-11-12,38.77965956,-120.5233166
California,Fresno,33287,263,456,0,2020-11-12,36.75733899,-119.6466953
California,Glenn,733,0,5,0,2020-11-12,39.59875897,-122.3938452
California,Humboldt,653,29,10,0,2020-11-12,40.69923009,-123.876044
California,Imperial,13789,92,343,2,2020-11-12,33.0393082,-115.3669042
California,Inyo,256,0,15,0,2020-11-12,36.51112084,-117.41119779999998
California,Kern,35818,208,429,0,2020-11-12,35.34329425,-118.7277796
California,Kings,9263,27,87,0,2020-11-12,36.07409056,-119.8159973
California,Lake,763,0,17,0,2020-11-12,39.10124298,-122.7536244
California,Lassen,906,65,1,0,2020-11-12,40.67311306,-120.59350990000002
California,Los Angeles,330450,2486,7221,5,2020-11-12,34.30828379,-118.2282411
California,Madera,5361,31,76,0,2020-11-12,37.21513971,-119.76655890000002
California,Marin,7284,0,127,0,2020-11-12,38.07122463,-122.7210631
California,Mariposa,89,1,2,0,2020-11-12,37.57978556,-119.9073334
California,Mendocino,1242,0,22,0,2020-11-12,39.4381191,-123.3911313
California,Merced,10193,0,164,0,2020-11-12,37.18922369,-120.7209035
California,Modoc,86,6,0,0,2020-11-12,41.58965602,-120.7244817
California,Mono,443,0,2,0,2020-11-12,37.93899289,-118.8872409
California,Monterey,12534,71,103,1,2020-11-12,36.21862405,-121.2413397
California,Napa,2365,24,17,0,2020-11-12,38.50735751,-122.332839
California,Nevada,741,7,9,0,2020-11-12,39.30394768,-120.7627281
California,Orange,63460,295,1520,6,2020-11-12,33.70147516,-117.76459979999998
California,Placer,5056,63,62,2,2020-11-12,39.06167234,-120.7240569
California,Plumas,119,7,0,0,2020-11-12,40.00355989,-120.8395236
California,Riverside,73541,1200,1355,3,2020-11-12,33.74314981,-115.9933578
California,Sacramento,29014,293,514,0,2020-11-12,38.45106826,-121.3425374
California,San Benito,1563,23,15,0,2020-11-12,36.60308176,-121.069975
California,San Bernardino,71847,775,1096,0,2020-11-12,34.84060306,-116.1774685
California,San Diego,62334,1249,918,3,2020-11-12,33.03484597,-116.7365326
California,San Joaquin,23001,8,500,0,2020-11-12,37.93433732,-121.2730061
California,San Luis Obispo,4846,0,33,0,2020-11-12,35.38822029,-120.4039028
California,San Mateo,12127,0,165,0,2020-11-12,37.4228808,-122.32755459999998
California,Santa Barbara,10278,18,131,0,2020-11-12,34.65329488,-120.0188492
California,Santa Clara,27299,175,440,0,2020-11-12,37.23104908,-121.6970462
California,Santa Cruz,3247,20,26,0,2020-11-12,37.05580291,-122.0066524
California,Shasta,2816,75,36,2,2020-11-12,40.76391419,-122.0396884
California,Sierra,11,0,0,0,2020-11-12,39.57713498,-120.52007009999998
California,Siskiyou,321,0,1,0,2020-11-12,41.59198861,-122.5407434
California,Solano,8596,166,79,0,2020-11-12,38.26827353,-121.9357113
California,Sonoma,10679,73,149,0,2020-11-12,38.52746429,-122.8862506
California,Stanislaus,18852,141,410,0,2020-11-12,37.55862499,-120.9970722
California,Sutter,2089,0,12,0,2020-11-12,39.03417539,-121.6945899
California,Tehama,1105,6,19,0,2020-11-12,40.12570935,-122.2370171
California,Trinity,62,0,0,0,2020-11-12,40.64917670000001,-123.114713
California,Tulare,18610,0,299,0,2020-11-12,36.22026558,-118.8020203
California,Tuolumne,388,24,8,0,2020-11-12,38.02644018,-119.9525093
California,Ventura,15801,176,171,0,2020-11-12,34.44465746,-119.0910613
California,Yolo,3649,37,64,0,2020-11-12,38.68278902,-121.9018288
California,Yuba,1494,0,10,0,2020-11-12,39.26255932,-121.3535644
Colorado,Adams,20346,641,278,1,2020-11-12,39.87432092,-104.3362578
Colorado,Alamosa,425,12,9,0,2020-11-12,37.57250606,-105.7885451
Colorado,Arapahoe,18205,541,396,1,2020-11-12,39.64977461,-104.3353617
Colorado,Archuleta,80,2,0,0,2020-11-12,37.19474156,-107.0476867
Colorado,Baca,42,1,0,0,2020-11-12,37.31940883,-102.5603223
Colorado,Bent,29,1,0,0,2020-11-12,37.95474293,-103.0720195
Colorado,Boulder,7685,260,98,0,2020-11-12,40.09313619,-105.3546767
Colorado,Chaffee,475,2,20,0,2020-11-12,38.74745778,-106.19265729999998
Colorado,Cheyenne,19,3,0,0,2020-11-12,38.82777431,-102.6032558
Colorado,Clear Creek,120,6,1,0,2020-11-12,39.68864463,-105.6463118
Colorado,Conejos,109,2,1,0,2020-11-12,37.201606,-106.19174879999998
Colorado,Costilla,53,2,1,0,2020-11-12,37.27732493,-105.4276548
Colorado,Crowley,351,106,1,0,2020-11-12,38.32608609,-103.7844965
Colorado,Custer,45,1,0,0,2020-11-12,38.10883162,-105.3683478
Colorado,Delta,297,7,3,0,2020-11-12,38.86246243,-107.8631342
Colorado,Dolores,3,0,0,0,2020-11-12,37.75208676,-108.5211585
Colorado,Douglas,6291,211,78,1,2020-11-12,39.33133796,-104.930001
Colorado,Eagle,1789,41,11,0,2020-11-12,39.62754308,-106.6933637
Colorado,Elbert,347,12,3,0,2020-11-12,39.28656773,-104.1358721
Colorado,El Paso,16236,570,216,2,2020-11-12,38.83240149,-104.5251411
Colorado,Fremont,1378,130,2,0,2020-11-12,38.47362326,-105.4399667
Colorado,Garfield,1465,31,7,2,2020-11-12,39.59921777,-107.902708
Colorado,Gilpin,52,3,0,0,2020-11-12,39.85646523,-105.5252597
Colorado,Grand,194,8,1,0,2020-11-12,40.10603347,-106.1178042
Colorado,Gunnison,394,20,7,0,2020-11-12,38.66611652,-107.0320729
Colorado,Hinsdale,5,0,0,0,2020-11-12,37.82247444,-107.3004345
Colorado,Huerfano,72,6,4,1,2020-11-12,37.68473101,-104.9612585
Colorado,Jackson,11,0,0,0,2020-11-12,40.66593870000001,-106.3408905
Colorado,Jefferson,13145,481,361,6,2020-11-12,39.58635604,-105.2517692
Colorado,Kiowa,13,4,0,0,2020-11-12,38.43260896,-102.7392145
Colorado,Kit Carson,220,7,3,0,2020-11-12,39.30497777,-102.6022199
Colorado,Lake,175,2,0,0,2020-11-12,39.20278823,-106.3555697
Colorado,La Plata,555,33,3,0,2020-11-12,37.28632032,-107.8429014
Colorado,Larimer,6195,219,63,0,2020-11-12,40.66671597,-105.4625784
Colorado,Las Animas,103,2,0,0,2020-11-12,37.3153406,-104.0376458
Colorado,Lincoln,43,2,0,0,2020-11-12,38.98749519,-103.5136649
Colorado,Logan,1626,25,15,1,2020-11-12,40.7249637,-103.110817
Colorado,Mesa,3045,247,33,6,2020-11-12,39.01787888,-108.469799
Colorado,Mineral,22,0,0,0,2020-11-12,37.66954283,-106.9281698
Colorado,Moffat,111,-1,1,0,2020-11-12,40.61810999,-108.2070876
Colorado,Montezuma,320,7,5,0,2020-11-12,37.33859579,-108.5958857
Colorado,Montrose,589,11,14,0,2020-11-12,38.40214114,-108.26390220000002
Colorado,Morgan,1129,9,50,0,2020-11-12,40.26279810000001,-103.8093302
Colorado,Otero,249,14,6,0,2020-11-12,37.9014485,-103.7173385
Colorado,Ouray,69,7,2,0,2020-11-12,38.14717457,-107.7675136
Colorado,Park,144,9,1,0,2020-11-12,39.120926,-105.7182065
Colorado,Phillips,101,3,1,0,2020-11-12,40.59414277,-102.3577703
Colorado,Pitkin,349,3,2,0,2020-11-12,39.21720112,-106.9310027
Colorado,Prowers,321,19,11,0,2020-11-12,37.95544985,-102.3926052
Colorado,Pueblo,3982,289,61,1,2020-11-12,38.17359144,-104.5127437
Colorado,Rio Blanco,49,8,0,0,2020-11-12,39.97913541,-108.2179009
Colorado,Rio Grande,150,1,4,0,2020-11-12,37.5836865,-106.3847838
Colorado,Routt,335,10,9,0,2020-11-12,40.48596505,-106.9905548
Colorado,Saguache,187,2,2,0,2020-11-12,38.08054629,-106.282466
Colorado,San Juan,13,0,0,0,2020-11-12,37.76248981,-107.67632890000002
Colorado,San Miguel,128,1,0,0,2020-11-12,38.00450883,-108.4020725
Colorado,Sedgwick,68,6,1,0,2020-11-12,40.87595412,-102.3519227
Colorado,Summit,1057,27,4,0,2020-11-12,39.63803232,-106.1150762
Colorado,Teller,357,18,4,0,2020-11-12,38.88133511,-105.1614893
Colorado,Washington,139,3,1,0,2020-11-12,39.97015535,-103.202587
Colorado,Weld,8881,294,166,0,2020-11-12,40.55499405,-104.3929621
Colorado,Yuma,255,0,1,0,2020-11-12,40.00346839,-102.4258673
Connecticut,Fairfield,29008,277,1455,4,2020-11-12,41.26809896,-73.3881171
Connecticut,Hartford,21516,304,1525,0,2020-11-12,41.80283011,-72.73103891
Connecticut,Litchfield,2906,62,149,1,2020-11-12,41.7937534,-73.2451475
Connecticut,Middlesex,2494,52,197,0,2020-11-12,41.45949668,-72.53714864
Connecticut,New Haven,21237,345,1155,4,2020-11-12,41.4080325,-72.93620426
Connecticut,New London,4518,43,154,0,2020-11-12,41.48896435,-72.10430976
Connecticut,Tolland,2125,36,68,0,2020-11-12,41.85853803,-72.3308481
Connecticut,Windham,1776,38,23,1,2020-11-12,41.82972709,-71.98182316
Delaware,Kent,3901,27,122,0,2020-11-12,39.08646628,-75.56884914
Delaware,New Castle,14800,125,365,6,2020-11-12,39.57992638,-75.64054974
Delaware,Sussex,8752,52,245,2,2020-11-12,38.66143781,-75.39031349
Florida,Alachua,11554,104,84,1,2020-11-12,29.67866525,-82.35928158
Florida,Baker,1880,8,28,0,2020-11-12,30.33060121,-82.28467476
Florida,Bay,7389,39,145,0,2020-11-12,30.26548745,-85.62122584
Florida,Bradford,1292,3,15,0,2020-11-12,29.95079741,-82.16611613
Florida,Brevard,13167,75,400,0,2020-11-12,28.29409504,-80.73091022
Florida,Broward,92657,509,1570,6,2020-11-12,26.15184651,-80.48725556
Florida,Calhoun,781,5,19,0,2020-11-12,30.40666734,-85.19394153
Florida,Charlotte,4152,45,172,2,2020-11-12,26.90131002,-81.92949121
Florida,Citrus,3741,45,143,0,2020-11-12,28.84804315,-82.47614748
Florida,Clay,6737,55,136,0,2020-11-12,29.98319144,-81.85609986
Florida,Collier,15611,45,267,2,2020-11-12,26.11091986,-81.34687065
Florida,Columbia,4452,32,83,3,2020-11-12,30.22509788,-82.62160164
Florida,DeSoto,1760,19,31,1,2020-11-12,27.18677893,-81.80941373
Florida,Dixie,929,3,11,0,2020-11-12,29.60631086,-83.15724673
Florida,Duval,37657,163,547,3,2020-11-12,30.33225875,-81.66976468
Florida,Escambia,14748,139,284,1,2020-11-12,30.67652764,-87.37284571
Florida,Flagler,2337,13,40,0,2020-11-12,29.45933576,-81.31508595
Florida,Franklin,805,3,4,0,2020-11-12,29.83791238,-84.82731662
Florida,Gadsden,3113,7,56,0,2020-11-12,30.57796289,-84.61915825
Florida,Gilchrist,649,4,19,0,2020-11-12,29.72856978,-82.79880657
Florida,Glades,630,0,7,1,2020-11-12,26.95635849,-81.18996211
Florida,Gulf,1009,12,15,0,2020-11-12,29.93543004,-85.24270990000002
Florida,Hamilton,934,0,11,0,2020-11-12,30.49673973,-82.94998918
Florida,Hardee,1678,9,17,0,2020-11-12,27.49293939,-81.80956574
Florida,Hendry,2323,13,44,0,2020-11-12,26.55386945,-81.16469006
Florida,Hernando,4167,40,181,0,2020-11-12,28.55364461,-82.42700204
Florida,Highlands,3062,25,128,2,2020-11-12,27.34254618,-81.34071957
Florida,Hillsborough,52014,379,855,4,2020-11-12,27.9276559,-82.32013172
Florida,Holmes,1011,9,13,0,2020-11-12,30.86747479,-85.81319222
Florida,Indian River,4323,51,126,0,2020-11-12,27.69308961,-80.60556721
Florida,Jackson,3469,41,85,0,2020-11-12,30.7954597,-85.21500423
Florida,Jefferson,715,0,11,0,2020-11-12,30.43669112,-83.89442308
Florida,Lafayette,1287,0,19,0,2020-11-12,29.98484137,-83.18166636
Florida,Lake,9424,64,241,3,2020-11-12,28.76202069,-81.7125123
Florida,Lee,25457,141,538,0,2020-11-12,26.58410348,-81.88399313
Florida,Leon,13326,107,120,0,2020-11-12,30.45955727,-84.27491114
Florida,Levy,1229,2,12,0,2020-11-12,29.31829741,-82.74007147
Florida,Liberty,552,1,12,0,2020-11-12,30.23766008,-84.8829258
Florida,Madison,1158,15,25,0,2020-11-12,30.44396917,-83.47398594
Florida,Manatee,14480,80,340,0,2020-11-12,27.47196942,-82.31831044
Florida,Marion,11508,53,362,0,2020-11-12,29.21227113,-82.05803627
Florida,Martin,5653,23,170,0,2020-11-12,27.0772071,-80.43109784
Florida,Miami-Dade,197196,1205,3701,8,2020-11-12,25.6112362,-80.55170587
Florida,Monroe,2701,55,25,0,2020-11-12,25.20904673,-81.07812416
Florida,Nassau,2678,12,52,0,2020-11-12,30.61037141,-81.80297522
Florida,Okaloosa,7353,73,139,0,2020-11-12,30.69143028,-86.59267105
Florida,Okeechobee,1847,14,43,0,2020-11-12,27.386336199999995,-80.88944347
Florida,Orange,50135,383,600,-1,2020-11-12,28.51367621,-81.31799498
Florida,Osceola,15555,114,229,14,2020-11-12,28.06312234,-81.14882926
Florida,Palm Beach,56907,398,1619,5,2020-11-12,26.64676272,-80.46536002
Florida,Pasco,12199,111,251,0,2020-11-12,28.30810945,-82.40227529
Florida,Pinellas,28486,244,849,11,2020-11-12,27.93130349,-82.72239666
Florida,Polk,24829,168,644,1,2020-11-12,27.95027105,-81.69732947
Florida,Putnam,2520,10,54,0,2020-11-12,29.60779729,-81.74230285
Florida,St. Johns,7304,85,88,0,2020-11-12,29.90096506,-81.43589967
Florida,St. Lucie,9690,59,345,2,2020-11-12,27.37763908,-80.47106649
Florida,Santa Rosa,6423,49,90,1,2020-11-12,30.693414500000006,-87.02458128
Florida,Sarasota,10857,45,356,0,2020-11-12,27.18546175,-82.33174248
Florida,Seminole,11234,89,255,2,2020-11-12,28.7158582,-81.24060348
Florida,Sumter,3114,6,89,0,2020-11-12,28.70181754,-82.0794267
Florida,Suwannee,3093,9,82,0,2020-11-12,30.19746066,-82.99099670000003
Florida,Taylor,1552,5,20,0,2020-11-12,30.04848048,-83.60445406
Florida,Union,1190,0,53,0,2020-11-12,30.04412971,-82.37497443
Florida,Volusia,13986,49,333,0,2020-11-12,29.05858895,-81.18263252
Florida,Wakulla,1430,12,12,0,2020-11-12,30.16548905,-84.39895211
Florida,Walton,3143,34,33,0,2020-11-12,30.64204028,-86.16935664
Florida,Washington,1320,2,24,0,2020-11-12,30.61359259,-85.66002461
Georgia,Appling,1295,6,38,0,2020-11-12,31.74847232,-82.28909114
Georgia,Atkinson,553,3,8,1,2020-11-12,31.29633502,-82.87545866
Georgia,Bacon,728,1,18,-3,2020-11-12,31.55456473,-82.45936528
Georgia,Baker,119,3,6,0,2020-11-12,31.32669878,-84.44218806
Georgia,Baldwin,2502,3,68,0,2020-11-12,33.06882326,-83.24701748
Georgia,Banks,647,9,9,-1,2020-11-12,34.35607081,-83.49644388
Georgia,Barrow,3024,29,56,1,2020-11-12,33.99148694,-83.71436292
Georgia,Bartow,4412,31,97,-4,2020-11-12,34.23732119,-84.83887523
Georgia,Ben Hill,960,1,35,-2,2020-11-12,31.76095874,-83.22145359
Georgia,Berrien,616,2,16,-9,2020-11-12,31.27590016,-83.22529920000002
Georgia,Bibb,7110,35,212,-10,2020-11-12,32.80904227,-83.70489165
Georgia,Bleckley,674,5,28,-1,2020-11-12,32.43829035,-83.33035166
Georgia,Brantley,711,3,13,-1,2020-11-12,31.19576557,-81.97743999
Georgia,Brooks,610,1,26,-3,2020-11-12,30.83922642,-83.58303423
Georgia,Bryan,1390,5,16,-1,2020-11-12,32.00979311,-81.44002948
Georgia,Bulloch,3599,13,34,-14,2020-11-12,32.39577406,-81.74811421
Georgia,Burke,1142,7,12,-2,2020-11-12,33.05917989,-81.99928721
Georgia,Butts,939,8,44,-1,2020-11-12,33.283094500000004,-83.95435040000002
Georgia,Calhoun,305,0,10,0,2020-11-12,31.53169785,-84.62725131
Georgia,Camden,1599,16,18,-2,2020-11-12,30.92951916,-81.66601818
Georgia,Candler,595,0,26,-2,2020-11-12,32.40209349,-82.07702563
Georgia,Carroll,4782,61,81,-8,2020-11-12,33.58138199,-85.07976677
Georgia,Catoosa,1692,12,25,0,2020-11-12,34.89872298,-85.13757014
Georgia,Charlton,751,3,11,-5,2020-11-12,30.78371028,-82.13951596
Georgia,Chatham,10054,63,198,1,2020-11-12,32.00043026,-81.12489526
Georgia,Chattahoochee,1919,40,1,-1,2020-11-12,32.34341231,-84.78809239
Georgia,Chattooga,1122,8,30,-2,2020-11-12,34.47197698,-85.34535662
Georgia,Cherokee,8816,89,109,-2,2020-11-12,34.24393976,-84.47431861
Georgia,Clarke,7329,62,50,-1,2020-11-12,33.95436462,-83.37124007
Georgia,Clay,143,0,3,0,2020-11-12,31.62221166,-84.97713865
Georgia,Clayton,9507,68,187,-1,2020-11-12,33.54187245,-84.35594188
Georgia,Clinch,521,3,13,0,2020-11-12,30.91395822,-82.70432472
Georgia,Cobb,26229,161,480,-10,2020-11-12,33.94243204,-84.5761255
Georgia,Coffee,2656,15,67,-3,2020-11-12,31.54892966,-82.85492059999999
Georgia,Colquitt,2536,1,41,-4,2020-11-12,31.18810588,-83.7677946
Georgia,Columbia,5584,96,69,-3,2020-11-12,33.54534185,-82.263524
Georgia,Cook,755,10,16,-1,2020-11-12,31.16068491,-83.42947229
Georgia,Coweta,4377,25,63,-4,2020-11-12,33.35334302,-84.76129976
Georgia,Crawford,226,0,6,0,2020-11-12,32.71391813,-83.98061238
Georgia,Crisp,873,6,25,-4,2020-11-12,31.92289565,-83.76811843
Georgia,Dade,444,7,6,0,2020-11-12,34.854916700000004,-85.50490424
Georgia,Dawson,994,5,11,0,2020-11-12,34.44244079,-84.16964071
Georgia,Decatur,1506,14,39,-3,2020-11-12,30.87967778,-84.57619536
Georgia,DeKalb,24352,207,421,-12,2020-11-12,33.76944049,-84.22396017
Georgia,Dodge,1007,3,30,-13,2020-11-12,32.17265114,-83.16948926
Georgia,Dooly,453,7,18,-1,2020-11-12,32.15630737,-83.79746561
Georgia,Dougherty,3567,8,195,-3,2020-11-12,31.53328528,-84.21722377
Georgia,Douglas,4950,28,78,-5,2020-11-12,33.70291126,-84.77026156
Georgia,Early,628,7,36,1,2020-11-12,31.32155345,-84.90255207
Georgia,Echols,262,0,2,0,2020-11-12,30.71101099,-82.89687287
Georgia,Effingham,2004,19,29,-1,2020-11-12,32.36616021,-81.34280942
Georgia,Elbert,1001,17,14,-4,2020-11-12,34.11302332,-82.83936148
Georgia,Emanuel,1388,7,42,-2,2020-11-12,32.59221302,-82.30239915
Georgia,Evans,529,2,7,-5,2020-11-12,32.15328841,-81.8870105
Georgia,Fannin,902,7,30,-6,2020-11-12,34.86430205,-84.316964
Georgia,Fayette,2700,21,59,-1,2020-11-12,33.41357794,-84.49089434
Georgia,Floyd,4788,40,66,-2,2020-11-12,34.26268279,-85.21577392
Georgia,Forsyth,5748,43,56,0,2020-11-12,34.22604035,-84.12315129999998
Georgia,Franklin,1083,12,19,-1,2020-11-12,34.37525597,-83.23159927
Georgia,Fulton,35756,256,649,-22,2020-11-12,33.79216944,-84.46319413
Georgia,Gilmer,1162,14,27,-2,2020-11-12,34.69316688,-84.45802506
Georgia,Glascock,70,3,2,0,2020-11-12,33.22879932,-82.61297636
Georgia,Glynn,4017,7,107,-8,2020-11-12,31.23279254,-81.53811412
Georgia,Gordon,2971,40,53,-4,2020-11-12,34.50487351,-84.87296253
Georgia,Grady,961,6,26,-3,2020-11-12,30.87454847,-84.23418364
Georgia,Greene,671,2,26,-2,2020-11-12,33.5769205,-83.17139104
Georgia,Gwinnett,35316,234,472,-13,2020-11-12,33.96044201,-84.02137802
Georgia,Habersham,1992,10,77,-2,2020-11-12,34.63331566,-83.53094677
Georgia,Hall,11580,70,188,-3,2020-11-12,34.32207823,-83.81896936
Georgia,Hancock,435,0,45,0,2020-11-12,33.2721566,-82.99766919
Georgia,Haralson,1068,16,17,0,2020-11-12,33.79602175,-85.21005667
Georgia,Harris,963,5,26,0,2020-11-12,32.73709786,-84.90538572
Georgia,Hart,697,13,19,-5,2020-11-12,34.34626973,-82.96567682
Georgia,Heard,324,5,7,0,2020-11-12,33.29686567,-85.12886832
Georgia,Henry,7584,70,124,-6,2020-11-12,33.4533428,-84.14814659999998
Georgia,Houston,4308,23,98,-2,2020-11-12,32.45802497,-83.66879087
Georgia,Irwin,394,0,11,1,2020-11-12,31.60213036,-83.27501387
Georgia,Jackson,2889,34,46,-3,2020-11-12,34.13794553,-83.56814788
Georgia,Jasper,394,2,4,-2,2020-11-12,33.31535543,-83.68844964
Georgia,Jeff Davis,928,1,27,-4,2020-11-12,31.80405727,-82.63724870000001
Georgia,Jefferson,927,4,36,-2,2020-11-12,33.05867328,-82.41609057
Georgia,Jenkins,491,2,33,0,2020-11-12,32.79248718,-81.96040187
Georgia,Johnson,502,0,25,-2,2020-11-12,32.70211082,-82.66166794
Georgia,Jones,718,3,17,0,2020-11-12,33.02512137,-83.56019163
Georgia,Lamar,584,5,21,-2,2020-11-12,33.07841647,-84.14263877
Georgia,Lanier,376,2,7,-3,2020-11-12,31.038285700000007,-83.06472457
Georgia,Laurens,2471,10,103,-1,2020-11-12,32.46325233,-82.92221316
Georgia,Lee,858,3,32,-1,2020-11-12,31.779330600000005,-84.14324253
Georgia,Liberty,1414,4,28,0,2020-11-12,31.82588896,-81.49251135
Georgia,Lincoln,276,1,8,-2,2020-11-12,33.79201475,-82.45024131
Georgia,Long,310,1,5,0,2020-11-12,31.75218791,-81.74952375
Georgia,Lowndes,5647,44,91,-28,2020-11-12,30.83568832,-83.27056716
Georgia,Lumpkin,1140,12,19,0,2020-11-12,34.57286511,-84.00425681
Georgia,McDuffie,859,12,18,1,2020-11-12,33.47851918,-82.48252774
Georgia,McIntosh,348,1,7,-1,2020-11-12,31.49683595,-81.40163426
Georgia,Macon,304,2,13,0,2020-11-12,32.35207048,-84.04234127
Georgia,Madison,987,10,12,-5,2020-11-12,34.12920917,-83.21218732
Georgia,Marion,237,1,10,0,2020-11-12,32.3483402,-84.52733571
Georgia,Meriwether,738,1,19,0,2020-11-12,33.04163534,-84.68859732
Georgia,Miller,389,-1,2,-1,2020-11-12,31.16568912,-84.73151117
Georgia,Mitchell,934,5,47,-1,2020-11-12,31.22483255,-84.19381821
Georgia,Monroe,931,6,59,0,2020-11-12,33.014289,-83.92097166
Georgia,Montgomery,406,3,9,-1,2020-11-12,32.17201038,-82.53527476
Georgia,Morgan,751,12,6,-1,2020-11-12,33.59232073,-83.49129491
Georgia,Murray,1304,34,13,0,2020-11-12,34.78897608,-84.74993177
Georgia,Muscogee,6907,28,182,-1,2020-11-12,32.50931999,-84.87142262
Georgia,Newton,3433,18,101,-2,2020-11-12,33.55514538,-83.84547140000002
Georgia,Oconee,1229,9,34,0,2020-11-12,33.83749973,-83.43679568
Georgia,Oglethorpe,498,1,13,-1,2020-11-12,33.878629600000004,-83.08278123
Georgia,Paulding,4229,39,70,-1,2020-11-12,33.91969522,-84.86848792
Georgia,Peach,950,5,26,0,2020-11-12,32.56934316,-83.82937
Georgia,Pickens,942,9,12,-2,2020-11-12,34.46589159,-84.46406611
Georgia,Pierce,1155,1,26,-2,2020-11-12,31.35928155,-82.21598442
Georgia,Pike,690,12,12,-4,2020-11-12,33.09310242,-84.38790389
Georgia,Polk,2105,18,30,0,2020-11-12,34.00267074,-85.18677781
Georgia,Pulaski,417,0,24,0,2020-11-12,32.23334561,-83.47549959999998
Georgia,Putnam,934,4,28,0,2020-11-12,33.32056115,-83.37552891
Georgia,Quitman,72,0,1,0,2020-11-12,31.86728114,-85.01773177
Georgia,Rabun,471,4,11,0,2020-11-12,34.88389445,-83.40304637
Georgia,Randolph,364,1,30,0,2020-11-12,31.76622818,-84.75732369
Georgia,Richmond,9176,87,192,-16,2020-11-12,33.35777107,-82.07026432
Georgia,Rockdale,2455,16,44,-1,2020-11-12,33.65145002,-84.02202167
Georgia,Schley,154,1,2,0,2020-11-12,32.2654021,-84.31258912
Georgia,Screven,488,1,11,-1,2020-11-12,32.74976524,-81.60779441
Georgia,Seminole,475,8,11,0,2020-11-12,30.93464824,-84.86823924
Georgia,Spalding,2099,10,67,-5,2020-11-12,33.26310031,-84.28013991
Georgia,Stephens,1363,9,45,-1,2020-11-12,34.55151201,-83.29405315
Georgia,Stewart,620,0,17,0,2020-11-12,32.07996777,-84.83208037
Georgia,Sumter,1173,6,69,-1,2020-11-12,32.03650571,-84.19821492
Georgia,Talbot,221,2,8,0,2020-11-12,32.69642758,-84.53351366
Georgia,Taliaferro,36,1,0,0,2020-11-12,33.56543317,-82.88136816
Georgia,Tattnall,1041,3,19,-4,2020-11-12,32.04785085,-82.05539188
Georgia,Taylor,312,0,13,0,2020-11-12,32.55792548,-84.25077141
Georgia,Telfair,631,1,25,-3,2020-11-12,31.92829517,-82.93491155
Georgia,Terrell,386,0,32,-1,2020-11-12,31.77527543,-84.44069698
Georgia,Thomas,1808,5,73,-4,2020-11-12,30.86392347,-83.91847289
Georgia,Tift,2221,15,67,-7,2020-11-12,31.45743864,-83.5236119
Georgia,Toombs,1609,4,59,-3,2020-11-12,32.12059861,-82.32957247
Georgia,Towns,498,1,16,0,2020-11-12,34.91369188,-83.74107459999998
Georgia,Treutlen,370,1,13,0,2020-11-12,32.40422134,-82.56904553
Georgia,Troup,3672,20,115,1,2020-11-12,33.03349196,-85.02812115
Georgia,Turner,405,0,25,-1,2020-11-12,31.71612656,-83.62069378
Georgia,Twiggs,239,0,11,0,2020-11-12,32.67435595,-83.43078662
Georgia,Union,978,4,31,-1,2020-11-12,34.82995757,-83.98967069
Georgia,Upson,1370,9,71,-7,2020-11-12,32.87920671,-84.30024826
Georgia,Walker,2193,21,47,-1,2020-11-12,34.73376362,-85.30165174
Georgia,Walton,2872,20,74,-1,2020-11-12,33.78017694,-83.73552314
Georgia,Ware,2448,4,67,-6,2020-11-12,31.05449097,-82.42224148
Georgia,Warren,196,1,6,-2,2020-11-12,33.41146451,-82.67795848
Georgia,Washington,989,2,15,-4,2020-11-12,32.96711864,-82.79357039
Georgia,Wayne,1486,15,39,-1,2020-11-12,31.5521809,-81.91894878
Georgia,Webster,57,0,2,0,2020-11-12,32.04066113,-84.54742852
Georgia,Wheeler,418,0,18,-1,2020-11-12,32.12009104,-82.72574721
Georgia,White,1095,9,26,0,2020-11-12,34.64624278,-83.74905525
Georgia,Whitfield,6434,139,71,1,2020-11-12,34.80987459,-84.96093476
Georgia,Wilcox,334,1,25,-2,2020-11-12,31.97496928,-83.43438555
Georgia,Wilkes,378,4,7,0,2020-11-12,33.78290391,-82.74286107
Georgia,Wilkinson,403,1,18,0,2020-11-12,32.80291082,-83.17140684
Georgia,Worth,684,0,35,-1,2020-11-12,31.55162306,-83.85090513
Idaho,Ada,20628,205,204,1,2020-11-12,43.4526575,-116.24155159999998
Idaho,Adams,85,1,2,0,2020-11-12,44.89333571,-116.4545247
Idaho,Bannock,3288,58,20,1,2020-11-12,42.67002716,-112.2233311
Idaho,Bear Lake,123,3,1,0,2020-11-12,42.28269683,-111.32892379999998
Idaho,Benewah,214,0,3,0,2020-11-12,47.21754179,-116.6586851
Idaho,Bingham,2014,41,26,0,2020-11-12,43.21672879999999,-112.3978437
Idaho,Blaine,1054,18,7,0,2020-11-12,43.4085812,-113.9752658
Idaho,Boise,109,1,2,0,2020-11-12,43.98829931,-115.7309284
Idaho,Bonner,673,20,2,0,2020-11-12,48.29996017,-116.6017932
Idaho,Bonneville,5742,103,44,3,2020-11-12,43.38713372,-111.6161537
Idaho,Boundary,283,10,1,0,2020-11-12,48.76684761,-116.4630179
Idaho,Butte,112,0,0,0,2020-11-12,43.72592209,-113.1735463
Idaho,Camas,51,0,0,0,2020-11-12,43.46665742,-114.8065892
Idaho,Canyon,11921,132,128,1,2020-11-12,43.61970148,-116.7095499
Idaho,Caribou,366,2,5,0,2020-11-12,42.77149116,-111.5597683
Idaho,Cassia,1750,16,13,0,2020-11-12,42.28347888,-113.6012409
Idaho,Clark,44,0,0,0,2020-11-12,44.28496071,-112.3505704
Idaho,Clearwater,222,12,0,0,2020-11-12,46.67459924,-115.6622393
Idaho,Custer,115,3,1,0,2020-11-12,44.24186819,-114.2855494
Idaho,Elmore,709,12,4,0,2020-11-12,43.3507101,-115.4701578
Idaho,Franklin,446,5,4,1,2020-11-12,42.18332217,-111.8149666
Idaho,Fremont,582,10,7,1,2020-11-12,44.22800938,-111.4809943
Idaho,Gem,542,10,6,0,2020-11-12,44.06482372,-116.398376
Idaho,Gooding,807,10,9,0,2020-11-12,42.96927962,-114.8108306
Idaho,Idaho,503,21,4,2,2020-11-12,45.84721541,-115.4634436
Idaho,Jefferson,1216,16,5,0,2020-11-12,43.82078483,-112.3131749
Idaho,Jerome,1556,36,9,0,2020-11-12,42.68891267,-114.2655033
Idaho,Kootenai,5542,69,61,0,2020-11-12,47.67282258,-116.7020872
Idaho,Latah,1224,14,1,0,2020-11-12,46.81587887,-116.7113698
Idaho,Lemhi,381,13,5,0,2020-11-12,44.9438088,-113.9309747
Idaho,Lewis,133,12,3,0,2020-11-12,46.23315327,-116.434146
Idaho,Lincoln,299,1,7,0,2020-11-12,43.0012336,-114.1358773
Idaho,Madison,3230,74,7,0,2020-11-12,43.78141028,-111.65384740000002
Idaho,Minidoka,1457,10,11,1,2020-11-12,42.85518524,-113.6357257
Idaho,Nez Perce,1500,46,27,1,2020-11-12,46.32638236,-116.7500975
Idaho,Oneida,90,1,0,0,2020-11-12,42.19494279999999,-112.5407838
Idaho,Owyhee,458,5,5,0,2020-11-12,42.58016894,-116.1693871
Idaho,Payette,1295,9,13,1,2020-11-12,44.00545243,-116.7647695
Idaho,Power,405,1,2,0,2020-11-12,42.69254894,-112.83957420000002
Idaho,Shoshone,360,2,21,0,2020-11-12,47.35364087,-115.8916749
Idaho,Teton,414,10,2,0,2020-11-12,43.75303583,-111.2056773
Idaho,Twin Falls,5588,138,68,3,2020-11-12,42.35440512,-114.6685381
Idaho,Valley,180,3,1,0,2020-11-12,44.76728382,-115.5676773
Idaho,Washington,566,4,8,0,2020-11-12,44.45275475,-116.7847688
Illinois,Adams,3255,120,34,1,2020-11-12,39.98815591,-91.18786813
Illinois,Alexander,196,5,2,0,2020-11-12,37.18049267,-89.32910838
Illinois,Bond,757,9,9,0,2020-11-12,38.88829622,-89.43534887
Illinois,Boone,2861,67,29,0,2020-11-12,42.32359279,-88.82345779
Illinois,Brown,202,3,1,1,2020-11-12,39.96209138,-90.75068024
Illinois,Bureau,1468,25,21,1,2020-11-12,41.40385234,-89.5283051
Illinois,Calhoun,140,5,0,0,2020-11-12,39.16840183,-90.66330078
Illinois,Carroll,806,19,21,0,2020-11-12,42.06823429,-89.93395545
Illinois,Cass,644,-1,12,0,2020-11-12,39.96991073,-90.24734436
Illinois,Champaign,8558,145,37,0,2020-11-12,40.13919438,-88.20046615
Illinois,Christian,1360,47,31,0,2020-11-12,39.54581621,-89.27780482
Illinois,Clark,556,25,19,0,2020-11-12,39.33425789,-87.78705622
Illinois,Clay,495,16,16,0,2020-11-12,38.75388572,-88.48914513
Illinois,Clinton,2392,24,47,8,2020-11-12,38.60704876,-89.42385254
Illinois,Coles,2684,69,53,0,2020-11-12,39.51949084,-88.22358557
Illinois,Cook,236717,5255,5889,8,2020-11-12,41.84144849,-87.81658794
Illinois,Crawford,792,4,8,0,2020-11-12,39.0032229,-87.75954624
Illinois,Cumberland,453,3,6,0,2020-11-12,39.27432424,-88.2401158
Illinois,DeKalb,3739,121,44,1,2020-11-12,41.89373302,-88.76958483
Illinois,De Witt,474,6,10,0,2020-11-12,40.17514519,-88.90959682
Illinois,Douglas,1044,10,10,0,2020-11-12,39.76768052,-88.21854195
Illinois,DuPage,33102,615,691,3,2020-11-12,41.85116968,-88.08642662
Illinois,Edgar,543,8,14,0,2020-11-12,39.6809186,-87.74759563
Illinois,Edwards,148,4,2,1,2020-11-12,38.41353228,-88.05720863
Illinois,Effingham,1871,37,6,0,2020-11-12,39.05935711,-88.58969584
Illinois,Fayette,1094,38,26,0,2020-11-12,39.00072038,-89.02452658
Illinois,Ford,460,15,21,0,2020-11-12,40.59706922,-88.22350769
Illinois,Franklin,1452,38,15,0,2020-11-12,37.99189086,-88.92567818
Illinois,Fulton,934,27,7,1,2020-11-12,40.47289135,-90.20862357
Illinois,Gallatin,146,1,3,0,2020-11-12,37.76430935,-88.22953869
Illinois,Greene,567,17,19,0,2020-11-12,39.35907414,-90.388865
Illinois,Grundy,1784,81,10,0,2020-11-12,41.28569601,-88.41905692
Illinois,Hamilton,238,10,3,0,2020-11-12,38.08163641,-88.53883373
Illinois,Hancock,647,25,5,0,2020-11-12,40.40423981,-91.16313899
Illinois,Hardin,78,0,0,0,2020-11-12,37.51810645,-88.26873022
Illinois,Henderson,194,2,0,0,2020-11-12,40.81908672,-90.92491462
Illinois,Henry,1596,95,11,0,2020-11-12,41.3533994,-90.13296166
Illinois,Iroquois,1055,50,20,0,2020-11-12,40.74717633,-87.82466784
Illinois,Jackson,2057,81,30,0,2020-11-12,37.78595185,-89.38232563
Illinois,Jasper,454,2,10,0,2020-11-12,39.01054275,-88.15437049
Illinois,Jefferson,1339,17,56,0,2020-11-12,38.29980057,-88.9240025
Illinois,Jersey,837,28,22,0,2020-11-12,39.08869046,-90.35393073
Illinois,Jo Daviess,823,43,11,0,2020-11-12,42.36542373,-90.21094405
Illinois,Johnson,529,13,0,0,2020-11-12,37.45939802,-88.88165419
Illinois,Kane,24292,494,390,0,2020-11-12,41.93842729,-88.42861412
Illinois,Kankakee,5679,185,87,0,2020-11-12,41.13746989,-87.86205334
Illinois,Kendall,4455,163,32,0,2020-11-12,41.59081014,-88.42869583
Illinois,Knox,1951,74,38,1,2020-11-12,40.93148779,-90.21330340000002
Illinois,Lake,28602,682,559,3,2020-11-12,42.3224907,-88.00367925
Illinois,LaSalle,4174,128,88,1,2020-11-12,41.34426129999999,-88.88633881
Illinois,Lawrence,534,4,8,0,2020-11-12,38.71987914,-87.72884035
Illinois,Lee,1296,23,9,0,2020-11-12,41.74583951,-89.29977132
Illinois,Livingston,1416,76,14,0,2020-11-12,40.89188292,-88.55784752
Illinois,Logan,1028,39,6,0,2020-11-12,40.12581572,-89.36638784
Illinois,McDonough,1140,0,28,1,2020-11-12,40.45674722,-90.67775541
Illinois,McHenry,10465,354,129,0,2020-11-12,42.32451172,-88.45248227
Illinois,McLean,6208,150,42,0,2020-11-12,40.48996987,-88.84621113
Illinois,Macon,4843,44,87,1,2020-11-12,39.86064913,-88.96342505
Illinois,Macoupin,1344,44,14,0,2020-11-12,39.26119767,-89.92424028
Illinois,Madison,10169,218,173,0,2020-11-12,38.83042506,-89.90422563
Illinois,Marion,1640,59,32,0,2020-11-12,38.64963204,-88.91899208
Illinois,Marshall,236,8,4,0,2020-11-12,41.0327901,-89.34510444
Illinois,Mason,451,7,14,0,2020-11-12,40.23917274,-89.91824452
Illinois,Massac,264,7,2,0,2020-11-12,37.22078441,-88.71036614
Illinois,Menard,281,11,1,0,2020-11-12,40.02742725,-89.80246001
Illinois,Mercer,525,19,7,0,2020-11-12,41.20596782,-90.74290052
Illinois,Monroe,1406,25,40,0,2020-11-12,38.27594376,-90.17761038
Illinois,Montgomery,867,21,19,2,2020-11-12,39.23198845,-89.47809254
Illinois,Morgan,1491,42,29,1,2020-11-12,39.71654544,-90.20255104
Illinois,Moultrie,644,14,8,0,2020-11-12,39.64187451,-88.62099969
Illinois,Ogle,2030,53,9,0,2020-11-12,42.04165196,-89.32184679
Illinois,Peoria,6471,107,99,2,2020-11-12,40.78702156,-89.76078901
Illinois,Perry,695,11,16,0,2020-11-12,38.08510853,-89.36856219
Illinois,Piatt,539,29,5,0,2020-11-12,40.01360584,-88.59319339
Illinois,Pike,711,21,15,0,2020-11-12,39.62265059,-90.8877017
Illinois,Pope,59,2,1,0,2020-11-12,37.41391284,-88.56152109
Illinois,Pulaski,305,5,1,0,2020-11-12,37.22631423,-89.13085001
Illinois,Putnam,151,6,0,0,2020-11-12,41.2013541,-89.2869272
Illinois,Randolph,1666,25,19,0,2020-11-12,38.05095369,-89.82512254
Illinois,Richland,474,18,19,0,2020-11-12,38.71240969,-88.08475366
Illinois,Rock Island,6189,177,108,0,2020-11-12,41.46613806,-90.57042164
Illinois,St. Clair,9923,127,244,1,2020-11-12,38.46996033,-89.93063427
Illinois,Saline,818,9,16,0,2020-11-12,37.75332999,-88.54119706
Illinois,Sangamon,6913,211,70,0,2020-11-12,39.75836914,-89.65872023
Illinois,Schuyler,140,1,1,0,2020-11-12,40.1571798,-90.61114163
Illinois,Scott,172,6,0,0,2020-11-12,39.6429169,-90.47814431
Illinois,Shelby,987,28,22,0,2020-11-12,39.39133527,-88.80611122
Illinois,Stark,149,4,3,0,2020-11-12,41.09309773,-89.79745866
Illinois,Stephenson,1868,73,16,0,2020-11-12,42.35129217,-89.662598
Illinois,Tazewell,4251,141,68,1,2020-11-12,40.50716185,-89.51404662
Illinois,Union,923,13,26,0,2020-11-12,37.47119609,-89.25548938
Illinois,Vermilion,2628,68,26,1,2020-11-12,40.18417171,-87.73384359
Illinois,Wabash,359,-1,6,0,2020-11-12,38.44272901,-87.84922065
Illinois,Warren,763,23,12,0,2020-11-12,40.84925021,-90.6147432
Illinois,Washington,457,7,2,0,2020-11-12,38.35309213,-89.40982703
Illinois,Wayne,691,23,25,1,2020-11-12,38.42955355,-88.42586459
Illinois,White,383,4,8,0,2020-11-12,38.08706198,-88.17657461
Illinois,Whiteside,2722,140,67,4,2020-11-12,41.75509713,-89.91556058
Illinois,Will,27412,785,493,2,2020-11-12,41.44619267,-87.97862712
Illinois,Williamson,2668,74,68,0,2020-11-12,37.73033511,-88.92994027
Illinois,Winnebago,14757,259,219,0,2020-11-12,42.33641854,-89.16085327
Illinois,Woodford,1130,40,21,1,2020-11-12,40.78579374,-89.20973757
Indiana,Adams,1118,76,14,0,2020-11-12,40.7457653,-84.93671406
Indiana,Allen,12776,396,259,4,2020-11-12,41.09194313,-85.06800636
Indiana,Bartholomew,2090,69,61,0,2020-11-12,39.20744865,-85.89558181
Indiana,Benton,195,20,1,0,2020-11-12,40.60626947,-87.31093999
Indiana,Blackford,355,5,8,0,2020-11-12,40.47388153,-85.32499702
Indiana,Boone,1786,56,52,1,2020-11-12,40.0509304,-86.46841646
Indiana,Brown,228,5,3,0,2020-11-12,39.19605589,-86.22868909
Indiana,Carroll,514,9,13,0,2020-11-12,40.580783200000006,-86.56198812
Indiana,Cass,2645,29,27,0,2020-11-12,40.76135835,-86.34830753
Indiana,Clark,3922,78,69,0,2020-11-12,38.48015445,-85.70510334
Indiana,Clay,758,37,19,1,2020-11-12,39.39561833,-87.11723506
Indiana,Clinton,1351,21,18,0,2020-11-12,40.30319754,-86.47277257
Indiana,Crawford,213,7,1,0,2020-11-12,38.28814402,-86.44518825
Indiana,Daviess,1183,21,41,1,2020-11-12,38.70186039,-87.07185406
Indiana,Dearborn,1487,57,28,0,2020-11-12,39.14647946,-84.97333539
Indiana,Decatur,922,50,40,1,2020-11-12,39.30712658,-85.50087166
Indiana,DeKalb,1243,52,16,1,2020-11-12,41.39804622,-84.99906934
Indiana,Delaware,3898,45,94,0,2020-11-12,40.22787247,-85.39732772
Indiana,Dubois,1973,34,29,0,2020-11-12,38.36597551,-86.87924170000002
Indiana,Elkhart,13246,411,179,2,2020-11-12,41.59761169,-85.85875695
Indiana,Fayette,1160,29,27,0,2020-11-12,39.63684962,-85.17797541
Indiana,Floyd,2469,102,74,0,2020-11-12,38.32117957,-85.90385377
Indiana,Fountain,539,24,7,2,2020-11-12,40.12361933,-87.24217689
Indiana,Franklin,500,12,25,0,2020-11-12,39.4142482,-85.06062647
Indiana,Fulton,592,14,14,0,2020-11-12,41.0469907,-86.26252745
Indiana,Gibson,1298,32,17,3,2020-11-12,38.30393723,-87.58054938
Indiana,Grant,1837,47,45,1,2020-11-12,40.51587228,-85.65468702
Indiana,Greene,773,12,47,0,2020-11-12,39.03630547,-86.96223202
Indiana,Hamilton,9315,326,151,2,2020-11-12,40.07306535,-86.05244729
Indiana,Hancock,1805,57,46,1,2020-11-12,39.82304555,-85.77566351
Indiana,Harrison,1069,43,24,0,2020-11-12,38.19467379,-86.10948271
Indiana,Hendricks,4389,117,147,0,2020-11-12,39.76719009,-86.51037283
Indiana,Henry,1854,22,32,0,2020-11-12,39.93029017,-85.39625719
Indiana,Howard,2249,77,71,0,2020-11-12,40.48527731,-86.11351892
Indiana,Huntington,794,36,7,0,2020-11-12,40.82907273,-85.48822092
Indiana,Jackson,1589,25,28,0,2020-11-12,38.90915820000001,-86.03851889
Indiana,Jasper,1060,28,7,0,2020-11-12,41.02078733,-87.11553319
Indiana,Jay,646,23,8,0,2020-11-12,40.43781032,-85.00576229
Indiana,Jefferson,702,35,8,0,2020-11-12,38.78576239,-85.43633383
Indiana,Jennings,590,23,13,0,2020-11-12,38.99588883,-85.62710784
Indiana,Johnson,4507,110,158,0,2020-11-12,39.48994426,-86.10149107
Indiana,Knox,1299,51,12,0,2020-11-12,38.68861576,-87.4194665
Indiana,Kosciusko,3153,69,36,1,2020-11-12,41.24521668,-85.86312322
Indiana,LaGrange,1131,46,20,0,2020-11-12,41.64232188,-85.42674232
Indiana,Lake,20908,608,403,2,2020-11-12,41.41874274,-87.38277575
Indiana,LaPorte,3429,96,82,1,2020-11-12,41.54366008,-86.74072188
Indiana,Lawrence,1369,12,42,0,2020-11-12,38.84112637,-86.48361629
Indiana,Madison,3573,88,110,0,2020-11-12,40.16143691,-85.71964711
Indiana,Marion,32962,931,814,4,2020-11-12,39.78163624,-86.13826325
Indiana,Marshall,2205,44,33,0,2020-11-12,41.32467367,-86.26185087
Indiana,Martin,263,2,2,0,2020-11-12,38.7099921,-86.80373186
Indiana,Miami,1045,29,9,0,2020-11-12,40.76940965,-86.04525048
Indiana,Monroe,4141,108,42,0,2020-11-12,39.16130004,-86.52414358
Indiana,Montgomery,972,16,23,0,2020-11-12,40.04034823,-86.89335024
Indiana,Morgan,1484,36,42,1,2020-11-12,39.47899078,-86.44573375
Indiana,Newton,407,32,12,0,2020-11-12,40.95610449,-87.39635768
Indiana,Noble,1827,65,40,0,2020-11-12,41.39672484,-85.41966713
Indiana,Ohio,176,3,7,0,2020-11-12,38.955305,-84.96515993
Indiana,Orange,532,10,27,0,2020-11-12,38.54118920000001,-86.49523093
Indiana,Owen,409,16,2,1,2020-11-12,39.31145587,-86.83900724
Indiana,Parke,382,6,6,0,2020-11-12,39.77202286,-87.20375833
Indiana,Perry,678,8,19,0,2020-11-12,38.07809328,-86.63741946
Indiana,Pike,438,5,18,0,2020-11-12,38.40112197,-87.23574907
Indiana,Porter,5779,266,65,0,2020-11-12,41.45986947,-87.06848888
Indiana,Posey,993,17,13,2,2020-11-12,38.02097333,-87.86480429
Indiana,Pulaski,291,12,10,0,2020-11-12,41.04166107,-86.69890683
Indiana,Putnam,963,26,23,0,2020-11-12,39.66437981,-86.84517605
Indiana,Randolph,805,28,13,0,2020-11-12,40.15734772,-85.01139319
Indiana,Ripley,821,37,12,0,2020-11-12,39.10235626,-85.26212744
Indiana,Rush,404,12,6,0,2020-11-12,39.62002287,-85.4655599
Indiana,St. Joseph,13147,349,192,2,2020-11-12,41.61756781,-86.29040834
Indiana,Scott,711,10,17,0,2020-11-12,38.68672078,-85.74627859
Indiana,Shelby,1362,33,48,0,2020-11-12,39.52305623,-85.79158570000001
Indiana,Spencer,617,15,7,0,2020-11-12,38.01519732,-87.0079644
Indiana,Starke,694,16,16,0,2020-11-12,41.27890281,-86.64686895
Indiana,Steuben,1008,35,11,1,2020-11-12,41.64423868,-85.00101094
Indiana,Sullivan,616,14,15,0,2020-11-12,39.08952258,-87.41414469
Indiana,Switzerland,187,18,1,0,2020-11-12,38.82767338,-85.03022429
Indiana,Tippecanoe,6046,204,23,1,2020-11-12,40.38872739,-86.89413959
Indiana,Tipton,398,12,23,0,2020-11-12,40.31123252,-86.05234925
Indiana,Union,198,9,1,0,2020-11-12,39.62550777,-84.92497066
Indiana,Vanderburgh,7787,96,95,3,2020-11-12,38.02658833,-87.58763124
Indiana,Vermillion,401,18,2,0,2020-11-12,39.8523352,-87.46160542
Indiana,Vigo,4218,128,65,5,2020-11-12,39.42944561,-87.39169027
Indiana,Wabash,969,50,15,0,2020-11-12,40.84704239,-85.79328272
Indiana,Warren,161,9,1,0,2020-11-12,40.34728141,-87.35602659
Indiana,Warrick,2608,33,68,1,2020-11-12,38.08922676,-87.2716085
Indiana,Washington,526,22,5,1,2020-11-12,38.60219804,-86.1049363
Indiana,Wayne,2233,84,43,1,2020-11-12,39.8633444,-85.01044989
Indiana,Wells,815,35,19,3,2020-11-12,40.72934187,-85.22132966
Indiana,White,900,16,19,1,2020-11-12,40.74911165,-86.86492015
Indiana,Whitley,884,34,6,0,2020-11-12,41.13863784,-85.50791236
Iowa,Adair,316,11,4,0,2020-11-12,41.33075609,-94.47105874
Iowa,Adams,123,3,1,0,2020-11-12,41.02903567,-94.69932645
Iowa,Allamakee,567,12,9,0,2020-11-12,43.28383218,-91.37860922
Iowa,Appanoose,546,32,3,0,2020-11-12,40.74324454,-92.86865906
Iowa,Audubon,244,0,1,0,2020-11-12,41.6844628,-94.90581859
Iowa,Benton,1225,44,9,2,2020-11-12,42.08011739,-92.06463573
Iowa,Black Hawk,8571,243,112,0,2020-11-12,42.4704581,-92.30524729
Iowa,Boone,1019,24,10,0,2020-11-12,42.03657094,-93.9313999
Iowa,Bremer,1330,53,12,0,2020-11-12,42.77461496,-92.31795937
Iowa,Buchanan,826,38,6,0,2020-11-12,42.4709188,-91.83510825
Iowa,Buena Vista,2632,31,13,0,2020-11-12,42.73545875,-95.15100162
Iowa,Butler,692,24,3,0,2020-11-12,42.73172833,-92.79015971
Iowa,Calhoun,766,21,6,0,2020-11-12,42.38521079,-94.64046046
Iowa,Carroll,1632,23,14,0,2020-11-12,42.03617207,-94.86032705
Iowa,Cass,608,2,13,0,2020-11-12,41.33149454,-94.92792482
Iowa,Cedar,785,29,12,1,2020-11-12,41.77233777,-91.13246684
Iowa,Cerro Gordo,2376,71,31,0,2020-11-12,43.08177563,-93.2612239
Iowa,Cherokee,587,7,3,0,2020-11-12,42.73538914,-95.62389402
Iowa,Chickasaw,559,22,1,0,2020-11-12,43.06001295,-92.31773347
Iowa,Clarke,411,4,4,0,2020-11-12,41.02868181,-93.78499767
Iowa,Clay,829,28,4,0,2020-11-12,43.08247182,-95.15096481
Iowa,Clayton,788,29,4,0,2020-11-12,42.84443388,-91.34133693
Iowa,Clinton,2370,83,34,1,2020-11-12,41.89981633,-90.53275096
Iowa,Crawford,1572,17,15,0,2020-11-12,42.03718237,-95.3819718
Iowa,Dallas,4908,131,53,0,2020-11-12,41.68560356,-94.04127625
Iowa,Davis,295,14,4,0,2020-11-12,40.74773536,-92.41005468
Iowa,Decatur,251,9,0,0,2020-11-12,40.73742757,-93.78645949
Iowa,Delaware,1139,40,18,0,2020-11-12,42.47104597,-91.3664492
Iowa,Des Moines,2193,43,13,0,2020-11-12,40.92012606,-91.18326592
Iowa,Dickinson,1047,24,9,0,2020-11-12,43.37787725,-95.1510206
Iowa,Dubuque,7388,170,77,1,2020-11-12,42.46815349,-90.88181925
Iowa,Emmet,581,14,21,0,2020-11-12,43.37782951,-94.67858943
Iowa,Fayette,739,34,8,1,2020-11-12,42.86271799,-91.8441231
Iowa,Floyd,667,17,12,0,2020-11-12,43.06000529999999,-92.78940097
Iowa,Franklin,531,15,19,0,2020-11-12,42.73270384,-93.26256925
Iowa,Fremont,269,2,2,0,2020-11-12,40.74542720000001,-95.60129045
Iowa,Greene,360,17,0,0,2020-11-12,42.03614551,-94.39658081
Iowa,Grundy,584,32,6,0,2020-11-12,42.40183723,-92.78829551
Iowa,Guthrie,564,10,15,0,2020-11-12,41.68378965,-94.50111014
Iowa,Hamilton,682,33,6,0,2020-11-12,42.38382428,-93.70197703
Iowa,Hancock,611,11,6,0,2020-11-12,43.08178477,-93.73454884
Iowa,Hardin,804,28,9,1,2020-11-12,42.38353877,-93.23654611
Iowa,Harrison,864,13,24,0,2020-11-12,41.68330137,-95.81558439
Iowa,Henry,1472,33,7,0,2020-11-12,40.98767962,-91.54436349
Iowa,Howard,371,12,9,0,2020-11-12,43.35671042,-92.31702714
Iowa,Humboldt,547,13,3,0,2020-11-12,42.7764426,-94.20722537
Iowa,Ida,359,10,6,1,2020-11-12,42.38696136,-95.51355387
Iowa,Iowa,707,26,11,0,2020-11-12,41.68630265,-92.0643373
Iowa,Jackson,1128,32,5,0,2020-11-12,42.17178824,-90.57354837
Iowa,Jasper,1703,51,34,0,2020-11-12,41.68576082,-93.05567785
Iowa,Jefferson,456,27,1,0,2020-11-12,41.03192394,-91.94849466
Iowa,Johnson,7829,168,34,0,2020-11-12,41.67169354,-91.58754744
Iowa,Jones,1711,152,7,0,2020-11-12,42.12118609,-91.13139641
Iowa,Keokuk,405,43,2,0,2020-11-12,41.33649833,-92.1785067
Iowa,Kossuth,700,15,1,0,2020-11-12,43.20405458,-94.20691791
Iowa,Lee,1507,40,14,0,2020-11-12,40.64181461,-91.48183025
Iowa,Linn,10580,399,145,0,2020-11-12,42.07923082,-91.59809485
Iowa,Louisa,690,3,16,0,2020-11-12,41.21842119,-91.26102611
Iowa,Lucas,273,2,6,0,2020-11-12,41.02958964,-93.32780803
Iowa,Lyon,744,30,8,0,2020-11-12,43.38107862,-96.20926845
Iowa,Madison,508,16,4,0,2020-11-12,41.33081904,-94.01554631
Iowa,Mahaska,1016,20,26,0,2020-11-12,41.33521503,-92.64083907
Iowa,Marion,1503,21,15,1,2020-11-12,41.33445101,-93.09934783
Iowa,Marshall,2847,68,38,0,2020-11-12,42.03586837,-92.9990819
Iowa,Mills,703,20,4,0,2020-11-12,41.03299766,-95.61920963
Iowa,Mitchell,516,14,3,1,2020-11-12,43.35638371,-92.78887719
Iowa,Monona,316,7,2,0,2020-11-12,42.05220391,-95.95743843
Iowa,Monroe,350,8,12,0,2020-11-12,41.02988815,-92.8690667
Iowa,Montgomery,308,4,8,0,2020-11-12,41.03018714,-95.15642896
Iowa,Muscatine,2157,82,61,0,2020-11-12,41.48370744,-91.1121697
Iowa,O'Brien,1052,19,24,1,2020-11-12,43.08310673,-95.62474482
Iowa,Osceola,406,13,0,0,2020-11-12,43.37824276,-95.62422844
Iowa,Page,846,83,1,0,2020-11-12,40.7393172,-95.1497813
Iowa,Palo Alto,457,11,3,0,2020-11-12,43.08193849,-94.67824621
Iowa,Plymouth,2250,69,34,0,2020-11-12,42.737633,-96.21366621
Iowa,Pocahontas,420,12,2,0,2020-11-12,42.73420133,-94.67862564
Iowa,Polk,25841,638,302,1,2020-11-12,41.68679484,-93.57767461
Iowa,Pottawattamie,4378,76,53,1,2020-11-12,41.33640314,-95.53907776
Iowa,Poweshiek,760,32,11,0,2020-11-12,41.68625425,-92.53155731
Iowa,Ringgold,133,2,2,0,2020-11-12,40.73518949,-94.24368535
Iowa,Sac,619,11,5,0,2020-11-12,42.38624071,-95.10547892
Iowa,Scott,7778,426,56,2,2020-11-12,41.63935978,-90.61959493
Iowa,Shelby,594,11,3,1,2020-11-12,41.6850066,-95.31015553
Iowa,Sioux,3104,39,22,1,2020-11-12,43.08221074,-96.1767568
Iowa,Story,5288,108,18,0,2020-11-12,42.03621213,-93.46499005
Iowa,Tama,1285,29,38,0,2020-11-12,42.07991767,-92.53266945
Iowa,Taylor,348,9,2,0,2020-11-12,40.73710579,-94.69778563
Iowa,Union,459,15,6,0,2020-11-12,41.0277278,-94.24234847
Iowa,Van Buren,275,9,3,1,2020-11-12,40.75326764,-91.95017958
Iowa,Wapello,2035,68,68,0,2020-11-12,41.03064984,-92.40954728
Iowa,Warren,1967,78,9,0,2020-11-12,41.33559454,-93.56007641
Iowa,Washington,1017,45,12,0,2020-11-12,41.33577126,-91.71725711
Iowa,Wayne,247,6,5,0,2020-11-12,40.73969028,-93.32752197
Iowa,Webster,2687,48,21,1,2020-11-12,42.42853483,-94.17987389
Iowa,Winnebago,678,12,21,0,2020-11-12,43.37751174,-93.73407298
Iowa,Winneshiek,699,23,9,0,2020-11-12,43.29094334,-91.84422722
Iowa,Woodbury,8895,141,105,0,2020-11-12,42.38979414,-96.0459439
Iowa,Worth,230,2,0,0,2020-11-12,43.37750768,-93.26087602
Iowa,Wright,966,11,3,0,2020-11-12,42.73305373,-93.73515113
Kansas,Allen,212,0,1,0,2020-11-12,37.88582951,-95.30030847
Kansas,Anderson,292,0,0,0,2020-11-12,38.21413251,-95.29272815
Kansas,Atchison,645,0,7,0,2020-11-12,39.53185661,-95.30870026
Kansas,Barber,138,0,0,0,2020-11-12,37.2288586,-98.68460053
Kansas,Barton,1130,50,12,0,2020-11-12,38.47889676,-98.75636726
Kansas,Bourbon,365,0,3,0,2020-11-12,37.85508555,-94.84865997
Kansas,Brown,397,0,6,0,2020-11-12,39.82652589,-95.56421698
Kansas,Butler,2138,0,4,0,2020-11-12,37.78134351,-96.83878537
Kansas,Chase,124,0,3,0,2020-11-12,38.30292938,-96.59563862
Kansas,Chautauqua,37,0,0,0,2020-11-12,37.14994405,-96.2454192
Kansas,Cherokee,859,0,7,0,2020-11-12,37.16928494,-94.8462897
Kansas,Cheyenne,164,0,7,0,2020-11-12,39.78580976,-101.7318201
Kansas,Clark,84,0,4,0,2020-11-12,37.23577007,-99.81883015
Kansas,Clay,243,0,8,0,2020-11-12,39.34948772,-97.16518128
Kansas,Cloud,351,0,1,0,2020-11-12,39.48028352,-97.64925343
Kansas,Coffey,233,0,9,0,2020-11-12,38.2365018,-95.73379515
Kansas,Comanche,23,0,0,0,2020-11-12,37.19114520000001,-99.27113247
Kansas,Cowley,861,0,10,0,2020-11-12,37.23781842,-96.83776647
Kansas,Crawford,1810,0,14,0,2020-11-12,37.50675523,-94.85245778
Kansas,Decatur,177,0,1,0,2020-11-12,39.78468441,-100.4594081
Kansas,Dickinson,533,0,5,0,2020-11-12,38.86600962,-97.15532383
Kansas,Doniphan,287,0,2,0,2020-11-12,39.79067154,-95.14056866
Kansas,Douglas,3636,112,19,0,2020-11-12,38.88503636,-95.2925121
Kansas,Edwards,105,0,0,0,2020-11-12,37.88735543,-99.31263309
Kansas,Elk,28,0,0,0,2020-11-12,37.45338105,-96.24369667
Kansas,Ellis,1736,0,18,0,2020-11-12,38.91458712,-99.31751551
Kansas,Ellsworth,459,0,3,0,2020-11-12,38.69677695,-98.20462799
Kansas,Finney,3826,87,23,0,2020-11-12,38.04340344,-100.7381938
Kansas,Ford,4022,0,13,0,2020-11-12,37.69200114,-99.88825298
Kansas,Franklin,790,0,8,0,2020-11-12,38.56443815,-95.28644341
Kansas,Geary,677,0,4,0,2020-11-12,38.99871131,-96.7577178
Kansas,Gove,246,0,19,0,2020-11-12,38.91588178,-100.4829321
Kansas,Graham,84,0,2,0,2020-11-12,39.34987223,-99.88332493
Kansas,Grant,570,10,9,0,2020-11-12,37.56227336,-101.3079758
Kansas,Gray,301,0,4,0,2020-11-12,37.73836671,-100.4369088
Kansas,Greeley,62,0,0,0,2020-11-12,38.4808095,-101.8061079
Kansas,Greenwood,157,0,0,0,2020-11-12,37.8774388,-96.23250453
Kansas,Hamilton,80,0,0,0,2020-11-12,37.99978709,-101.7921066
Kansas,Harper,202,0,4,0,2020-11-12,37.19175361,-98.07578384
Kansas,Harvey,1147,0,8,0,2020-11-12,38.04293782,-97.42747573
Kansas,Haskell,202,0,1,0,2020-11-12,37.5620394,-100.8710738
Kansas,Hodgeman,100,0,0,0,2020-11-12,38.08780079,-99.89829881
Kansas,Jackson,450,0,4,0,2020-11-12,39.41673394,-95.79356799
Kansas,Jefferson,429,0,6,0,2020-11-12,39.2347941,-95.38289232
Kansas,Jewell,38,0,1,0,2020-11-12,39.78470589,-98.21820662
Kansas,Johnson,19808,0,239,1,2020-11-12,38.88548175,-94.82250877
Kansas,Kearny,199,0,8,0,2020-11-12,38.00017981,-101.321681
Kansas,Kingman,212,0,3,0,2020-11-12,37.55909527,-98.13638678
Kansas,Kiowa,100,0,0,0,2020-11-12,37.55848695,-99.2856537
Kansas,Labette,544,0,6,0,2020-11-12,37.19113093,-95.29849679
Kansas,Lane,46,0,0,0,2020-11-12,38.48119447,-100.4660754
Kansas,Leavenworth,3010,0,25,0,2020-11-12,39.20183497,-95.03620809
Kansas,Lincoln,28,0,1,0,2020-11-12,39.04549684,-98.20756994
Kansas,Linn,180,0,1,0,2020-11-12,38.21267844,-94.84254089
Kansas,Logan,175,0,0,0,2020-11-12,38.91735806,-101.148475
Kansas,Lyon,1713,0,41,0,2020-11-12,38.45576156,-96.15275715
Kansas,McPherson,802,13,8,0,2020-11-12,38.39184858,-97.64769869
Kansas,Marion,288,0,1,0,2020-11-12,38.35855394,-97.0985251
Kansas,Marshall,227,0,0,0,2020-11-12,39.78359669,-96.52278974
Kansas,Meade,217,0,2,0,2020-11-12,37.23859987,-100.364831
Kansas,Miami,712,0,2,0,2020-11-12,38.56383358,-94.83832189
Kansas,Mitchell,84,0,0,0,2020-11-12,39.39331582,-98.20906732
Kansas,Montgomery,831,0,6,0,2020-11-12,37.19236568,-95.74329258
Kansas,Morris,123,0,1,0,2020-11-12,38.68827511,-96.65128437
Kansas,Morton,86,0,3,0,2020-11-12,37.19141121,-101.79925190000002
Kansas,Nemaha,622,0,5,0,2020-11-12,39.78345387,-96.01392079
Kansas,Neosho,455,0,0,0,2020-11-12,37.55862897,-95.30670046
Kansas,Ness,177,0,9,0,2020-11-12,38.47974157,-99.91547333
Kansas,Norton,963,0,21,0,2020-11-12,39.78443827,-99.90286639
Kansas,Osage,261,0,5,0,2020-11-12,38.65235984,-95.72707998
Kansas,Osborne,46,0,0,0,2020-11-12,39.3503437,-98.76753828
Kansas,Ottawa,152,0,0,0,2020-11-12,39.13237408,-97.65020313
Kansas,Pawnee,482,0,1,0,2020-11-12,38.18108732,-99.23692334
Kansas,Phillips,297,0,9,0,2020-11-12,39.78465501,-99.34668865
Kansas,Pottawatomie,506,0,0,0,2020-11-12,39.37925655,-96.34564657
Kansas,Pratt,346,0,0,0,2020-11-12,37.64780729,-98.73922153
Kansas,Rawlins,146,0,0,0,2020-11-12,39.78525843,-101.0761617
Kansas,Reno,3192,0,27,3,2020-11-12,37.95230263,-98.08607292
Kansas,Republic,136,0,1,0,2020-11-12,39.82799632,-97.65036709
Kansas,Rice,222,0,1,0,2020-11-12,38.34616184,-98.19992118
Kansas,Riley,2637,0,13,0,2020-11-12,39.28935726,-96.73420026
Kansas,Rooks,221,0,7,0,2020-11-12,39.35022773,-99.32484567
Kansas,Rush,132,0,0,0,2020-11-12,38.52275276,-99.30863983
Kansas,Russell,308,0,7,0,2020-11-12,38.91462787,-98.76254297
Kansas,Saline,1493,0,16,0,2020-11-12,38.78369175,-97.65185177
Kansas,Scott,268,14,1,0,2020-11-12,38.48222076,-100.9066539
Kansas,Sedgwick,18326,0,137,0,2020-11-12,37.6842718,-97.4608198
Kansas,Seward,2368,0,13,0,2020-11-12,37.19324632,-100.8507201
Kansas,Shawnee,5061,0,95,5,2020-11-12,39.04100763,-95.7557264
Kansas,Sheridan,252,0,0,0,2020-11-12,39.35018161,-100.4418259
Kansas,Sherman,322,0,7,0,2020-11-12,39.35147699,-101.7197624
Kansas,Smith,63,0,0,0,2020-11-12,39.78516566,-98.78566062
Kansas,Stafford,131,0,1,0,2020-11-12,38.03100851,-98.71762001
Kansas,Stanton,117,0,2,0,2020-11-12,37.56304714,-101.7843534
Kansas,Stevens,297,0,1,0,2020-11-12,37.1923008,-101.3118967
Kansas,Sumner,498,0,4,0,2020-11-12,37.23682549,-97.47721621
Kansas,Thomas,527,36,2,0,2020-11-12,39.35107575,-101.0553705
Kansas,Trego,143,0,3,0,2020-11-12,38.91467218,-99.87284448
Kansas,Wabaunsee,178,0,1,0,2020-11-12,38.95471985,-96.20350509
Kansas,Wallace,107,0,0,0,2020-11-12,38.91686134,-101.7638876
Kansas,Washington,147,0,0,0,2020-11-12,39.78420784,-97.0875323
Kansas,Wichita,83,0,0,0,2020-11-12,38.48178252,-101.3471509
Kansas,Wilson,181,0,4,0,2020-11-12,37.55937174,-95.74323255
Kansas,Woodson,44,0,0,0,2020-11-12,37.8865336,-95.74006277
Kansas,Wyandotte,9498,0,167,0,2020-11-12,39.11727348,-94.76378225
Kentucky,Adair,565,10,23,0,2020-11-12,37.10459774,-85.28129668
Kentucky,Allen,609,2,12,1,2020-11-12,36.75197631,-86.19457544
Kentucky,Anderson,347,7,1,0,2020-11-12,38.00671029,-84.99171713
Kentucky,Ballard,107,1,1,0,2020-11-12,37.05842757,-88.99427697
Kentucky,Barren,1587,32,15,0,2020-11-12,36.96469836,-85.93338945
Kentucky,Bath,187,12,1,0,2020-11-12,38.14735938,-83.74588932
Kentucky,Bell,1033,9,18,0,2020-11-12,36.73355174,-83.67766671
Kentucky,Boone,3016,59,25,0,2020-11-12,38.97065142,-84.72615357
Kentucky,Bourbon,406,7,1,0,2020-11-12,38.2054607,-84.21827874
Kentucky,Boyd,955,11,23,0,2020-11-12,38.36176608,-82.68652187
Kentucky,Boyle,612,13,0,0,2020-11-12,37.62680923,-84.8633779
Kentucky,Bracken,98,7,3,0,2020-11-12,38.69158994,-84.08532444
Kentucky,Breathitt,205,3,2,0,2020-11-12,37.52333168,-83.31959161
Kentucky,Breckinridge,319,3,3,0,2020-11-12,37.77377239,-86.42885017
Kentucky,Bullitt,2034,21,20,0,2020-11-12,37.97162523,-85.68955617
Kentucky,Butler,471,4,16,0,2020-11-12,37.20946153,-86.68748787
Kentucky,Caldwell,397,9,0,0,2020-11-12,37.14749129,-87.86948214
Kentucky,Calloway,1235,18,10,0,2020-11-12,36.62093411,-88.2731593
Kentucky,Campbell,1905,39,15,0,2020-11-12,38.94384345,-84.37875208
Kentucky,Carlisle,134,2,1,0,2020-11-12,36.85372876,-88.96692220000001
Kentucky,Carroll,258,4,6,0,2020-11-12,38.66599534,-85.12601074
Kentucky,Carter,493,34,4,0,2020-11-12,38.31690743,-83.05092385
Kentucky,Casey,360,11,16,0,2020-11-12,37.32533118,-84.92726209
Kentucky,Christian,2358,84,33,1,2020-11-12,36.89267803,-87.49055367
Kentucky,Clark,663,8,12,0,2020-11-12,37.9689263,-84.14615986
Kentucky,Clay,757,2,7,1,2020-11-12,37.16451126,-83.712575
Kentucky,Clinton,285,6,4,1,2020-11-12,36.72581156,-85.13377529
Kentucky,Crittenden,192,4,1,0,2020-11-12,37.35839237,-88.08826090000002
Kentucky,Cumberland,169,2,0,0,2020-11-12,36.78926125,-85.39050034
Kentucky,Daviess,2551,48,35,0,2020-11-12,37.73028906,-87.09019479999998
Kentucky,Edmonson,222,5,12,0,2020-11-12,37.21218923,-86.23955613
Kentucky,Elliott,443,9,0,0,2020-11-12,38.11624059,-83.09771563
Kentucky,Estill,355,8,0,0,2020-11-12,37.69241417,-83.95956369
Kentucky,Fayette,13225,276,96,0,2020-11-12,38.0368225,-84.45576892
Kentucky,Fleming,236,2,0,0,2020-11-12,38.36758311,-83.69657514
Kentucky,Floyd,748,24,4,0,2020-11-12,37.56213922,-82.74750924
Kentucky,Franklin,1060,26,14,0,2020-11-12,38.2379395,-84.87962551
Kentucky,Fulton,257,1,3,0,2020-11-12,36.55238827,-89.20140068
Kentucky,Gallatin,154,4,8,0,2020-11-12,38.75398691,-84.8558382
Kentucky,Garrard,409,8,4,0,2020-11-12,37.6388668,-84.53289319
Kentucky,Grant,401,3,6,0,2020-11-12,38.64962758,-84.62415957
Kentucky,Graves,1184,10,32,0,2020-11-12,36.72292505,-88.65143315
Kentucky,Grayson,696,8,18,0,2020-11-12,37.46231118,-86.34248968
Kentucky,Green,377,7,9,0,2020-11-12,37.26484328,-85.5540745
Kentucky,Greenup,864,24,12,0,2020-11-12,38.54332505,-82.9215658
Kentucky,Hancock,218,10,6,0,2020-11-12,37.83766422,-86.78280584
Kentucky,Hardin,2880,41,22,0,2020-11-12,37.6976111,-85.96319251
Kentucky,Harlan,725,6,14,0,2020-11-12,36.85699301,-83.21899516
Kentucky,Harrison,324,6,1,0,2020-11-12,38.44188174,-84.32869741
Kentucky,Hart,599,8,1,0,2020-11-12,37.29943898,-85.88461055
Kentucky,Henderson,1640,23,31,2,2020-11-12,37.79344553,-87.57392021
Kentucky,Henry,375,7,3,0,2020-11-12,38.44942688,-85.11587507
Kentucky,Hickman,125,2,1,0,2020-11-12,36.67948079999999,-88.97875928
Kentucky,Hopkins,1367,12,44,0,2020-11-12,37.30939025,-87.54670406
Kentucky,Jackson,559,3,17,0,2020-11-12,37.41866422,-83.99825483
Kentucky,Jefferson,27946,508,402,2,2020-11-12,38.18664655,-85.65931031
Kentucky,Jessamine,1271,44,23,0,2020-11-12,37.87119786,-84.58252003
Kentucky,Johnson,524,21,2,0,2020-11-12,37.85106355,-82.8264322
Kentucky,Kenton,3771,68,51,0,2020-11-12,38.93950319,-84.53241199
Kentucky,Knott,436,-1,8,0,2020-11-12,37.35388197,-82.94981134
Kentucky,Knox,1003,4,10,0,2020-11-12,36.89225732,-83.85403396
Kentucky,Larue,403,12,1,0,2020-11-12,37.54567114,-85.70138352
Kentucky,Laurel,1901,33,11,0,2020-11-12,37.10975748,-84.11321779
Kentucky,Lawrence,238,5,1,0,2020-11-12,38.07136018,-82.72882223
Kentucky,Lee,322,0,10,1,2020-11-12,37.59645942,-83.71513901
Kentucky,Leslie,163,5,1,0,2020-11-12,37.09246661,-83.37999606
Kentucky,Letcher,381,3,2,0,2020-11-12,37.12306748,-82.85346474
Kentucky,Lewis,406,16,17,0,2020-11-12,38.53184419,-83.37735618
Kentucky,Lincoln,430,10,20,1,2020-11-12,37.45475628,-84.6565327
Kentucky,Livingston,187,4,2,0,2020-11-12,37.21137452,-88.34797529
Kentucky,Logan,938,16,31,0,2020-11-12,36.85949479,-86.877635
Kentucky,Lyon,143,0,5,0,2020-11-12,37.02080035,-88.07886257
Kentucky,McCracken,1710,15,12,0,2020-11-12,37.05350953,-88.70445755
Kentucky,McCreary,296,10,1,0,2020-11-12,36.73874143,-84.48102924
Kentucky,McLean,283,8,9,2,2020-11-12,37.5301951,-87.26803443
Kentucky,Madison,2783,24,14,0,2020-11-12,37.71659336,-84.27220275
Kentucky,Magoffin,277,7,1,0,2020-11-12,37.70820545,-83.0657714
Kentucky,Marion,652,16,11,0,2020-11-12,37.55218078,-85.26898542
Kentucky,Marshall,646,20,9,0,2020-11-12,36.88007070000001,-88.32803576
Kentucky,Martin,295,5,5,0,2020-11-12,37.79990579,-82.51247478
Kentucky,Mason,262,13,2,0,2020-11-12,38.59471935,-83.82151043
Kentucky,Meade,495,4,4,0,2020-11-12,37.96163597,-86.21028219
Kentucky,Menifee,104,2,1,0,2020-11-12,37.94090733,-83.59985712
Kentucky,Mercer,470,11,6,0,2020-11-12,37.81474237,-84.87488475
Kentucky,Metcalfe,295,8,2,0,2020-11-12,36.99459295,-85.63123699
Kentucky,Monroe,548,28,5,0,2020-11-12,36.71225341,-85.71596443
Kentucky,Montgomery,704,10,8,0,2020-11-12,38.03253032,-83.9145241
Kentucky,Morgan,198,11,0,0,2020-11-12,37.92465657,-83.25558245
Kentucky,Muhlenberg,1090,6,19,0,2020-11-12,37.21425819,-87.14632053
Kentucky,Nelson,1502,28,4,0,2020-11-12,37.80335779,-85.4657193
Kentucky,Nicholas,134,2,3,0,2020-11-12,38.33342292,-84.01889177
Kentucky,Ohio,739,23,11,0,2020-11-12,37.47751843,-86.85368087
Kentucky,Oldham,1690,28,27,1,2020-11-12,38.39791089,-85.448222
Kentucky,Owen,143,1,3,0,2020-11-12,38.51679143,-84.82404619
Kentucky,Owsley,111,1,1,0,2020-11-12,37.42823949,-83.68811419
Kentucky,Pendleton,196,9,1,0,2020-11-12,38.69607718,-84.35599463
Kentucky,Perry,709,4,9,0,2020-11-12,37.25023553,-83.22922731
Kentucky,Pike,1363,13,8,3,2020-11-12,37.47088263,-82.39487445
Kentucky,Powell,230,1,0,0,2020-11-12,37.83218794,-83.82553961
Kentucky,Pulaski,1149,33,13,0,2020-11-12,37.10466131,-84.57629079
Kentucky,Robertson,54,4,1,0,2020-11-12,38.51923469,-84.05055616
Kentucky,Rockcastle,427,1,4,2,2020-11-12,37.36642393,-84.31176452
Kentucky,Rowan,527,23,2,0,2020-11-12,38.19484205,-83.42088935
Kentucky,Russell,435,7,7,0,2020-11-12,36.99308373,-85.06070117
Kentucky,Scott,1356,14,20,0,2020-11-12,38.29622293,-84.5816631
Kentucky,Shelby,1763,35,25,0,2020-11-12,38.21476019,-85.194223
Kentucky,Simpson,463,9,8,0,2020-11-12,36.74058474,-86.58047435
Kentucky,Spencer,427,9,1,0,2020-11-12,38.03223971,-85.32749335
Kentucky,Taylor,632,19,7,0,2020-11-12,37.3677562,-85.3329931
Kentucky,Todd,338,1,13,0,2020-11-12,36.8381152,-87.17878374
Kentucky,Trigg,304,5,0,0,2020-11-12,36.80767017,-87.87333656
Kentucky,Trimble,125,3,0,0,2020-11-12,38.61056487,-85.33775972
Kentucky,Union,589,7,6,0,2020-11-12,37.66166713,-87.94300009
Kentucky,Warren,6063,55,59,0,2020-11-12,36.99903045,-86.42672751
Kentucky,Washington,341,6,2,0,2020-11-12,37.75599461,-85.17407732
Kentucky,Wayne,367,11,2,0,2020-11-12,36.80310688,-84.8251971
Kentucky,Webster,427,6,5,0,2020-11-12,37.52168356,-87.67989953
Kentucky,Whitley,1126,10,8,0,2020-11-12,36.75700531,-84.14541217
Kentucky,Wolfe,114,2,0,0,2020-11-12,37.73941626,-83.49303612
Kentucky,Woodford,514,15,0,0,2020-11-12,38.04178222,-84.7417556
Louisiana,Acadia,3432,43,108,1,2020-11-12,30.2950649,-92.41419698
Louisiana,Allen,1907,8,64,0,2020-11-12,30.65385745,-92.82442028
Louisiana,Ascension,4600,107,100,0,2020-11-12,30.20406249,-90.91328409999998
Louisiana,Assumption,852,11,25,1,2020-11-12,29.89946234,-91.06461642
Louisiana,Avoyelles,1823,8,65,0,2020-11-12,31.07796211,-92.00079449
Louisiana,Beauregard,1150,18,43,0,2020-11-12,30.64836518,-93.34173616
Louisiana,Bienville,662,11,35,0,2020-11-12,32.34569994,-93.05398492
Louisiana,Bossier,4817,100,127,0,2020-11-12,32.67932307,-93.60460152
Louisiana,Caddo,11136,183,417,4,2020-11-12,32.57991587,-93.88375652
Louisiana,Calcasieu,8806,70,233,2,2020-11-12,30.22931235,-93.35400434
Louisiana,Caldwell,423,15,4,1,2020-11-12,32.0902519,-92.11752148
Louisiana,Cameron,255,0,3,0,2020-11-12,29.87592238,-93.19310676
Louisiana,Catahoula,481,4,15,0,2020-11-12,31.66778967,-91.84526385
Louisiana,Claiborne,637,5,27,1,2020-11-12,32.82308512,-92.99526883
Louisiana,Concordia,682,6,17,0,2020-11-12,31.44817835,-91.63814433
Louisiana,De Soto,1094,7,35,0,2020-11-12,32.05457447,-93.74130302
Louisiana,East Baton Rouge,16870,77,463,1,2020-11-12,30.53842039,-91.09777565
Louisiana,East Carroll,614,8,6,0,2020-11-12,32.73926954,-91.23425694
Louisiana,East Feliciana,1816,8,83,2,2020-11-12,30.84425359,-91.04976723
Louisiana,Evangeline,1510,9,40,0,2020-11-12,30.72985248,-92.39915924
Louisiana,Franklin,1442,24,53,1,2020-11-12,32.13675181,-91.67589857
Louisiana,Grant,566,8,31,0,2020-11-12,31.59882456,-92.56124347
Louisiana,Iberia,3166,13,99,0,2020-11-12,29.86803617,-91.75871777
Louisiana,Iberville,1580,31,62,0,2020-11-12,30.25734305,-91.3499598
Louisiana,Jackson,936,22,24,0,2020-11-12,32.30251776,-92.55692092
Louisiana,Jefferson,19465,163,593,1,2020-11-12,29.74075478,-90.11115756
Louisiana,Jefferson Davis,1436,22,45,0,2020-11-12,30.26896765,-92.81210004
Louisiana,Lafayette,9878,70,141,0,2020-11-12,30.2049055,-92.06959876
Louisiana,Lafourche,4015,17,131,0,2020-11-12,29.52470226,-90.40976986
Louisiana,LaSalle,565,17,12,1,2020-11-12,31.67884782,-92.15907765
Louisiana,Lincoln,1817,32,53,0,2020-11-12,32.6003154,-92.6659741
Louisiana,Livingston,4463,61,83,1,2020-11-12,30.44143993,-90.73061664
Louisiana,Madison,922,6,11,1,2020-11-12,32.36918118,-91.23973355
Louisiana,Morehouse,964,22,29,0,2020-11-12,32.81686191,-91.80421614
Louisiana,Natchitoches,1660,34,35,0,2020-11-12,31.72321584,-93.09816516
Louisiana,Orleans,14124,90,605,3,2020-11-12,30.06971951,-89.92660315
Louisiana,Ouachita,7834,393,174,1,2020-11-12,32.47645559,-92.15704172
Louisiana,Plaquemines,932,8,19,0,2020-11-12,29.42245447,-89.60322085
Louisiana,Pointe Coupee,1181,10,44,2,2020-11-12,30.71409502,-91.60209535
Louisiana,Rapides,5001,67,169,4,2020-11-12,31.19778499,-92.52997303
Louisiana,Red River,516,15,25,0,2020-11-12,32.09530039,-93.34213308
Louisiana,Richland,981,19,21,0,2020-11-12,32.41391005,-91.76634876
Louisiana,Sabine,1105,18,16,0,2020-11-12,31.56388699,-93.55433981
Louisiana,St. Bernard,1623,14,32,0,2020-11-12,29.87761636,-89.51887093
Louisiana,St. Charles,2011,3,65,0,2020-11-12,29.90709658,-90.35555967
Louisiana,St. Helena,448,2,4,0,2020-11-12,30.82210324,-90.71013176
Louisiana,St. James,864,3,40,0,2020-11-12,30.02531716,-90.80212061
Louisiana,St. John the Baptist,1738,11,108,0,2020-11-12,30.12597499,-90.4753503
Louisiana,St. Landry,3925,45,140,0,2020-11-12,30.59724262,-92.00135806
Louisiana,St. Martin,2343,15,65,0,2020-11-12,30.13112107,-91.61403569
Louisiana,St. Mary,2092,5,87,0,2020-11-12,29.69262097,-91.44702164
Louisiana,St. Tammany,8116,68,277,0,2020-11-12,30.40942847,-89.95642711
Louisiana,Tangipahoa,5197,46,130,1,2020-11-12,30.62888673,-90.40664996
Louisiana,Tensas,192,1,3,0,2020-11-12,32.00760749,-91.32915234
Louisiana,Terrebonne,4001,29,126,0,2020-11-12,29.37343766,-90.82626855
Louisiana,Union,1190,16,54,0,2020-11-12,32.83121059,-92.3749373
Louisiana,Vermilion,2201,12,70,0,2020-11-12,29.83517605,-92.30292538
Louisiana,Vernon,1173,14,57,1,2020-11-12,31.10884837,-93.18153838
Louisiana,Washington,1800,3,73,1,2020-11-12,30.85288548,-90.03866652
Louisiana,Webster,1588,18,45,3,2020-11-12,32.70847669,-93.33121835
Louisiana,West Baton Rouge,1037,15,42,0,2020-11-12,30.46058217,-91.30989571
Louisiana,West Carroll,406,5,14,0,2020-11-12,32.78550125,-91.461201
Louisiana,West Feliciana,767,2,25,0,2020-11-12,30.87882871,-91.4148538
Louisiana,Winn,746,10,21,0,2020-11-12,31.94449367,-92.63789413
Maine,Androscoggin,1081,-67,12,1,2020-11-12,44.1664747,-70.20380627
Maine,Aroostook,83,-4,1,0,2020-11-12,46.65926321,-68.59841248
Maine,Cumberland,3098,-348,70,-1,2020-11-12,43.8370751,-70.37226999
Maine,Franklin,134,-13,2,0,2020-11-12,44.97330019,-70.44381045
Maine,Hancock,137,4,1,0,2020-11-12,44.59816444,-68.38401854
Maine,Kennebec,525,-42,12,0,2020-11-12,44.40759555,-69.76738544
Maine,Knox,155,-1,2,0,2020-11-12,44.11486325,-69.10529169
Maine,Lincoln,92,-4,1,0,2020-11-12,44.05996956,-69.54227124
Maine,Oxford,220,-13,2,0,2020-11-12,44.49952995,-70.75682123
Maine,Penobscot,426,-25,6,0,2020-11-12,45.40194593,-68.65020455
Maine,Piscataquis,19,-3,0,0,2020-11-12,45.83839062,-69.2860223
Maine,Sagadahoc,113,-9,0,0,2020-11-12,43.95415864,-69.85074999
Maine,Somerset,315,-24,11,0,2020-11-12,45.51229767,-69.95995554
Maine,Waldo,186,-12,16,0,2020-11-12,44.4858305,-69.12061935
Maine,Washington,126,-7,0,0,2020-11-12,45.01607142,-67.62813524
Maine,York,1684,-136,23,0,2020-11-12,43.47808377,-70.71052375
Maryland,Allegany,1273,28,29,0,2020-11-12,39.62357628,-78.69280486
Maryland,Anne Arundel,13595,100,286,2,2020-11-12,39.00670238,-76.60329337
Maryland,Baltimore,23392,288,690,2,2020-11-12,39.45784712,-76.62911955
Maryland,Calvert,1313,13,29,0,2020-11-12,38.53961642,-76.56820632
Maryland,Caroline,786,1,9,0,2020-11-12,38.87172293,-75.82904158
Maryland,Carroll,2592,41,130,0,2020-11-12,39.56453592,-77.02373735
Maryland,Cecil,1526,18,37,0,2020-11-12,39.56647682,-75.94627411
Maryland,Charles,3592,39,104,2,2020-11-12,38.51092331,-76.98580666
Maryland,Dorchester,886,8,13,0,2020-11-12,38.45413522,-76.02752426
Maryland,Frederick,5373,55,140,0,2020-11-12,39.47296601,-77.39999394
Maryland,Garrett,211,2,1,0,2020-11-12,39.52786077,-79.27355126
Maryland,Harford,4329,57,85,1,2020-11-12,39.55010644,-76.30775940000002
Maryland,Howard,6581,64,131,1,2020-11-12,39.25305293,-76.93126208
Maryland,Kent,366,3,26,0,2020-11-12,39.24976208,-76.04741541
Maryland,Montgomery,28146,177,901,2,2020-11-12,39.13676329,-77.20358245
Maryland,Prince George's,35336,190,878,2,2020-11-12,38.83070039,-76.8496441
Maryland,Queen Anne's,870,14,26,0,2020-11-12,39.06198912,-76.03530977
Maryland,St. Mary's,1651,21,60,0,2020-11-12,38.30058422,-76.60629279999998
Maryland,Somerset,517,7,8,1,2020-11-12,38.1163542,-75.75118623
Maryland,Talbot,685,7,7,1,2020-11-12,38.76618159,-76.10882561
Maryland,Washington,2787,62,49,0,2020-11-12,39.60835778,-77.82002295
Maryland,Wicomico,2776,35,54,0,2020-11-12,38.37301947,-75.62705831
Maryland,Worcester,1311,9,31,0,2020-11-12,38.21274277,-75.33200012
Maryland,Baltimore,23392,288,690,2,2020-11-12,39.45784712,-76.62911955
Massachusetts,Barnstable,2210,8,186,0,2020-11-12,41.72980578,-70.28854339
Massachusetts,Berkshire,982,29,52,0,2020-11-12,42.37428441,-73.20524838
Massachusetts,Bristol,15073,246,785,1,2020-11-12,41.79228404,-71.10872211
Massachusetts,Essex,27678,447,1384,2,2020-11-12,42.6687626,-70.94687179
Massachusetts,Franklin,528,7,74,0,2020-11-12,42.58119713,-72.58602547
Massachusetts,Hampden,12149,186,844,2,2020-11-12,42.13440424,-72.63235561
Massachusetts,Hampshire,1761,31,158,0,2020-11-12,42.33997957,-72.65898478
Massachusetts,Middlesex,36551,528,2341,8,2020-11-12,42.48607732,-71.39049229
Massachusetts,Norfolk,13351,152,1137,1,2020-11-12,42.16073095,-71.20530408
Massachusetts,Plymouth,12616,124,862,0,2020-11-12,41.94070556,-70.80802823
Massachusetts,Suffolk,31791,337,1203,2,2020-11-12,42.3279514,-71.07850442
Massachusetts,Worcester,19468,373,1208,4,2020-11-12,42.35026951,-71.90493363
Michigan,Alcona,73,2,3,0,2020-11-12,44.6846864,-83.59507875
Michigan,Alger,162,7,1,0,2020-11-12,46.41292944,-86.60260122
Michigan,Allegan,2383,117,9,0,2020-11-12,42.59147037,-85.89102866
Michigan,Alpena,254,4,15,0,2020-11-12,45.03477666,-83.62212411
Michigan,Antrim,242,21,1,0,2020-11-12,44.99690221,-85.15503082
Michigan,Arenac,183,6,5,0,2020-11-12,44.0636262,-83.89277559
Michigan,Baraga,286,36,5,1,2020-11-12,46.6720582,-88.36363591
Michigan,Barry,1245,52,9,0,2020-11-12,42.59513984,-85.30834519
Michigan,Bay,2584,131,76,3,2020-11-12,43.70639106,-83.98731479
Michigan,Benzie,211,11,3,0,2020-11-12,44.63899297,-86.01608482
Michigan,Berrien,4101,144,99,2,2020-11-12,41.95447397,-86.41313079999998
Michigan,Branch,1426,60,18,3,2020-11-12,41.91600556,-85.05929476
Michigan,Calhoun,4500,147,93,2,2020-11-12,42.24633834,-85.00493569
Michigan,Cass,1491,28,26,0,2020-11-12,41.91522292,-85.99405727
Michigan,Charlevoix,331,10,5,0,2020-11-12,45.37790017,-85.19614053
Michigan,Cheboygan,285,2,12,0,2020-11-12,45.44787015,-84.50122149
Michigan,Chippewa,436,36,0,0,2020-11-12,46.29552653,-84.54353449
Michigan,Clare,462,10,19,0,2020-11-12,43.98794227,-84.84819859999998
Michigan,Clinton,1814,64,18,0,2020-11-12,42.94400871,-84.60145248
Michigan,Crawford,201,5,5,0,2020-11-12,44.68255561,-84.61006219
Michigan,Delta,1895,96,52,1,2020-11-12,45.90484910000001,-86.9080745
Michigan,Dickinson,1149,7,28,0,2020-11-12,46.00999672,-87.86961634
Michigan,Eaton,1889,91,21,0,2020-11-12,42.59599185,-84.83740035
Michigan,Emmet,662,35,16,0,2020-11-12,45.52625509,-84.89083249
Michigan,Genesee,9568,245,365,4,2020-11-12,43.02244215,-83.70589709
Michigan,Gladwin,378,19,4,0,2020-11-12,43.98901072,-84.38774817
Michigan,Gogebic,611,19,19,0,2020-11-12,46.40862701,-89.69377193
Michigan,Grand Traverse,1166,44,15,0,2020-11-12,44.69565625,-85.55585247
Michigan,Gratiot,936,57,20,0,2020-11-12,43.29265605,-84.60505416
Michigan,Hillsdale,891,47,30,1,2020-11-12,41.88753639,-84.59312019
Michigan,Houghton,1218,61,9,0,2020-11-12,46.89988536,-88.68495385
Michigan,Huron,435,24,8,0,2020-11-12,43.83353985,-83.04078453
Michigan,Ingham,6176,231,81,1,2020-11-12,42.59716886,-84.37472069
Michigan,Ionia,1343,100,12,3,2020-11-12,42.94502238,-85.07413319
Michigan,Iosco,436,8,18,0,2020-11-12,44.35486835,-83.63484895
Michigan,Iron,587,5,29,0,2020-11-12,46.20974132,-88.53136251
Michigan,Isabella,1568,44,18,1,2020-11-12,43.64060976,-84.84664923
Michigan,Jackson,2999,164,81,0,2020-11-12,42.24807035,-84.42258681
Michigan,Kalamazoo,6861,183,135,0,2020-11-12,42.24542231,-85.53038622
Michigan,Kalkaska,217,10,4,0,2020-11-12,44.68512729,-85.09085699
Michigan,Kent,22038,725,230,2,2020-11-12,43.03197711,-85.54934642
Michigan,Keweenaw,32,3,1,0,2020-11-12,47.63197653,-88.41434263
Michigan,Lake,110,5,1,0,2020-11-12,43.99050893,-85.802173
Michigan,Lapeer,1434,59,42,1,2020-11-12,43.09052506,-83.22153148
Michigan,Leelanau,230,10,2,0,2020-11-12,44.94430054,-85.80150326
Michigan,Lenawee,1572,51,21,0,2020-11-12,41.89475156,-84.06603727
Michigan,Livingston,3328,84,35,0,2020-11-12,42.60302282,-83.91297209
Michigan,Luce,125,3,0,0,2020-11-12,46.47227431,-85.54471223
Michigan,Mackinac,208,7,0,0,2020-11-12,46.07028979,-85.04980537
Michigan,Macomb,25608,655,1134,4,2020-11-12,42.69158356,-82.92752801
Michigan,Manistee,224,9,5,0,2020-11-12,44.33352407,-86.05626916
Michigan,Marquette,1957,97,20,1,2020-11-12,46.4338914,-87.64043701
Michigan,Mason,396,15,4,0,2020-11-12,43.99509218,-86.24988902
Michigan,Mecosta,841,29,6,0,2020-11-12,43.64064262,-85.32463223
Michigan,Menominee,1017,32,10,1,2020-11-12,45.58038692,-87.55370409
Michigan,Midland,1846,56,15,1,2020-11-12,43.64330771,-84.38804374
Michigan,Missaukee,173,3,1,0,2020-11-12,44.33772443,-85.09256478
Michigan,Monroe,3188,126,48,1,2020-11-12,41.92734151,-83.53749864
Michigan,Montcalm,1149,44,16,0,2020-11-12,43.31082541,-85.15252824
Michigan,Montmorency,67,3,0,0,2020-11-12,45.0275929,-84.12696227
Michigan,Muskegon,4251,170,109,1,2020-11-12,43.29123859,-86.15176712
Michigan,Newaygo,1018,39,7,0,2020-11-12,43.554374,-85.80070107
Michigan,Oakland,33092,686,1260,0,2020-11-12,42.66090111,-83.38595416
Michigan,Oceana,858,22,8,0,2020-11-12,43.64124435,-86.26726673
Michigan,Ogemaw,252,11,7,0,2020-11-12,44.33481032,-84.12725175
Michigan,Ontonagon,226,4,5,1,2020-11-12,46.665226200000006,-89.31390481
Michigan,Osceola,308,3,1,0,2020-11-12,43.98992088,-85.32566756
Michigan,Oscoda,87,2,2,0,2020-11-12,44.68192279,-84.12939244
Michigan,Otsego,486,36,14,0,2020-11-12,45.02085831,-84.59898295
Michigan,Ottawa,8634,357,94,3,2020-11-12,42.95996803,-85.9969107
Michigan,Presque Isle,130,2,1,0,2020-11-12,45.34018577,-83.91498656
Michigan,Roscommon,325,10,6,0,2020-11-12,44.33473082,-84.61067651
Michigan,Saginaw,5799,167,170,4,2020-11-12,43.33433923,-84.05131209999998
Michigan,St. Clair,2567,108,68,0,2020-11-12,42.92655373,-82.67937954
Michigan,St. Joseph,1914,44,27,1,2020-11-12,41.91441767,-85.52797979
Michigan,Sanilac,383,16,10,1,2020-11-12,43.42406072,-82.82055898
Michigan,Schoolcraft,141,5,1,0,2020-11-12,46.19235734,-86.19972234
Michigan,Shiawassee,1194,45,35,0,2020-11-12,42.95392800000001,-84.14585902
Michigan,Tuscola,1077,30,39,0,2020-11-12,43.46606813,-83.41897025
Michigan,Van Buren,1807,47,23,0,2020-11-12,42.25190229,-86.01939087
Michigan,Washtenaw,7154,174,121,0,2020-11-12,42.253105,-83.83853204
Michigan,Wayne,48941,741,3108,4,2020-11-12,42.28098405,-83.281255
Michigan,Wexford,320,7,6,0,2020-11-12,44.33853602,-85.57712739
Minnesota,Aitkin,396,11,9,1,2020-11-12,46.60962049,-93.4116826
Minnesota,Anoka,14363,674,185,2,2020-11-12,45.27476015,-93.24604565
Minnesota,Becker,1121,57,4,0,2020-11-12,46.93479392,-95.67158144
Minnesota,Beltrami,1398,67,13,0,2020-11-12,47.97373527,-94.93732139
Minnesota,Benton,1805,109,26,3,2020-11-12,45.69804958,-93.99514135
Minnesota,Big Stone,218,1,1,0,2020-11-12,45.42712824,-96.41403739
Minnesota,Blue Earth,2751,73,8,0,2020-11-12,44.03554215,-94.06699781
Minnesota,Brown,668,43,5,0,2020-11-12,44.24205652,-94.72562874
Minnesota,Carlton,1013,76,8,1,2020-11-12,46.59180601,-92.67601019
Minnesota,Carver,2626,88,9,0,2020-11-12,44.82017001,-93.8009918
Minnesota,Cass,794,40,8,1,2020-11-12,46.95043611,-94.32603968
Minnesota,Chippewa,610,10,6,0,2020-11-12,45.02343421,-95.56403693
Minnesota,Chisago,2015,116,2,0,2020-11-12,45.5021011,-92.90861945
Minnesota,Clay,3490,134,48,0,2020-11-12,46.89289518,-96.48761922
Minnesota,Clearwater,272,44,2,0,2020-11-12,47.57992111,-95.37790562
Minnesota,Cook,38,2,0,0,2020-11-12,47.90504893,-90.52629546
Minnesota,Cottonwood,432,26,0,0,2020-11-12,44.00715262,-95.18138802
Minnesota,Crow Wing,2100,90,23,0,2020-11-12,46.48096553,-94.06755609
Minnesota,Dakota,14114,480,156,4,2020-11-12,44.67172617,-93.06299363
Minnesota,Dodge,519,9,0,0,2020-11-12,44.02238415,-92.86244324
Minnesota,Douglas,1421,87,14,1,2020-11-12,45.93348491,-95.45335469
Minnesota,Faribault,334,5,0,0,2020-11-12,43.67381499,-93.94787458
Minnesota,Fillmore,392,13,0,0,2020-11-12,43.67394126,-92.08980382
Minnesota,Freeborn,944,19,5,0,2020-11-12,43.67385583,-93.34884422
Minnesota,Goodhue,1037,19,18,1,2020-11-12,44.40849741,-92.7234195
Minnesota,Grant,152,5,5,0,2020-11-12,45.93424769,-96.01139609
Minnesota,Hennepin,46555,1183,1033,3,2020-11-12,45.00761521,-93.47694895
Minnesota,Houston,412,18,2,0,2020-11-12,43.67129565,-91.49143057
Minnesota,Hubbard,702,25,12,1,2020-11-12,47.10778564,-94.91693868
Minnesota,Isanti,1080,82,10,0,2020-11-12,45.56181234,-93.29487636
Minnesota,Itasca,1222,58,18,0,2020-11-12,47.51009045,-93.63092229
Minnesota,Jackson,296,13,1,0,2020-11-12,43.67423373,-95.15398258
Minnesota,Kanabec,380,26,11,0,2020-11-12,45.9459309,-93.29275192
Minnesota,Kandiyohi,2422,71,8,0,2020-11-12,45.1526059,-95.00586446
Minnesota,Kittson,118,2,1,0,2020-11-12,48.77754106,-96.78317184
Minnesota,Koochiching,238,9,5,0,2020-11-12,48.24539665,-93.78352843
Minnesota,Lac qui Parle,209,13,3,0,2020-11-12,44.9973857,-96.17488219
Minnesota,Lake,203,11,0,0,2020-11-12,47.64270764,-91.44557998
Minnesota,Lake of the Woods,65,1,1,0,2020-11-12,48.77217001,-94.90274472
Minnesota,Le Sueur,904,24,7,1,2020-11-12,44.37136597,-93.72844721
Minnesota,Lincoln,242,2,1,0,2020-11-12,44.41311883,-96.26688165
Minnesota,Lyon,1401,51,6,0,2020-11-12,44.41327865,-95.83806103
Minnesota,McLeod,1080,85,5,0,2020-11-12,44.82367677,-94.27287017
Minnesota,Mahnomen,167,6,3,0,2020-11-12,47.32557075,-95.80921485
Minnesota,Marshall,281,3,5,0,2020-11-12,48.35825983,-96.37017407
Minnesota,Martin,749,14,19,0,2020-11-12,43.67429718,-94.55099908
Minnesota,Meeker,625,49,5,1,2020-11-12,45.12328869,-94.52839455
Minnesota,Mille Lacs,934,56,22,1,2020-11-12,45.93705297,-93.63236823
Minnesota,Morrison,1259,52,14,1,2020-11-12,46.01265363,-94.27341528
Minnesota,Mower,1713,9,21,0,2020-11-12,43.67142874,-92.75234549
Minnesota,Murray,388,13,3,0,2020-11-12,44.02216709,-95.76328482
Minnesota,Nicollet,1027,16,20,0,2020-11-12,44.35291112,-94.24710352
Minnesota,Nobles,2692,31,24,0,2020-11-12,43.67434621,-95.75329576
Minnesota,Norman,232,15,5,0,2020-11-12,47.32628443,-96.45620947
Minnesota,Olmsted,4395,62,30,0,2020-11-12,44.00374114,-92.40209944
Minnesota,Otter Tail,1631,84,11,2,2020-11-12,46.40846929,-95.70835255
Minnesota,Pennington,331,19,2,0,2020-11-12,48.06642577,-96.0370814
Minnesota,Pine,838,27,4,1,2020-11-12,46.12105238,-92.74070188
Minnesota,Pipestone,485,9,17,0,2020-11-12,44.02301619,-96.25841142
Minnesota,Polk,1559,78,15,1,2020-11-12,47.77372465,-96.40134647
Minnesota,Pope,302,28,0,-1,2020-11-12,45.58606667,-95.44451209
Minnesota,Ramsey,19535,566,423,4,2020-11-12,45.01625271,-93.09872295
Minnesota,Red Lake,126,3,3,0,2020-11-12,47.87197525,-96.09561104
Minnesota,Redwood,454,22,14,1,2020-11-12,44.40555844,-95.25207021
Minnesota,Renville,433,30,14,0,2020-11-12,44.72836381,-94.94553734
Minnesota,Rice,2411,83,20,0,2020-11-12,44.3543376,-93.29658715
Minnesota,Rock,463,8,9,0,2020-11-12,43.67482683,-96.25296832
Minnesota,Roseau,625,20,1,0,2020-11-12,48.77501878,-95.81079919
Minnesota,St. Louis,5036,319,79,2,2020-11-12,47.6048407,-92.46879855
Minnesota,Scott,5178,153,47,1,2020-11-12,44.6490231,-93.53340251
Minnesota,Sherburne,3461,288,30,0,2020-11-12,45.44447208,-93.77617511
Minnesota,Sibley,395,16,3,0,2020-11-12,44.5796592,-94.23164924
Minnesota,Stearns,9027,366,68,2,2020-11-12,45.55192576,-94.61078221
Minnesota,Steele,1056,25,5,0,2020-11-12,44.02240351,-93.22627088
Minnesota,Stevens,288,19,1,0,2020-11-12,45.58613007,-96.00163705
Minnesota,Swift,352,24,3,0,2020-11-12,45.2829032,-95.68264092
Minnesota,Todd,1295,22,10,0,2020-11-12,46.06996226,-94.89785296
Minnesota,Traverse,87,3,0,0,2020-11-12,45.77298854,-96.47062949
Minnesota,Wabasha,587,23,2,1,2020-11-12,44.28424356,-92.23121312
Minnesota,Wadena,472,15,6,1,2020-11-12,46.58589171,-94.96968506
Minnesota,Waseca,1026,9,10,0,2020-11-12,44.02211116,-93.58720034
Minnesota,Washington,9395,305,84,1,2020-11-12,45.03864533,-92.88429635
Minnesota,Watonwan,635,2,4,0,2020-11-12,43.97823903,-94.61413846
Minnesota,Wilkin,227,6,4,0,2020-11-12,46.35721532,-96.4684375
Minnesota,Winona,1882,73,21,0,2020-11-12,43.98772283,-91.78081305
Minnesota,Wright,4438,221,25,1,2020-11-12,45.17297924,-93.96234781
Minnesota,Yellow Medicine,424,12,8,0,2020-11-12,44.71710183,-95.86842453
Mississippi,Adams,1209,5,47,0,2020-11-12,31.47669768,-91.35326037
Mississippi,Alcorn,1262,21,21,1,2020-11-12,34.88084463,-88.57996173
Mississippi,Amite,448,2,14,0,2020-11-12,31.17467303,-90.80501621
Mississippi,Attala,909,12,27,0,2020-11-12,33.08658803,-89.57838564
Mississippi,Benton,433,8,16,1,2020-11-12,34.81681228,-89.18945516
Mississippi,Bolivar,2202,18,82,0,2020-11-12,33.79696941,-90.87372121
Mississippi,Calhoun,675,6,13,0,2020-11-12,33.93683395,-89.33686647
Mississippi,Carroll,615,8,13,0,2020-11-12,33.44834567,-89.91994479
Mississippi,Chickasaw,943,8,31,0,2020-11-12,33.91983202,-88.9481545
Mississippi,Choctaw,247,4,7,0,2020-11-12,33.34598242,-89.24809382
Mississippi,Claiborne,557,2,16,0,2020-11-12,31.97061673,-90.90702196
Mississippi,Clarke,834,6,53,0,2020-11-12,32.04158545,-88.68896219999998
Mississippi,Clay,793,11,25,0,2020-11-12,33.65358105,-88.77784255
Mississippi,Coahoma,1332,6,37,0,2020-11-12,34.22772299,-90.60415045
Mississippi,Copiah,1481,10,38,0,2020-11-12,31.86977774,-90.44565118
Mississippi,Covington,1089,6,31,0,2020-11-12,31.63225413,-89.55389939
Mississippi,DeSoto,8535,105,85,0,2020-11-12,34.87625235,-89.99091418
Mississippi,Forrest,3336,29,83,0,2020-11-12,31.18961454,-89.25832496
Mississippi,Franklin,271,4,3,0,2020-11-12,31.47786634,-90.89672989
Mississippi,George,1128,11,21,0,2020-11-12,30.86259065,-88.64436789
Mississippi,Greene,534,8,19,0,2020-11-12,31.21444233,-88.63922281
Mississippi,Grenada,1289,5,42,0,2020-11-12,33.77036166,-89.80245083
Mississippi,Hancock,1008,5,34,1,2020-11-12,30.41830223,-89.48851033
Mississippi,Harrison,6279,55,100,2,2020-11-12,30.51359752,-89.12467576
Mississippi,Hinds,8773,89,184,1,2020-11-12,32.2656285,-90.44435448
Mississippi,Holmes,1185,3,60,0,2020-11-12,33.12345854,-90.08923538
Mississippi,Humphreys,491,0,18,0,2020-11-12,33.12825718,-90.52252707
Mississippi,Issaquena,108,0,4,0,2020-11-12,32.72531359,-90.97392828
Mississippi,Itawamba,1319,11,32,1,2020-11-12,34.27993475,-88.3606733
Mississippi,Jackson,5567,39,103,0,2020-11-12,30.54020656,-88.64184064
Mississippi,Jasper,756,5,20,1,2020-11-12,32.01922104,-89.11786866
Mississippi,Jefferson,298,5,11,0,2020-11-12,31.73397872,-91.03764977
Mississippi,Jefferson Davis,492,6,15,0,2020-11-12,31.56884708,-89.82670990000003
Mississippi,Jones,3198,14,85,0,2020-11-12,31.62257767,-89.16896899999998
Mississippi,Kemper,354,3,15,0,2020-11-12,32.75462946,-88.64105766
Mississippi,Lafayette,2790,26,45,2,2020-11-12,34.35687874,-89.48490961
Mississippi,Lamar,2549,12,46,0,2020-11-12,31.20572971,-89.5077704
Mississippi,Lauderdale,2929,35,141,0,2020-11-12,32.40419769,-88.66229662
Mississippi,Lawrence,608,4,14,0,2020-11-12,31.55147224,-90.10841127
Mississippi,Leake,1236,8,43,0,2020-11-12,32.7536828,-89.52402044
Mississippi,Lee,4230,85,87,0,2020-11-12,34.291877500000005,-88.68149954
Mississippi,Leflore,1877,23,88,0,2020-11-12,33.55545125,-90.29900733
Mississippi,Lincoln,1568,23,64,0,2020-11-12,31.53288662,-90.45391915
Mississippi,Lowndes,2066,22,62,0,2020-11-12,33.47386518,-88.44191529999998
Mississippi,Madison,4201,55,97,1,2020-11-12,32.63389156,-90.03513564
Mississippi,Marion,1023,4,46,0,2020-11-12,31.23132643,-89.8209217
Mississippi,Marshall,1785,24,38,1,2020-11-12,34.76216286,-89.50299462
Mississippi,Monroe,1706,16,76,0,2020-11-12,33.89236763,-88.4808438
Mississippi,Montgomery,639,6,23,0,2020-11-12,33.49419589,-89.61729103
Mississippi,Neshoba,2003,24,111,0,2020-11-12,32.75339664,-89.11726492
Mississippi,Newton,946,11,29,0,2020-11-12,32.40021118,-89.11843336
Mississippi,Noxubee,634,6,17,0,2020-11-12,33.11009499,-88.56949061
Mississippi,Oktibbeha,2210,20,58,1,2020-11-12,33.42491685,-88.87905132
Mississippi,Panola,1904,15,43,0,2020-11-12,34.36398677,-89.95064249
Mississippi,Pearl River,1293,16,64,0,2020-11-12,30.77090935,-89.58677275
Mississippi,Perry,578,12,24,0,2020-11-12,31.17161885,-88.99281835
Mississippi,Pike,1484,5,58,0,2020-11-12,31.17507789,-90.40392572
Mississippi,Pontotoc,1750,17,24,0,2020-11-12,34.226046000000004,-89.03636807
Mississippi,Prentiss,1250,16,23,0,2020-11-12,34.61810501,-88.51986294
Mississippi,Quitman,441,3,7,0,2020-11-12,34.25157572,-90.28908
Mississippi,Rankin,4640,54,89,0,2020-11-12,32.26469147,-89.94537876
Mississippi,Scott,1355,6,29,0,2020-11-12,32.406704100000006,-89.53789439
Mississippi,Sharkey,293,1,16,0,2020-11-12,32.88149103,-90.8159538
Mississippi,Simpson,1323,13,52,0,2020-11-12,31.91282117,-89.91716179
Mississippi,Smith,649,6,16,0,2020-11-12,32.01744532,-89.50644846
Mississippi,Stone,598,18,14,0,2020-11-12,30.79187949,-89.11547539
Mississippi,Sunflower,1766,8,54,0,2020-11-12,33.60192578,-90.58882684
Mississippi,Tallahatchie,912,2,27,0,2020-11-12,33.95339918,-90.1729398
Mississippi,Tate,1446,21,44,2,2020-11-12,34.65133709,-89.94485778
Mississippi,Tippah,1078,17,28,1,2020-11-12,34.76872156,-88.90988194
Mississippi,Tishomingo,948,13,41,0,2020-11-12,34.74023475,-88.23917219
Mississippi,Tunica,565,1,18,0,2020-11-12,34.64967704,-90.37481167
Mississippi,Union,1422,29,25,0,2020-11-12,34.49162015,-89.00776006
Mississippi,Walthall,692,5,27,0,2020-11-12,31.14971548,-90.10446654
Mississippi,Warren,1634,4,56,0,2020-11-12,32.35810271,-90.83352619
Mississippi,Washington,2843,20,105,0,2020-11-12,33.28392041,-90.94196237
Mississippi,Wayne,1089,6,22,0,2020-11-12,31.64135687,-88.69573913
Mississippi,Webster,393,1,14,0,2020-11-12,33.61300486,-89.28392912
Mississippi,Wilkinson,355,1,22,0,2020-11-12,31.16078225,-91.31018819
Mississippi,Winston,991,9,22,0,2020-11-12,33.08747908,-89.03391385
Mississippi,Yalobusha,619,9,24,1,2020-11-12,34.02824175,-89.70762049999998
Mississippi,Yazoo,1404,9,36,0,2020-11-12,32.77890365,-90.39656148
Missouri,Adair,798,47,0,0,2020-11-12,40.19058551,-92.60078167
Missouri,Andrew,569,12,8,0,2020-11-12,39.98492163,-94.80163024
Missouri,Atchison,125,10,1,0,2020-11-12,40.43238737,-95.42970639
Missouri,Audrain,791,14,11,0,2020-11-12,39.215877,-91.84242683
Missouri,Barry,1126,24,19,0,2020-11-12,36.70978521,-93.82919888
Missouri,Barton,520,10,4,0,2020-11-12,37.50207671,-94.34757022
Missouri,Bates,347,12,8,0,2020-11-12,38.25271289,-94.34113157
Missouri,Benton,622,25,7,0,2020-11-12,38.29503305,-93.28756116
Missouri,Bollinger,637,13,5,0,2020-11-12,37.32449052,-90.02725304
Missouri,Boone,8040,221,15,0,2020-11-12,38.99186229,-92.30723575
Missouri,Buchanan,3649,51,46,0,2020-11-12,39.65816401,-94.80138942
Missouri,Butler,1596,5,8,0,2020-11-12,36.71462476,-90.40421163
Missouri,Caldwell,253,6,1,0,2020-11-12,39.65620858,-93.98308093
Missouri,Callaway,2083,65,7,0,2020-11-12,38.83674754,-91.92186505
Missouri,Camden,1985,43,41,0,2020-11-12,38.02199522,-92.76083747
Missouri,Cape Girardeau,3699,105,58,0,2020-11-12,37.38489388,-89.6843587
Missouri,Carroll,285,1,4,0,2020-11-12,39.42762566,-93.50626255
Missouri,Carter,215,2,4,0,2020-11-12,36.94160441,-90.96051322
Missouri,Cass,2703,48,35,0,2020-11-12,38.64789422,-94.353399
Missouri,Cedar,338,17,4,0,2020-11-12,37.72391475,-93.85445441
Missouri,Chariton,145,3,0,0,2020-11-12,39.51499357,-92.9629191
Missouri,Christian,2964,53,20,0,2020-11-12,36.9711783,-93.18537118
Missouri,Clark,206,14,2,0,2020-11-12,40.41040752,-91.73661677
Missouri,Clay,3424,73,54,0,2020-11-12,39.31132056,-94.41850862
Missouri,Clinton,683,16,38,5,2020-11-12,39.6013098,-94.40465394
Missouri,Cole,4558,146,34,0,2020-11-12,38.50455671,-92.27860244
Missouri,Cooper,906,25,6,0,2020-11-12,38.844478,-92.80896081
Missouri,Crawford,892,40,10,0,2020-11-12,37.97663738,-91.30528104
Missouri,Dade,215,9,5,0,2020-11-12,37.431814,-93.8503345
Missouri,Dallas,483,12,3,0,2020-11-12,37.6811355,-93.02127031
Missouri,Daviess,277,9,5,0,2020-11-12,39.96145298,-93.98519678
Missouri,DeKalb,428,9,8,0,2020-11-12,39.89201062,-94.40476508
Missouri,Dent,341,16,4,0,2020-11-12,37.60663134,-91.50790473
Missouri,Douglas,345,0,14,0,2020-11-12,36.9325593,-92.49905109
Missouri,Dunklin,1386,15,13,0,2020-11-12,36.27167174,-90.09122243
Missouri,Franklin,3631,78,57,0,2020-11-12,38.41127108,-91.07522826
Missouri,Gasconade,355,6,24,0,2020-11-12,38.43947277,-91.50847147
Missouri,Gentry,277,5,11,0,2020-11-12,40.21097916,-94.40944419
Missouri,Greene,11190,170,155,0,2020-11-12,37.2575872,-93.34230916
Missouri,Grundy,351,6,12,0,2020-11-12,40.11406587,-93.56509276
Missouri,Harrison,253,11,1,0,2020-11-12,40.35570088,-93.99222144
Missouri,Henry,701,56,8,0,2020-11-12,38.38482826,-93.79293734
Missouri,Hickory,300,0,4,0,2020-11-12,37.94163617,-93.3203037
Missouri,Holt,179,7,2,0,2020-11-12,40.09799248,-95.2163888
Missouri,Howard,346,10,2,0,2020-11-12,39.1435761,-92.69756691
Missouri,Howell,1399,14,22,1,2020-11-12,36.77383887,-91.88683935
Missouri,Iron,158,8,0,0,2020-11-12,37.55487945,-90.7735296
Missouri,Jackson,12890,173,152,1,2020-11-12,39.01002188,-94.34724536
Missouri,Jasper,6585,148,95,4,2020-11-12,37.20351921,-94.34050458
Missouri,Jefferson,7764,215,94,0,2020-11-12,38.25926778,-90.53870896
Missouri,Johnson,1953,26,11,0,2020-11-12,38.74719601,-93.80691168
Missouri,Knox,94,4,1,0,2020-11-12,40.12699751,-92.14780832
Missouri,Laclede,1478,29,28,0,2020-11-12,37.65896829,-92.5888493
Missouri,Lafayette,1153,13,27,0,2020-11-12,39.06986886,-93.78076396
Missouri,Lawrence,1489,30,32,0,2020-11-12,37.10626634,-93.83293097
Missouri,Lewis,325,5,2,0,2020-11-12,40.09673161,-91.72070156
Missouri,Lincoln,1667,38,7,0,2020-11-12,39.05345619,-90.95588181
Missouri,Linn,223,4,10,0,2020-11-12,39.87001769,-93.10704106
Missouri,Livingston,637,11,10,1,2020-11-12,39.78110272,-93.54645978
Missouri,McDonald,1299,3,15,0,2020-11-12,36.62869595,-94.34867205
Missouri,Macon,383,15,1,0,2020-11-12,39.83049768,-92.56453089
Missouri,Madison,638,5,7,0,2020-11-12,37.47865134,-90.3467143
Missouri,Maries,275,8,1,0,2020-11-12,38.16193985,-91.92249662
Missouri,Marion,1298,28,15,0,2020-11-12,39.80601912,-91.62203062
Missouri,Mercer,52,2,0,0,2020-11-12,40.42212303,-93.5682959
Missouri,Miller,1193,28,20,0,2020-11-12,38.21450288,-92.42610898
Missouri,Mississippi,546,6,6,0,2020-11-12,36.82516239,-89.29505753
Missouri,Moniteau,936,18,14,0,2020-11-12,38.63571781,-92.57976951
Missouri,Monroe,267,7,3,0,2020-11-12,39.49593978,-92.00043978
Missouri,Montgomery,246,8,5,0,2020-11-12,38.94022054,-91.47000721
Missouri,Morgan,875,17,8,0,2020-11-12,38.4181765,-92.88791859
Missouri,New Madrid,1016,31,23,0,2020-11-12,36.59666326,-89.66070007
Missouri,Newton,2474,50,26,0,2020-11-12,36.90519407,-94.3394104
Missouri,Nodaway,1603,90,11,0,2020-11-12,40.36079813,-94.88133008
Missouri,Oregon,299,1,0,0,2020-11-12,36.68710164,-91.4033755
Missouri,Osage,724,31,3,0,2020-11-12,38.46036182,-91.8613635
Missouri,Ozark,248,3,1,0,2020-11-12,36.64916339,-92.44459066
Missouri,Pemiscot,899,20,15,0,2020-11-12,36.2130572,-89.78742322
Missouri,Perry,1123,15,8,0,2020-11-12,37.70660776,-89.82741088
Missouri,Pettis,2302,28,28,0,2020-11-12,38.72798918,-93.28471706
Missouri,Phelps,1175,61,33,0,2020-11-12,37.87736118,-91.79351727
Missouri,Pike,577,33,8,0,2020-11-12,39.34310674,-91.16980779
Missouri,Platte,1260,20,13,0,2020-11-12,39.38154439,-94.77068479
Missouri,Polk,1185,3,11,0,2020-11-12,37.6162296,-93.39828174
Missouri,Pulaski,1235,24,13,0,2020-11-12,37.82462075,-92.20783203
Missouri,Putnam,83,5,1,0,2020-11-12,40.47942497,-93.02042674
Missouri,Ralls,303,15,1,0,2020-11-12,39.52817427,-91.51838643
Missouri,Randolph,852,23,4,0,2020-11-12,39.44007257,-92.4971374
Missouri,Ray,488,14,2,0,2020-11-12,39.3537468,-93.98905745
