State,County,Total Cases,New Cases,Total Deaths,New Deaths,Date,Latitude,Longitude
Alabama,Autauga,2267,25,30,0,2020-11-07,32.53952745,-86.64408227
Alabama,Baldwin,7188,54,83,0,2020-11-07,30.72774991,-87.72207058
Alabama,Barbour,1092,2,9,0,2020-11-07,31.868263,-85.3871286
Alabama,Bibb,924,7,16,1,2020-11-07,32.99642064,-87.12511459999997
Alabama,Blount,2286,33,26,0,2020-11-07,33.98210918,-86.56790593
Alabama,Bullock,663,1,17,0,2020-11-07,32.10030533,-85.71265535
Alabama,Butler,1046,2,41,0,2020-11-07,31.75300095,-86.68057478
Alabama,Calhoun,5153,76,67,0,2020-11-07,33.77483727,-85.82630386
Alabama,Chambers,1483,14,48,0,2020-11-07,32.91360079,-85.39072749
Alabama,Cherokee,836,4,15,0,2020-11-07,34.17805983,-85.60638968
Alabama,Chilton,2001,9,35,0,2020-11-07,32.85044126,-86.7173256
Alabama,Choctaw,407,4,12,0,2020-11-07,32.02227341,-88.26564429999998
Alabama,Clarke,1435,-1,18,0,2020-11-07,31.68099859,-87.83548597
Alabama,Clay,812,6,13,0,2020-11-07,33.26984193,-85.85836077
Alabama,Cleburne,622,6,11,1,2020-11-07,33.67679204,-85.52005899
Alabama,Coffee,1970,23,12,1,2020-11-07,31.39932826,-85.98901039
Alabama,Colbert,2450,25,33,0,2020-11-07,34.69847452,-87.80168544
Alabama,Conecuh,604,8,13,0,2020-11-07,31.43401703,-86.99320044
Alabama,Coosa,235,2,3,0,2020-11-07,32.93690146,-86.24847739
Alabama,Covington,1941,7,32,0,2020-11-07,31.2477854,-86.45050893
Alabama,Crenshaw,641,0,30,0,2020-11-07,31.72941803,-86.31593104
Alabama,Cullman,3140,51,27,0,2020-11-07,34.13020303,-86.86888037
Alabama,Dale,2027,27,55,1,2020-11-07,31.43037123,-85.61095742
Alabama,Dallas,1981,11,27,0,2020-11-07,32.32688101,-87.10866709999998
Alabama,DeKalb,3857,37,32,2,2020-11-07,34.45946862,-85.80782906
Alabama,Elmore,3438,35,59,0,2020-11-07,32.59785413,-86.14415284
Alabama,Escambia,1823,6,31,0,2020-11-07,31.1256789,-87.15918694
Alabama,Etowah,4853,61,58,1,2020-11-07,34.04567266,-86.04051873
Alabama,Fayette,658,14,15,0,2020-11-07,33.72076938,-87.73886638
Alabama,Franklin,2245,13,33,0,2020-11-07,34.44235334,-87.84289505
Alabama,Geneva,1016,4,8,0,2020-11-07,31.09389027,-85.83572839
Alabama,Greene,358,2,17,0,2020-11-07,32.85504247,-87.95684022
Alabama,Hale,823,3,30,0,2020-11-07,32.76039258,-87.63284988
Alabama,Henry,776,6,6,0,2020-11-07,31.51148016,-85.24267944
Alabama,Houston,4472,36,36,0,2020-11-07,31.15197924,-85.29939599
Alabama,Jackson,2465,26,22,1,2020-11-07,34.78144169,-85.99750489
Alabama,Jefferson,25627,257,403,12,2020-11-07,33.55554728,-86.89506300000002
Alabama,Lamar,553,9,7,0,2020-11-07,33.77995024,-88.09668032
Alabama,Lauderdale,2911,37,47,2,2020-11-07,34.90171875,-87.65624729
Alabama,Lawrence,995,12,35,1,2020-11-07,34.52041498,-87.31069453
Alabama,Lee,6878,27,65,0,2020-11-07,32.60154883,-85.35132246
Alabama,Limestone,3311,40,37,0,2020-11-07,34.81185586,-86.98310072
Alabama,Lowndes,745,2,29,0,2020-11-07,32.1597283,-86.65158371
Alabama,Macon,598,2,20,0,2020-11-07,32.38759944,-85.69267724
Alabama,Madison,10284,134,105,-1,2020-11-07,34.76327133,-86.55069633
Alabama,Marengo,1090,10,24,0,2020-11-07,32.24767634,-87.78796182
Alabama,Marion,1203,6,31,0,2020-11-07,34.13697363,-87.88704173
Alabama,Marshall,4809,40,53,0,2020-11-07,34.36975964,-86.30486727
Alabama,Mobile,17729,62,327,2,2020-11-07,30.78472347,-88.20842409
Alabama,Monroe,691,3,10,0,2020-11-07,31.56729412,-87.36995001
Alabama,Montgomery,11080,78,219,4,2020-11-07,32.2206831,-86.20969272
Alabama,Morgan,4818,65,40,1,2020-11-07,34.45500589,-86.85475946
Alabama,Perry,618,3,6,0,2020-11-07,32.64048341,-87.29770589
Alabama,Pickens,991,12,18,0,2020-11-07,33.28094866,-88.08818103
Alabama,Pike,1425,6,14,0,2020-11-07,31.80396383,-85.9408295
Alabama,Randolph,888,5,18,2,2020-11-07,33.29526734,-85.45708831
Alabama,Russell,2022,4,3,0,2020-11-07,32.28725256,-85.18415324
Alabama,St. Clair,3447,30,52,0,2020-11-07,33.71902176,-86.31029372
Alabama,Shelby,8182,92,71,1,2020-11-07,33.26879845,-86.66232561
Alabama,Sumter,506,4,21,0,2020-11-07,32.59117397,-88.19916205
Alabama,Talladega,2935,25,40,0,2020-11-07,33.37823223,-86.16886178
Alabama,Tallapoosa,1467,13,87,0,2020-11-07,32.86698258,-85.79833053
Alabama,Tuscaloosa,11141,116,146,0,2020-11-07,33.28726072,-87.52556818
Alabama,Walker,3129,20,96,0,2020-11-07,33.80270512,-87.30027177
Alabama,Washington,806,5,12,0,2020-11-07,31.4092794,-88.20689944
Alabama,Wilcox,589,3,12,0,2020-11-07,31.98773215,-87.30891118
Alabama,Winston,1026,7,14,1,2020-11-07,34.15030532,-87.37325922
Alaska,Aleutians East,19,0,0,0,2020-11-07,55.32222414,-161.9722021
Alaska,Bristol Bay,0,0,0,0,2020-11-07,58.74513976,-156.701064
Alaska,Denali,33,0,0,0,2020-11-07,63.67264044,-150.0076108
Alaska,Fairbanks North Star,2505,29,16,0,2020-11-07,64.80726247,-146.5692662
Alaska,Haines,15,0,0,0,2020-11-07,59.09893571,-135.4679843
Alaska,Kenai Peninsula,1305,50,4,0,2020-11-07,60.24429722,-151.53888840000005
Alaska,Ketchikan Gateway,117,12,0,0,2020-11-07,55.57445008,-130.975561
Alaska,Kodiak Island,137,6,0,0,2020-11-07,57.65529415,-153.7493579
Alaska,Matanuska-Susitna,1897,74,3,0,2020-11-07,62.31305045,-149.5741743
Alaska,North Slope,312,7,0,0,2020-11-07,69.31479216,-153.4836093
Alaska,Northwest Arctic,282,3,0,0,2020-11-07,67.04919196,-159.7503946
Arizona,Apache,4127,16,183,3,2020-11-07,35.39465006,-109.4892383
Arizona,Cochise,2381,50,76,0,2020-11-07,31.87934684,-109.7516088
Arizona,Coconino,5773,105,151,0,2020-11-07,35.83883429,-111.7707178
Arizona,Gila,2142,50,74,1,2020-11-07,33.80190085,-110.8132779
Arizona,Graham,1408,44,31,0,2020-11-07,32.93166885,-109.8882178
Arizona,Greenlee,109,2,2,0,2020-11-07,33.21498827,-109.2405279
Arizona,La Paz,639,3,18,0,2020-11-07,33.72854224,-113.9810029
Arizona,Maricopa,165702,1433,3699,17,2020-11-07,33.34835867,-112.4918154
Arizona,Mohave,4722,75,240,0,2020-11-07,35.70471703,-113.7577902
Arizona,Navajo,6784,45,256,2,2020-11-07,35.3997715,-110.3218983
Arizona,Pima,30066,302,658,5,2020-11-07,32.0971334,-111.7890033
Arizona,Pinal,12768,244,231,1,2020-11-07,32.90525627,-111.3449483
Arizona,Santa Cruz,3110,7,66,0,2020-11-07,31.52508998,-110.8479088
Arizona,Yavapai,3276,138,99,7,2020-11-07,34.59933926,-112.5538588
Arizona,Yuma,14377,107,363,2,2020-11-07,32.76895712,-113.90666740000002
Arkansas,Arkansas,772,6,20,0,2020-11-07,34.29145151,-91.37277296
Arkansas,Ashley,617,12,13,0,2020-11-07,33.19153461,-91.7698471
Arkansas,Baxter,906,26,13,1,2020-11-07,36.28784385,-92.33782872
Arkansas,Benton,9430,204,129,0,2020-11-07,36.33644656,-94.25680817
Arkansas,Boone,1191,26,38,0,2020-11-07,36.3084504,-93.09374925
Arkansas,Bradley,383,1,8,0,2020-11-07,33.46755808,-92.15980837
Arkansas,Calhoun,76,2,0,0,2020-11-07,33.55598792,-92.49974403
Arkansas,Carroll,1093,6,20,1,2020-11-07,36.34038560000001,-93.54270261
Arkansas,Chicot,1062,3,23,0,2020-11-07,33.26458973,-91.29539209
Arkansas,Clark,595,14,6,0,2020-11-07,34.04613432,-93.17484713
Arkansas,Clay,568,11,15,0,2020-11-07,36.36826212,-90.4148172
Arkansas,Cleburne,544,4,18,0,2020-11-07,35.53864922,-92.02640019
Arkansas,Cleveland,281,6,13,0,2020-11-07,33.89723187,-92.18537045
Arkansas,Columbia,798,8,22,0,2020-11-07,33.21230701,-93.22642793
Arkansas,Conway,401,11,4,0,2020-11-07,35.26205537,-92.70506566
Arkansas,Craighead,5452,124,54,0,2020-11-07,35.83018283,-90.63235729
Arkansas,Crawford,2357,23,32,1,2020-11-07,35.58928601,-94.2446814
Arkansas,Crittenden,2688,30,53,0,2020-11-07,35.21247318,-90.30839406
Arkansas,Cross,639,4,23,0,2020-11-07,35.29631396,-90.77185818
Arkansas,Dallas,197,1,6,0,2020-11-07,33.97042763,-92.65167437
Arkansas,Desha,456,2,8,0,2020-11-07,33.83011025,-91.25500948
Arkansas,Drew,472,7,7,0,2020-11-07,33.59035001,-91.71777921
Arkansas,Faulkner,3719,36,44,0,2020-11-07,35.14719007,-92.33717519
Arkansas,Franklin,621,19,3,1,2020-11-07,35.51202821,-93.89299569
Arkansas,Fulton,382,5,11,0,2020-11-07,36.38177105,-91.81729127
Arkansas,Garland,2818,29,76,0,2020-11-07,34.57692074,-93.14921604
Arkansas,Grant,408,4,4,0,2020-11-07,34.29017991,-92.42320562
Arkansas,Greene,1906,48,23,1,2020-11-07,36.11735460000001,-90.55832668
Arkansas,Hempstead,665,14,5,0,2020-11-07,33.73325583,-93.66935133
Arkansas,Hot Spring,2387,8,38,0,2020-11-07,34.31709259,-92.95396325
Arkansas,Howard,676,8,15,1,2020-11-07,34.09007427,-93.9934871
Arkansas,Independence,1599,8,66,0,2020-11-07,35.74242707,-91.57001641
Arkansas,Izard,796,9,2,0,2020-11-07,36.09604046,-91.90847954
Arkansas,Jackson,983,6,6,0,2020-11-07,35.59802983,-91.21494602
Arkansas,Jefferson,4525,65,102,0,2020-11-07,34.26767081,-91.92619839
Arkansas,Johnson,1089,5,11,0,2020-11-07,35.56759135,-93.46036368
Arkansas,Lafayette,220,2,3,0,2020-11-07,33.24116713,-93.60677071
Arkansas,Lawrence,943,5,22,0,2020-11-07,36.04188196,-91.10867198
Arkansas,Lee,1118,1,18,0,2020-11-07,34.78498904,-90.78383866
Arkansas,Lincoln,2355,1,18,0,2020-11-07,33.95317155,-91.74002806
Arkansas,Little River,515,3,37,0,2020-11-07,33.70375665,-94.23468591
Arkansas,Logan,647,10,5,0,2020-11-07,35.21413234,-93.71951016
Arkansas,Lonoke,2041,36,34,0,2020-11-07,34.75392199,-91.88742357
Arkansas,Madison,471,11,6,0,2020-11-07,36.01038185,-93.72524943
Arkansas,Marion,216,6,2,0,2020-11-07,36.26844485,-92.68451899
Arkansas,Miller,1777,19,22,0,2020-11-07,33.31403423,-93.89285258
Arkansas,Mississippi,2599,56,70,0,2020-11-07,35.76271485,-90.05194370000002
Arkansas,Monroe,248,2,2,0,2020-11-07,34.6815935,-91.20540287
Arkansas,Montgomery,198,2,9,1,2020-11-07,34.53704874,-93.65824478
Arkansas,Nevada,361,7,14,0,2020-11-07,33.66340119,-93.30632432
Arkansas,Newton,344,2,21,0,2020-11-07,35.91947491,-93.21612969
Arkansas,Ouachita,434,8,9,0,2020-11-07,33.58839816,-92.87795984
Arkansas,Perry,175,3,2,0,2020-11-07,34.9459153,-92.94372564
Arkansas,Phillips,807,6,16,0,2020-11-07,34.43268455,-90.84800154
Arkansas,Pike,288,0,1,0,2020-11-07,34.16250414,-93.65789349
Arkansas,Poinsett,1324,19,29,1,2020-11-07,35.57433534,-90.66268713
Arkansas,Polk,431,9,5,0,2020-11-07,34.48254879,-94.22728802
Arkansas,Pope,2973,29,38,0,2020-11-07,35.44871474,-93.03212219
Arkansas,Prairie,271,4,5,0,2020-11-07,34.83624419,-91.55162157
Arkansas,Pulaski,13126,134,228,0,2020-11-07,34.77054088,-92.31355101
Arkansas,Randolph,749,19,26,0,2020-11-07,36.3415714,-91.02455531
Arkansas,St. Francis,1841,11,10,0,2020-11-07,35.02201976,-90.74828138
Arkansas,Saline,3351,64,40,0,2020-11-07,34.64916145,-92.67583224
Arkansas,Scott,262,5,2,0,2020-11-07,34.85588887,-94.0632176
Arkansas,Searcy,227,1,1,0,2020-11-07,35.9109364,-92.69936482
Arkansas,Sebastian,5461,72,105,0,2020-11-07,35.19605503,-94.27162713
Arkansas,Sevier,1497,11,16,0,2020-11-07,33.99780401,-94.2424869
Arkansas,Sharp,436,16,12,1,2020-11-07,36.16258158,-91.47819342
Arkansas,Stone,415,2,22,0,2020-11-07,35.86251946,-92.15684085
Arkansas,Union,1252,8,53,0,2020-11-07,33.16887091,-92.59746952
Arkansas,Van Buren,245,3,3,0,2020-11-07,35.58095779,-92.51295036
Arkansas,Washington,12445,120,161,2,2020-11-07,35.976844,-94.21800746
Arkansas,White,1902,42,38,1,2020-11-07,35.25688493,-91.74908296
Arkansas,Woodruff,152,2,0,0,2020-11-07,35.18902527,-91.2439489
Arkansas,Yell,1404,8,32,0,2020-11-07,35.00292371,-93.41171338
California,Alameda,24664,246,475,4,2020-11-07,37.64629437,-121.8929271
California,Alpine,23,1,0,0,2020-11-07,38.59678594,-119.8223594
California,Amador,369,6,16,0,2020-11-07,38.44583082,-120.65696
California,Butte,3254,15,54,0,2020-11-07,39.66727762,-121.6005252
California,Calaveras,366,5,21,0,2020-11-07,38.20537103,-120.552913
California,Colusa,581,5,6,0,2020-11-07,39.17881957,-122.2331726
California,Contra Costa,19785,100,250,0,2020-11-07,37.91923498,-121.9289527
California,Del Norte,203,2,1,0,2020-11-07,41.74228275,-123.8974063
California,El Dorado,1487,18,4,0,2020-11-07,38.77965956,-120.5233166
California,Fresno,32278,222,454,0,2020-11-07,36.75733899,-119.6466953
California,Glenn,716,2,3,0,2020-11-07,39.59875897,-122.3938452
California,Humboldt,605,0,10,0,2020-11-07,40.69923009,-123.876044
California,Imperial,13398,0,341,0,2020-11-07,33.0393082,-115.3669042
California,Inyo,250,3,15,0,2020-11-07,36.51112084,-117.41119779999998
California,Kern,35063,90,429,1,2020-11-07,35.34329425,-118.7277796
California,Kings,8883,37,86,2,2020-11-07,36.07409056,-119.8159973
California,Lake,746,6,17,0,2020-11-07,39.10124298,-122.7536244
California,Lassen,794,12,1,0,2020-11-07,40.67311306,-120.59350990000002
California,Los Angeles,319977,2321,7170,13,2020-11-07,34.30828379,-118.2282411
California,Madera,5249,0,76,0,2020-11-07,37.21513971,-119.76655890000002
California,Marin,7232,27,127,0,2020-11-07,38.07122463,-122.7210631
California,Mariposa,89,8,2,0,2020-11-07,37.57978556,-119.9073334
California,Mendocino,1216,3,21,0,2020-11-07,39.4381191,-123.3911313
California,Merced,9982,66,164,1,2020-11-07,37.18922369,-120.7209035
California,Modoc,73,5,0,0,2020-11-07,41.58965602,-120.7244817
California,Mono,335,-1,2,0,2020-11-07,37.93899289,-118.8872409
California,Monterey,12136,138,99,0,2020-11-07,36.21862405,-121.2413397
California,Napa,2189,31,16,0,2020-11-07,38.50735751,-122.332839
California,Nevada,699,11,9,0,2020-11-07,39.30394768,-120.7627281
California,Orange,61743,322,1506,3,2020-11-07,33.70147516,-117.76459979999998
California,Placer,4692,0,60,0,2020-11-07,39.06167234,-120.7240569
California,Plumas,99,5,0,0,2020-11-07,40.00355989,-120.8395236
California,Riverside,70696,0,1333,0,2020-11-07,33.74314981,-115.9933578
California,Sacramento,27530,252,508,2,2020-11-07,38.45106826,-121.3425374
California,San Benito,1509,10,15,0,2020-11-07,36.60308176,-121.069975
California,San Bernardino,68242,465,1093,1,2020-11-07,34.84060306,-116.1774685
California,San Diego,59656,540,908,1,2020-11-07,33.03484597,-116.7365326
California,San Joaquin,22635,79,494,0,2020-11-07,37.93433732,-121.2730061
California,San Luis Obispo,4568,72,33,0,2020-11-07,35.38822029,-120.4039028
California,San Mateo,11810,100,162,0,2020-11-07,37.4228808,-122.32755459999998
California,Santa Barbara,10128,39,131,1,2020-11-07,34.65329488,-120.0188492
California,Santa Clara,26137,254,430,0,2020-11-07,37.23104908,-121.6970462
California,Santa Cruz,3074,43,26,0,2020-11-07,37.05580291,-122.0066524
California,Shasta,2475,23,34,0,2020-11-07,40.76391419,-122.0396884
California,Sierra,7,0,0,0,2020-11-07,39.57713498,-120.52007009999998
California,Siskiyou,292,5,0,0,2020-11-07,41.59198861,-122.5407434
California,Solano,8132,0,79,0,2020-11-07,38.26827353,-121.9357113
California,Sonoma,10248,78,146,0,2020-11-07,38.52746429,-122.8862506
California,Stanislaus,18368,82,407,0,2020-11-07,37.55862499,-120.9970722
California,Sutter,1992,15,12,0,2020-11-07,39.03417539,-121.6945899
California,Tehama,1024,9,17,0,2020-11-07,40.12570935,-122.2370171
California,Trinity,43,2,0,0,2020-11-07,40.64917670000001,-123.114713
California,Tulare,18312,104,297,0,2020-11-07,36.22026558,-118.8020203
California,Tuolumne,329,11,8,1,2020-11-07,38.02644018,-119.9525093
California,Ventura,15222,109,169,0,2020-11-07,34.44465746,-119.0910613
California,Yolo,3463,40,63,0,2020-11-07,38.68278902,-121.9018288
California,Yuba,1434,6,10,0,2020-11-07,39.26255932,-121.3535644
Colorado,Adams,17894,391,272,2,2020-11-07,39.87432092,-104.3362578
Colorado,Alamosa,389,8,9,0,2020-11-07,37.57250606,-105.7885451
Colorado,Arapahoe,15965,384,390,0,2020-11-07,39.64977461,-104.3353617
Colorado,Archuleta,73,2,0,0,2020-11-07,37.19474156,-107.0476867
Colorado,Baca,39,0,0,0,2020-11-07,37.31940883,-102.5603223
Colorado,Bent,24,1,0,0,2020-11-07,37.95474293,-103.0720195
Colorado,Boulder,6754,161,96,0,2020-11-07,40.09313619,-105.3546767
Colorado,Chaffee,461,7,20,0,2020-11-07,38.74745778,-106.19265729999998
Colorado,Cheyenne,16,0,0,0,2020-11-07,38.82777431,-102.6032558
Colorado,Clear Creek,100,2,1,0,2020-11-07,39.68864463,-105.6463118
Colorado,Conejos,102,3,1,0,2020-11-07,37.201606,-106.19174879999998
Colorado,Costilla,47,0,1,0,2020-11-07,37.27732493,-105.4276548
Colorado,Crowley,202,1,1,0,2020-11-07,38.32608609,-103.7844965
Colorado,Custer,32,0,0,0,2020-11-07,38.10883162,-105.3683478
Colorado,Delta,261,13,3,0,2020-11-07,38.86246243,-107.8631342
Colorado,Dolores,3,0,0,0,2020-11-07,37.75208676,-108.5211585
Colorado,Douglas,5341,159,69,1,2020-11-07,39.33133796,-104.930001
Colorado,Eagle,1659,33,10,0,2020-11-07,39.62754308,-106.6933637
Colorado,Elbert,292,10,3,0,2020-11-07,39.28656773,-104.1358721
Colorado,El Paso,13755,451,209,1,2020-11-07,38.83240149,-104.5251411
Colorado,Fremont,1084,46,2,0,2020-11-07,38.47362326,-105.4399667
Colorado,Garfield,1383,36,5,0,2020-11-07,39.59921777,-107.902708
Colorado,Gilpin,44,3,0,0,2020-11-07,39.85646523,-105.5252597
Colorado,Grand,172,5,1,0,2020-11-07,40.10603347,-106.1178042
Colorado,Gunnison,344,12,7,0,2020-11-07,38.66611652,-107.0320729
Colorado,Hinsdale,4,0,0,0,2020-11-07,37.82247444,-107.3004345
Colorado,Huerfano,49,0,2,0,2020-11-07,37.68473101,-104.9612585
Colorado,Jackson,9,0,0,0,2020-11-07,40.66593870000001,-106.3408905
Colorado,Jefferson,11268,324,345,2,2020-11-07,39.58635604,-105.2517692
Colorado,Kiowa,6,0,0,0,2020-11-07,38.43260896,-102.7392145
Colorado,Kit Carson,191,7,3,0,2020-11-07,39.30497777,-102.6022199
Colorado,Lake,162,2,0,0,2020-11-07,39.20278823,-106.3555697
Colorado,La Plata,454,23,2,0,2020-11-07,37.28632032,-107.8429014
Colorado,Larimer,5294,152,60,0,2020-11-07,40.66671597,-105.4625784
Colorado,Las Animas,96,0,0,0,2020-11-07,37.3153406,-104.0376458
Colorado,Lincoln,27,1,0,0,2020-11-07,38.98749519,-103.5136649
Colorado,Logan,1503,37,14,0,2020-11-07,40.7249637,-103.110817
Colorado,Mesa,2238,123,26,4,2020-11-07,39.01787888,-108.469799
Colorado,Mineral,21,0,0,0,2020-11-07,37.66954283,-106.9281698
Colorado,Moffat,96,11,1,0,2020-11-07,40.61810999,-108.2070876
Colorado,Montezuma,287,20,5,0,2020-11-07,37.33859579,-108.5958857
Colorado,Montrose,533,9,14,0,2020-11-07,38.40214114,-108.26390220000002
Colorado,Morgan,1033,22,50,0,2020-11-07,40.26279810000001,-103.8093302
Colorado,Otero,218,7,7,0,2020-11-07,37.9014485,-103.7173385
Colorado,Ouray,52,0,2,0,2020-11-07,38.14717457,-107.7675136
Colorado,Park,122,4,1,0,2020-11-07,39.120926,-105.7182065
Colorado,Phillips,92,8,1,1,2020-11-07,40.59414277,-102.3577703
Colorado,Pitkin,323,4,2,0,2020-11-07,39.21720112,-106.9310027
Colorado,Prowers,251,11,11,0,2020-11-07,37.95544985,-102.3926052
Colorado,Pueblo,3081,117,54,1,2020-11-07,38.17359144,-104.5127437
Colorado,Rio Blanco,36,3,0,0,2020-11-07,39.97913541,-108.2179009
Colorado,Rio Grande,143,1,3,0,2020-11-07,37.5836865,-106.3847838
Colorado,Routt,278,17,9,0,2020-11-07,40.48596505,-106.9905548
Colorado,Saguache,165,6,2,0,2020-11-07,38.08054629,-106.282466
Colorado,San Juan,12,0,0,0,2020-11-07,37.76248981,-107.67632890000002
Colorado,San Miguel,116,2,0,0,2020-11-07,38.00450883,-108.4020725
Colorado,Sedgwick,59,2,1,0,2020-11-07,40.87595412,-102.3519227
Colorado,Summit,937,33,4,0,2020-11-07,39.63803232,-106.1150762
Colorado,Teller,311,9,4,0,2020-11-07,38.88133511,-105.1614893
Colorado,Washington,126,-1,1,0,2020-11-07,39.97015535,-103.202587
Colorado,Weld,7790,246,163,0,2020-11-07,40.55499405,-104.3929621
Colorado,Yuma,246,3,1,0,2020-11-07,40.00346839,-102.4258673
Connecticut,Fairfield,26435,0,1447,0,2020-11-07,41.26809896,-73.3881171
Connecticut,Hartford,19769,0,1505,0,2020-11-07,41.80283011,-72.73103891
Connecticut,Litchfield,2559,0,146,0,2020-11-07,41.7937534,-73.2451475
Connecticut,Middlesex,2231,0,198,0,2020-11-07,41.45949668,-72.53714864
Connecticut,New Haven,19154,0,1137,0,2020-11-07,41.4080325,-72.93620426
Connecticut,New London,4220,0,149,0,2020-11-07,41.48896435,-72.10430976
Connecticut,Tolland,1940,0,68,0,2020-11-07,41.85853803,-72.3308481
Connecticut,Windham,1610,0,21,0,2020-11-07,41.82972709,-71.98182316
Delaware,Kent,3741,24,122,0,2020-11-07,39.08646628,-75.56884914
Delaware,New Castle,13964,146,354,0,2020-11-07,39.57992638,-75.64054974
Delaware,Sussex,8461,53,240,0,2020-11-07,38.66143781,-75.39031349
Florida,Alachua,11082,35,78,0,2020-11-07,29.67866525,-82.35928158
Florida,Baker,1847,3,26,0,2020-11-07,30.33060121,-82.28467476
Florida,Bay,7108,21,141,3,2020-11-07,30.26548745,-85.62122584
Florida,Bradford,1259,1,15,0,2020-11-07,29.95079741,-82.16611613
Florida,Brevard,12572,143,391,6,2020-11-07,28.29409504,-80.73091022
Florida,Broward,90172,421,1545,0,2020-11-07,26.15184651,-80.48725556
Florida,Calhoun,754,2,15,0,2020-11-07,30.40666734,-85.19394153
Florida,Charlotte,3962,40,165,0,2020-11-07,26.90131002,-81.92949121
Florida,Citrus,3493,53,142,3,2020-11-07,28.84804315,-82.47614748
Florida,Clay,6465,32,127,0,2020-11-07,29.98319144,-81.85609986
Florida,Collier,15173,82,259,0,2020-11-07,26.11091986,-81.34687065
Florida,Columbia,4377,17,79,0,2020-11-07,30.22509788,-82.62160164
Florida,DeSoto,1717,7,30,0,2020-11-07,27.18677893,-81.80941373
Florida,Dixie,921,2,11,0,2020-11-07,29.60631086,-83.15724673
Florida,Duval,36520,82,534,0,2020-11-07,30.33225875,-81.66976468
Florida,Escambia,14205,66,279,5,2020-11-07,30.67652764,-87.37284571
Florida,Flagler,2262,8,40,0,2020-11-07,29.45933576,-81.31508595
Florida,Franklin,791,0,4,0,2020-11-07,29.83791238,-84.82731662
Florida,Gadsden,3094,2,56,0,2020-11-07,30.57796289,-84.61915825
Florida,Gilchrist,624,0,19,0,2020-11-07,29.72856978,-82.79880657
Florida,Glades,626,2,6,0,2020-11-07,26.95635849,-81.18996211
Florida,Gulf,981,2,15,0,2020-11-07,29.93543004,-85.24270990000002
Florida,Hamilton,923,1,10,0,2020-11-07,30.49673973,-82.94998918
Florida,Hardee,1645,4,17,0,2020-11-07,27.49293939,-81.80956574
Florida,Hendry,2288,7,44,0,2020-11-07,26.55386945,-81.16469006
Florida,Hernando,3972,26,178,1,2020-11-07,28.55364461,-82.42700204
Florida,Highlands,2913,43,123,2,2020-11-07,27.34254618,-81.34071957
Florida,Hillsborough,50380,253,836,6,2020-11-07,27.9276559,-82.32013172
Florida,Holmes,980,4,13,0,2020-11-07,30.86747479,-85.81319222
Florida,Indian River,4128,48,126,0,2020-11-07,27.69308961,-80.60556721
Florida,Jackson,3313,14,83,0,2020-11-07,30.7954597,-85.21500423
Florida,Jefferson,702,2,11,0,2020-11-07,30.43669112,-83.89442308
Florida,Lafayette,1290,0,17,1,2020-11-07,29.98484137,-83.18166636
Florida,Lake,9132,29,235,-1,2020-11-07,28.76202069,-81.7125123
Florida,Lee,24655,147,531,0,2020-11-07,26.58410348,-81.88399313
Florida,Leon,12864,39,119,0,2020-11-07,30.45955727,-84.27491114
Florida,Levy,1194,5,12,0,2020-11-07,29.31829741,-82.74007147
Florida,Liberty,549,4,12,1,2020-11-07,30.23766008,-84.8829258
Florida,Madison,1106,6,25,0,2020-11-07,30.44396917,-83.47398594
Florida,Manatee,13989,45,334,4,2020-11-07,27.47196942,-82.31831044
Florida,Marion,11280,75,361,6,2020-11-07,29.21227113,-82.05803627
Florida,Martin,5548,24,169,1,2020-11-07,27.0772071,-80.43109784
Florida,Miami-Dade,192646,808,3682,11,2020-11-07,25.6112362,-80.55170587
Florida,Monroe,2539,17,25,0,2020-11-07,25.20904673,-81.07812416
Florida,Nassau,2591,15,52,0,2020-11-07,30.61037141,-81.80297522
Florida,Okaloosa,6968,67,138,8,2020-11-07,30.69143028,-86.59267105
Florida,Okeechobee,1802,14,42,0,2020-11-07,27.386336199999995,-80.88944347
Florida,Orange,48596,274,591,15,2020-11-07,28.51367621,-81.31799498
Florida,Osceola,14935,66,211,0,2020-11-07,28.06312234,-81.14882926
Florida,Palm Beach,55002,378,1609,3,2020-11-07,26.64676272,-80.46536002
Florida,Pasco,11671,113,249,4,2020-11-07,28.30810945,-82.40227529
Florida,Pinellas,27372,180,831,0,2020-11-07,27.93130349,-82.72239666
Florida,Polk,23966,87,638,1,2020-11-07,27.95027105,-81.69732947
Florida,Putnam,2468,7,51,0,2020-11-07,29.60779729,-81.74230285
Florida,St. Johns,6992,27,87,1,2020-11-07,29.90096506,-81.43589967
Florida,St. Lucie,9491,46,339,0,2020-11-07,27.37763908,-80.47106649
Florida,Santa Rosa,6199,24,89,1,2020-11-07,30.693414500000006,-87.02458128
Florida,Sarasota,10312,65,351,1,2020-11-07,27.18546175,-82.33174248
Florida,Seminole,10860,59,250,0,2020-11-07,28.7158582,-81.24060348
Florida,Sumter,3070,23,88,0,2020-11-07,28.70181754,-82.0794267
Florida,Suwannee,3062,3,81,1,2020-11-07,30.19746066,-82.99099670000003
Florida,Taylor,1530,5,18,0,2020-11-07,30.04848048,-83.60445406
Florida,Union,1175,1,49,2,2020-11-07,30.04412971,-82.37497443
Florida,Volusia,13557,118,329,0,2020-11-07,29.05858895,-81.18263252
Florida,Wakulla,1374,5,11,0,2020-11-07,30.16548905,-84.39895211
Florida,Walton,2958,237,32,0,2020-11-07,30.64204028,-86.16935664
Florida,Washington,1296,11,24,0,2020-11-07,30.61359259,-85.66002461
Georgia,Appling,1190,1,38,0,2020-11-07,31.74847232,-82.28909114
Georgia,Atkinson,491,0,7,0,2020-11-07,31.29633502,-82.87545866
Georgia,Bacon,643,3,17,1,2020-11-07,31.55456473,-82.45936528
Georgia,Baker,97,0,6,0,2020-11-07,31.32669878,-84.44218806
Georgia,Baldwin,2371,9,66,0,2020-11-07,33.06882326,-83.24701748
Georgia,Banks,594,3,9,0,2020-11-07,34.35607081,-83.49644388
Georgia,Barrow,2749,14,55,1,2020-11-07,33.99148694,-83.71436292
Georgia,Bartow,3844,24,96,0,2020-11-07,34.23732119,-84.83887523
Georgia,Ben Hill,899,4,34,0,2020-11-07,31.76095874,-83.22145359
Georgia,Berrien,506,-1,15,1,2020-11-07,31.27590016,-83.22529920000002
Georgia,Bibb,6815,15,204,1,2020-11-07,32.80904227,-83.70489165
Georgia,Bleckley,518,0,27,0,2020-11-07,32.43829035,-83.33035166
Georgia,Brantley,488,3,13,0,2020-11-07,31.19576557,-81.97743999
Georgia,Brooks,554,0,26,0,2020-11-07,30.83922642,-83.58303423
Georgia,Bryan,1334,4,16,0,2020-11-07,32.00979311,-81.44002948
Georgia,Bulloch,3157,4,33,0,2020-11-07,32.39577406,-81.74811421
Georgia,Burke,916,3,12,0,2020-11-07,33.05917989,-81.99928721
Georgia,Butts,775,1,44,0,2020-11-07,33.283094500000004,-83.95435040000002
Georgia,Calhoun,278,-8,10,0,2020-11-07,31.53169785,-84.62725131
Georgia,Camden,1496,4,18,0,2020-11-07,30.92951916,-81.66601818
Georgia,Candler,564,2,25,0,2020-11-07,32.40209349,-82.07702563
Georgia,Carroll,3550,14,80,0,2020-11-07,33.58138199,-85.07976677
Georgia,Catoosa,1601,24,25,0,2020-11-07,34.89872298,-85.13757014
Georgia,Charlton,656,2,10,0,2020-11-07,30.78371028,-82.13951596
Georgia,Chatham,9728,29,194,0,2020-11-07,32.00043026,-81.12489526
Georgia,Chattahoochee,1830,10,1,0,2020-11-07,32.34341231,-84.78809239
Georgia,Chattooga,1020,10,29,0,2020-11-07,34.47197698,-85.34535662
Georgia,Cherokee,7656,69,104,0,2020-11-07,34.24393976,-84.47431861
Georgia,Clarke,6025,33,50,0,2020-11-07,33.95436462,-83.37124007
Georgia,Clay,124,0,3,0,2020-11-07,31.62221166,-84.97713865
Georgia,Clayton,8715,54,183,0,2020-11-07,33.54187245,-84.35594188
Georgia,Clinch,468,2,13,0,2020-11-07,30.91395822,-82.70432472
Georgia,Cobb,23026,113,468,1,2020-11-07,33.94243204,-84.5761255
Georgia,Coffee,2366,16,65,0,2020-11-07,31.54892966,-82.85492059999999
Georgia,Colquitt,2165,2,40,0,2020-11-07,31.18810588,-83.7677946
Georgia,Columbia,4614,21,68,0,2020-11-07,33.54534185,-82.263524
Georgia,Cook,652,5,16,0,2020-11-07,31.16068491,-83.42947229
Georgia,Coweta,3086,17,63,0,2020-11-07,33.35334302,-84.76129976
Georgia,Crawford,202,4,6,0,2020-11-07,32.71391813,-83.98061238
Georgia,Crisp,681,2,24,0,2020-11-07,31.92289565,-83.76811843
Georgia,Dade,409,7,6,0,2020-11-07,34.854916700000004,-85.50490424
Georgia,Dawson,948,3,11,0,2020-11-07,34.44244079,-84.16964071
Georgia,Decatur,1337,9,36,0,2020-11-07,30.87967778,-84.57619536
Georgia,DeKalb,22445,66,408,1,2020-11-07,33.76944049,-84.22396017
Georgia,Dodge,661,3,29,0,2020-11-07,32.17265114,-83.16948926
Georgia,Dooly,386,3,18,0,2020-11-07,32.15630737,-83.79746561
Georgia,Dougherty,3342,8,193,0,2020-11-07,31.53328528,-84.21722377
Georgia,Douglas,4355,22,77,1,2020-11-07,33.70291126,-84.77026156
Georgia,Early,569,3,35,0,2020-11-07,31.32155345,-84.90255207
Georgia,Echols,246,0,2,0,2020-11-07,30.71101099,-82.89687287
Georgia,Effingham,1907,5,29,0,2020-11-07,32.36616021,-81.34280942
Georgia,Elbert,810,12,14,1,2020-11-07,34.11302332,-82.83936148
Georgia,Emanuel,1249,7,38,0,2020-11-07,32.59221302,-82.30239915
Georgia,Evans,492,0,7,0,2020-11-07,32.15328841,-81.8870105
Georgia,Fannin,855,5,29,0,2020-11-07,34.86430205,-84.316964
Georgia,Fayette,2255,7,58,1,2020-11-07,33.41357794,-84.49089434
Georgia,Floyd,4309,27,65,1,2020-11-07,34.26268279,-85.21577392
Georgia,Forsyth,5073,36,55,0,2020-11-07,34.22604035,-84.12315129999998
Georgia,Franklin,1008,11,18,0,2020-11-07,34.37525597,-83.23159927
Georgia,Fulton,32552,119,636,1,2020-11-07,33.79216944,-84.46319413
Georgia,Gilmer,1088,0,24,0,2020-11-07,34.69316688,-84.45802506
Georgia,Glascock,54,0,2,0,2020-11-07,33.22879932,-82.61297636
Georgia,Glynn,3855,6,105,0,2020-11-07,31.23279254,-81.53811412
Georgia,Gordon,2597,39,50,2,2020-11-07,34.50487351,-84.87296253
Georgia,Grady,884,-1,25,0,2020-11-07,30.87454847,-84.23418364
Georgia,Greene,597,1,25,0,2020-11-07,33.5769205,-83.17139104
Georgia,Gwinnett,32045,112,459,1,2020-11-07,33.96044201,-84.02137802
Georgia,Habersham,1941,5,76,0,2020-11-07,34.63331566,-83.53094677
Georgia,Hall,11150,48,184,0,2020-11-07,34.32207823,-83.81896936
Georgia,Hancock,422,2,45,0,2020-11-07,33.2721566,-82.99766919
Georgia,Haralson,728,9,15,0,2020-11-07,33.79602175,-85.21005667
Georgia,Harris,878,1,26,0,2020-11-07,32.73709786,-84.90538572
Georgia,Hart,617,2,19,1,2020-11-07,34.34626973,-82.96567682
Georgia,Heard,253,0,6,0,2020-11-07,33.29686567,-85.12886832
Georgia,Henry,6633,40,122,4,2020-11-07,33.4533428,-84.14814659999998
Georgia,Houston,3848,23,97,0,2020-11-07,32.45802497,-83.66879087
Georgia,Irwin,370,0,10,0,2020-11-07,31.60213036,-83.27501387
Georgia,Jackson,2605,25,44,1,2020-11-07,34.13794553,-83.56814788
Georgia,Jasper,253,1,4,0,2020-11-07,33.31535543,-83.68844964
Georgia,Jeff Davis,818,2,27,0,2020-11-07,31.80405727,-82.63724870000001
Georgia,Jefferson,869,2,35,0,2020-11-07,33.05867328,-82.41609057
Georgia,Jenkins,476,0,33,0,2020-11-07,32.79248718,-81.96040187
Georgia,Johnson,441,1,24,0,2020-11-07,32.70211082,-82.66166794
Georgia,Jones,675,3,17,0,2020-11-07,33.02512137,-83.56019163
Georgia,Lamar,453,4,20,0,2020-11-07,33.07841647,-84.14263877
Georgia,Lanier,323,0,7,0,2020-11-07,31.038285700000007,-83.06472457
Georgia,Laurens,2099,4,94,1,2020-11-07,32.46325233,-82.92221316
Georgia,Lee,764,3,31,0,2020-11-07,31.779330600000005,-84.14324253
Georgia,Liberty,1343,7,26,0,2020-11-07,31.82588896,-81.49251135
Georgia,Lincoln,250,2,8,0,2020-11-07,33.79201475,-82.45024131
Georgia,Long,287,-1,4,0,2020-11-07,31.75218791,-81.74952375
Georgia,Lowndes,4629,25,90,0,2020-11-07,30.83568832,-83.27056716
Georgia,Lumpkin,1087,4,18,1,2020-11-07,34.57286511,-84.00425681
Georgia,McDuffie,724,1,17,0,2020-11-07,33.47851918,-82.48252774
Georgia,McIntosh,325,1,7,0,2020-11-07,31.49683595,-81.40163426
Georgia,Macon,265,0,11,0,2020-11-07,32.35207048,-84.04234127
Georgia,Madison,849,5,11,0,2020-11-07,34.12920917,-83.21218732
Georgia,Marion,208,1,10,0,2020-11-07,32.3483402,-84.52733571
Georgia,Meriwether,606,2,19,3,2020-11-07,33.04163534,-84.68859732
Georgia,Miller,332,6,2,0,2020-11-07,31.16568912,-84.73151117
Georgia,Mitchell,863,7,46,0,2020-11-07,31.22483255,-84.19381821
Georgia,Monroe,801,6,55,0,2020-11-07,33.014289,-83.92097166
Georgia,Montgomery,370,-1,9,0,2020-11-07,32.17201038,-82.53527476
Georgia,Morgan,553,1,6,0,2020-11-07,33.59232073,-83.49129491
Georgia,Murray,1203,19,11,0,2020-11-07,34.78897608,-84.74993177
Georgia,Muscogee,6518,15,178,0,2020-11-07,32.50931999,-84.87142262
Georgia,Newton,3018,12,99,0,2020-11-07,33.55514538,-83.84547140000002
Georgia,Oconee,907,4,32,0,2020-11-07,33.83749973,-83.43679568
Georgia,Oglethorpe,445,0,13,0,2020-11-07,33.878629600000004,-83.08278123
Georgia,Paulding,3388,21,68,0,2020-11-07,33.91969522,-84.86848792
Georgia,Peach,828,7,26,0,2020-11-07,32.56934316,-83.82937
Georgia,Pickens,862,8,12,2,2020-11-07,34.46589159,-84.46406611
Georgia,Pierce,710,3,25,0,2020-11-07,31.35928155,-82.21598442
Georgia,Pike,402,1,12,0,2020-11-07,33.09310242,-84.38790389
Georgia,Polk,1802,9,29,1,2020-11-07,34.00267074,-85.18677781
Georgia,Pulaski,346,1,23,0,2020-11-07,32.23334561,-83.47549959999998
Georgia,Putnam,849,2,28,0,2020-11-07,33.32056115,-83.37552891
Georgia,Quitman,42,1,1,0,2020-11-07,31.86728114,-85.01773177
Georgia,Rabun,454,7,11,0,2020-11-07,34.88389445,-83.40304637
Georgia,Randolph,341,0,30,0,2020-11-07,31.76622818,-84.75732369
Georgia,Richmond,8372,21,189,1,2020-11-07,33.35777107,-82.07026432
Georgia,Rockdale,2253,10,42,0,2020-11-07,33.65145002,-84.02202167
Georgia,Schley,114,3,2,0,2020-11-07,32.2654021,-84.31258912
Georgia,Screven,459,2,11,0,2020-11-07,32.74976524,-81.60779441
Georgia,Seminole,408,1,11,0,2020-11-07,30.93464824,-84.86823924
Georgia,Spalding,1694,10,66,0,2020-11-07,33.26310031,-84.28013991
Georgia,Stephens,1319,8,43,0,2020-11-07,34.55151201,-83.29405315
Georgia,Stewart,572,0,17,0,2020-11-07,32.07996777,-84.83208037
Georgia,Sumter,976,0,68,0,2020-11-07,32.03650571,-84.19821492
Georgia,Talbot,189,5,8,0,2020-11-07,32.69642758,-84.53351366
Georgia,Taliaferro,31,0,0,0,2020-11-07,33.56543317,-82.88136816
Georgia,Tattnall,971,0,18,1,2020-11-07,32.04785085,-82.05539188
Georgia,Taylor,245,0,13,0,2020-11-07,32.55792548,-84.25077141
Georgia,Telfair,506,0,24,0,2020-11-07,31.92829517,-82.93491155
Georgia,Terrell,344,1,32,0,2020-11-07,31.77527543,-84.44069698
Georgia,Thomas,1643,0,73,1,2020-11-07,30.86392347,-83.91847289
Georgia,Tift,2012,6,66,0,2020-11-07,31.45743864,-83.5236119
Georgia,Toombs,1544,5,59,1,2020-11-07,32.12059861,-82.32957247
Georgia,Towns,482,5,15,1,2020-11-07,34.91369188,-83.74107459999998
Georgia,Treutlen,317,2,12,0,2020-11-07,32.40422134,-82.56904553
Georgia,Troup,3106,10,113,0,2020-11-07,33.03349196,-85.02812115
Georgia,Turner,344,3,25,1,2020-11-07,31.71612656,-83.62069378
Georgia,Twiggs,229,0,11,1,2020-11-07,32.67435595,-83.43078662
Georgia,Union,950,5,29,0,2020-11-07,34.82995757,-83.98967069
Georgia,Upson,853,2,70,0,2020-11-07,32.87920671,-84.30024826
Georgia,Walker,2073,16,46,0,2020-11-07,34.73376362,-85.30165174
Georgia,Walton,2449,10,71,0,2020-11-07,33.78017694,-83.73552314
Georgia,Ware,1793,7,67,0,2020-11-07,31.05449097,-82.42224148
Georgia,Warren,171,-1,6,0,2020-11-07,33.41146451,-82.67795848
Georgia,Washington,867,5,14,0,2020-11-07,32.96711864,-82.79357039
Georgia,Wayne,1286,4,36,0,2020-11-07,31.5521809,-81.91894878
Georgia,Webster,44,0,2,0,2020-11-07,32.04066113,-84.54742852
Georgia,Wheeler,369,0,18,0,2020-11-07,32.12009104,-82.72574721
Georgia,White,1053,6,26,0,2020-11-07,34.64624278,-83.74905525
Georgia,Whitfield,6071,70,67,0,2020-11-07,34.80987459,-84.96093476
Georgia,Wilcox,262,0,25,0,2020-11-07,31.97496928,-83.43438555
Georgia,Wilkes,328,0,7,0,2020-11-07,33.78290391,-82.74286107
Georgia,Wilkinson,382,3,17,0,2020-11-07,32.80291082,-83.17140684
Georgia,Worth,614,-1,35,0,2020-11-07,31.55162306,-83.85090513
Idaho,Ada,19065,447,191,3,2020-11-07,43.4526575,-116.24155159999998
Idaho,Adams,80,1,2,0,2020-11-07,44.89333571,-116.4545247
Idaho,Bannock,3071,47,17,0,2020-11-07,42.67002716,-112.2233311
Idaho,Bear Lake,109,16,1,0,2020-11-07,42.28269683,-111.32892379999998
Idaho,Benewah,201,2,3,0,2020-11-07,47.21754179,-116.6586851
Idaho,Bingham,1873,44,25,0,2020-11-07,43.21672879999999,-112.3978437
Idaho,Blaine,994,15,7,0,2020-11-07,43.4085812,-113.9752658
Idaho,Boise,101,1,2,0,2020-11-07,43.98829931,-115.7309284
Idaho,Bonner,588,13,2,0,2020-11-07,48.29996017,-116.6017932
Idaho,Bonneville,5250,93,40,0,2020-11-07,43.38713372,-111.6161537
Idaho,Boundary,251,7,1,0,2020-11-07,48.76684761,-116.4630179
Idaho,Butte,111,1,0,0,2020-11-07,43.72592209,-113.1735463
Idaho,Camas,50,0,0,0,2020-11-07,43.46665742,-114.8065892
Idaho,Canyon,11301,200,119,1,2020-11-07,43.61970148,-116.7095499
Idaho,Caribou,349,3,5,0,2020-11-07,42.77149116,-111.5597683
Idaho,Cassia,1639,32,11,0,2020-11-07,42.28347888,-113.6012409
Idaho,Clark,43,2,0,0,2020-11-07,44.28496071,-112.3505704
Idaho,Clearwater,188,0,0,0,2020-11-07,46.67459924,-115.6622393
Idaho,Custer,103,0,1,0,2020-11-07,44.24186819,-114.2855494
Idaho,Elmore,641,8,4,0,2020-11-07,43.3507101,-115.4701578
Idaho,Franklin,421,5,3,0,2020-11-07,42.18332217,-111.8149666
Idaho,Fremont,546,8,5,0,2020-11-07,44.22800938,-111.4809943
Idaho,Gem,497,6,6,0,2020-11-07,44.06482372,-116.398376
Idaho,Gooding,746,23,9,0,2020-11-07,42.96927962,-114.8108306
Idaho,Idaho,450,0,1,0,2020-11-07,45.84721541,-115.4634436
Idaho,Jefferson,1119,18,5,0,2020-11-07,43.82078483,-112.3131749
Idaho,Jerome,1416,43,9,0,2020-11-07,42.68891267,-114.2655033
Idaho,Kootenai,5055,116,55,0,2020-11-07,47.67282258,-116.7020872
Idaho,Latah,1114,0,1,0,2020-11-07,46.81587887,-116.7113698
Idaho,Lemhi,347,12,4,0,2020-11-07,44.9438088,-113.9309747
Idaho,Lewis,111,0,3,0,2020-11-07,46.23315327,-116.434146
Idaho,Lincoln,279,4,6,0,2020-11-07,43.0012336,-114.1358773
Idaho,Madison,3002,46,7,0,2020-11-07,43.78141028,-111.65384740000002
Idaho,Minidoka,1358,18,10,0,2020-11-07,42.85518524,-113.6357257
Idaho,Nez Perce,1251,0,25,0,2020-11-07,46.32638236,-116.7500975
Idaho,Oneida,81,5,0,0,2020-11-07,42.19494279999999,-112.5407838
Idaho,Owyhee,433,7,5,0,2020-11-07,42.58016894,-116.1693871
Idaho,Payette,1238,5,11,0,2020-11-07,44.00545243,-116.7647695
Idaho,Power,396,1,2,0,2020-11-07,42.69254894,-112.83957420000002
Idaho,Shoshone,316,4,20,0,2020-11-07,47.35364087,-115.8916749
Idaho,Teton,354,9,2,0,2020-11-07,43.75303583,-111.2056773
Idaho,Twin Falls,5076,123,54,0,2020-11-07,42.35440512,-114.6685381
Idaho,Valley,165,12,1,0,2020-11-07,44.76728382,-115.5676773
Idaho,Washington,529,5,8,0,2020-11-07,44.45275475,-116.7847688
Illinois,Adams,2733,93,29,1,2020-11-07,39.98815591,-91.18786813
Illinois,Alexander,178,8,2,0,2020-11-07,37.18049267,-89.32910838
Illinois,Bond,644,17,9,0,2020-11-07,38.88829622,-89.43534887
Illinois,Boone,2494,52,26,0,2020-11-07,42.32359279,-88.82345779
Illinois,Brown,171,10,0,0,2020-11-07,39.96209138,-90.75068024
Illinois,Bureau,1226,42,19,0,2020-11-07,41.40385234,-89.5283051
Illinois,Calhoun,117,3,0,0,2020-11-07,39.16840183,-90.66330078
Illinois,Carroll,670,29,17,0,2020-11-07,42.06823429,-89.93395545
Illinois,Cass,564,31,11,0,2020-11-07,39.96991073,-90.24734436
Illinois,Champaign,7744,172,31,1,2020-11-07,40.13919438,-88.20046615
Illinois,Christian,1129,46,31,0,2020-11-07,39.54581621,-89.27780482
Illinois,Clark,472,6,19,1,2020-11-07,39.33425789,-87.78705622
Illinois,Clay,422,23,16,1,2020-11-07,38.75388572,-88.48914513
Illinois,Clinton,2142,42,36,0,2020-11-07,38.60704876,-89.42385254
Illinois,Coles,2451,65,47,0,2020-11-07,39.51949084,-88.22358557
Illinois,Cook,214924,4658,5770,28,2020-11-07,41.84144849,-87.81658794
Illinois,Crawford,739,9,6,0,2020-11-07,39.0032229,-87.75954624
Illinois,Cumberland,410,12,6,0,2020-11-07,39.27432424,-88.2401158
Illinois,DeKalb,3251,98,43,0,2020-11-07,41.89373302,-88.76958483
Illinois,De Witt,412,14,9,0,2020-11-07,40.17514519,-88.90959682
Illinois,Douglas,966,19,10,0,2020-11-07,39.76768052,-88.21854195
Illinois,DuPage,29541,707,679,4,2020-11-07,41.85116968,-88.08642662
Illinois,Edgar,481,17,14,0,2020-11-07,39.6809186,-87.74759563
Illinois,Edwards,135,6,0,0,2020-11-07,38.41353228,-88.05720863
Illinois,Effingham,1647,54,5,0,2020-11-07,39.05935711,-88.58969584
Illinois,Fayette,938,32,26,0,2020-11-07,39.00072038,-89.02452658
Illinois,Ford,375,16,19,0,2020-11-07,40.59706922,-88.22350769
Illinois,Franklin,1265,34,12,0,2020-11-07,37.99189086,-88.92567818
Illinois,Fulton,819,31,4,2,2020-11-07,40.47289135,-90.20862357
Illinois,Gallatin,132,0,3,0,2020-11-07,37.76430935,-88.22953869
Illinois,Greene,485,28,19,0,2020-11-07,39.35907414,-90.388865
Illinois,Grundy,1476,71,8,0,2020-11-07,41.28569601,-88.41905692
Illinois,Hamilton,186,12,2,0,2020-11-07,38.08163641,-88.53883373
Illinois,Hancock,518,36,4,0,2020-11-07,40.40423981,-91.16313899
Illinois,Hardin,68,2,0,0,2020-11-07,37.51810645,-88.26873022
Illinois,Henderson,169,7,0,0,2020-11-07,40.81908672,-90.92491462
Illinois,Henry,1304,74,9,0,2020-11-07,41.3533994,-90.13296166
Illinois,Iroquois,820,40,20,0,2020-11-07,40.74717633,-87.82466784
Illinois,Jackson,1818,38,29,1,2020-11-07,37.78595185,-89.38232563
Illinois,Jasper,415,7,10,0,2020-11-07,39.01054275,-88.15437049
Illinois,Jefferson,1177,27,55,3,2020-11-07,38.29980057,-88.9240025
Illinois,Jersey,724,17,22,0,2020-11-07,39.08869046,-90.35393073
Illinois,Jo Daviess,676,27,11,0,2020-11-07,42.36542373,-90.21094405
Illinois,Johnson,478,24,0,0,2020-11-07,37.45939802,-88.88165419
Illinois,Kane,21780,585,379,6,2020-11-07,41.93842729,-88.42861412
Illinois,Kankakee,4784,232,86,2,2020-11-07,41.13746989,-87.86205334
Illinois,Kendall,3801,182,32,0,2020-11-07,41.59081014,-88.42869583
Illinois,Knox,1727,45,31,2,2020-11-07,40.93148779,-90.21330340000002
Illinois,Lake,25758,634,548,2,2020-11-07,42.3224907,-88.00367925
Illinois,LaSalle,3490,134,80,1,2020-11-07,41.34426129999999,-88.88633881
Illinois,Lawrence,437,19,8,0,2020-11-07,38.71987914,-87.72884035
Illinois,Lee,1103,47,6,0,2020-11-07,41.74583951,-89.29977132
Illinois,Livingston,1060,96,12,0,2020-11-07,40.89188292,-88.55784752
Illinois,Logan,842,37,6,0,2020-11-07,40.12581572,-89.36638784
Illinois,McDonough,1001,39,25,0,2020-11-07,40.45674722,-90.67775541
Illinois,McHenry,8895,363,126,1,2020-11-07,42.32451172,-88.45248227
Illinois,McLean,5348,143,40,1,2020-11-07,40.48996987,-88.84621113
Illinois,Macon,4322,112,74,2,2020-11-07,39.86064913,-88.96342505
Illinois,Macoupin,1054,33,12,0,2020-11-07,39.26119767,-89.92424028
Illinois,Madison,8976,213,168,4,2020-11-07,38.83042506,-89.90422563
Illinois,Marion,1376,45,29,2,2020-11-07,38.64963204,-88.91899208
Illinois,Marshall,205,7,4,0,2020-11-07,41.0327901,-89.34510444
Illinois,Mason,400,11,13,0,2020-11-07,40.23917274,-89.91824452
Illinois,Massac,221,17,2,0,2020-11-07,37.22078441,-88.71036614
Illinois,Menard,218,9,1,0,2020-11-07,40.02742725,-89.80246001
Illinois,Mercer,433,14,7,0,2020-11-07,41.20596782,-90.74290052
Illinois,Monroe,1241,61,40,0,2020-11-07,38.27594376,-90.17761038
Illinois,Montgomery,767,15,17,0,2020-11-07,39.23198845,-89.47809254
Illinois,Morgan,1243,42,27,0,2020-11-07,39.71654544,-90.20255104
Illinois,Moultrie,588,23,7,0,2020-11-07,39.64187451,-88.62099969
Illinois,Ogle,1755,37,8,0,2020-11-07,42.04165196,-89.32184679
Illinois,Peoria,5729,131,92,0,2020-11-07,40.78702156,-89.76078901
Illinois,Perry,606,21,16,0,2020-11-07,38.08510853,-89.36856219
Illinois,Piatt,400,21,4,0,2020-11-07,40.01360584,-88.59319339
Illinois,Pike,601,17,12,0,2020-11-07,39.62265059,-90.8877017
Illinois,Pope,52,2,1,0,2020-11-07,37.41391284,-88.56152109
Illinois,Pulaski,276,7,1,0,2020-11-07,37.22631423,-89.13085001
Illinois,Putnam,128,4,0,0,2020-11-07,41.2013541,-89.2869272
Illinois,Randolph,1534,35,19,2,2020-11-07,38.05095369,-89.82512254
Illinois,Richland,407,8,19,0,2020-11-07,38.71240969,-88.08475366
Illinois,Rock Island,5366,154,104,3,2020-11-07,41.46613806,-90.57042164
Illinois,St. Clair,9099,181,240,1,2020-11-07,38.46996033,-89.93063427
Illinois,Saline,740,18,14,1,2020-11-07,37.75332999,-88.54119706
Illinois,Sangamon,5683,172,69,1,2020-11-07,39.75836914,-89.65872023
Illinois,Schuyler,126,7,1,0,2020-11-07,40.1571798,-90.61114163
Illinois,Scott,146,20,0,0,2020-11-07,39.6429169,-90.47814431
Illinois,Shelby,893,25,22,0,2020-11-07,39.39133527,-88.80611122
Illinois,Stark,127,0,3,0,2020-11-07,41.09309773,-89.79745866
Illinois,Stephenson,1582,78,13,1,2020-11-07,42.35129217,-89.662598
Illinois,Tazewell,3597,118,64,1,2020-11-07,40.50716185,-89.51404662
Illinois,Union,872,14,26,0,2020-11-07,37.47119609,-89.25548938
Illinois,Vermilion,2269,61,20,2,2020-11-07,40.18417171,-87.73384359
Illinois,Wabash,318,11,6,0,2020-11-07,38.44272901,-87.84922065
Illinois,Warren,678,25,11,1,2020-11-07,40.84925021,-90.6147432
Illinois,Washington,402,6,2,0,2020-11-07,38.35309213,-89.40982703
Illinois,Wayne,633,11,22,1,2020-11-07,38.42955355,-88.42586459
Illinois,White,348,15,6,0,2020-11-07,38.08706198,-88.17657461
Illinois,Whiteside,2212,100,54,5,2020-11-07,41.75509713,-89.91556058
Illinois,Will,24010,731,475,2,2020-11-07,41.44619267,-87.97862712
Illinois,Williamson,2353,58,66,0,2020-11-07,37.73033511,-88.92994027
Illinois,Winnebago,13378,363,212,5,2020-11-07,42.33641854,-89.16085327
Illinois,Woodford,954,51,18,0,2020-11-07,40.78579374,-89.20973757
Indiana,Adams,869,47,10,0,2020-11-07,40.7457653,-84.93671406
Indiana,Allen,11106,317,244,0,2020-11-07,41.09194313,-85.06800636
Indiana,Bartholomew,1820,66,59,0,2020-11-07,39.20744865,-85.89558181
Indiana,Benton,142,7,1,0,2020-11-07,40.60626947,-87.31093999
Indiana,Blackford,314,0,6,0,2020-11-07,40.47388153,-85.32499702
Indiana,Boone,1601,45,51,0,2020-11-07,40.0509304,-86.46841646
Indiana,Brown,184,5,3,0,2020-11-07,39.19605589,-86.22868909
Indiana,Carroll,455,13,13,0,2020-11-07,40.580783200000006,-86.56198812
Indiana,Cass,2542,15,26,0,2020-11-07,40.76135835,-86.34830753
Indiana,Clark,3627,88,68,1,2020-11-07,38.48015445,-85.70510334
Indiana,Clay,644,16,17,-1,2020-11-07,39.39561833,-87.11723506
Indiana,Clinton,1207,20,17,0,2020-11-07,40.30319754,-86.47277257
Indiana,Crawford,196,2,1,0,2020-11-07,38.28814402,-86.44518825
Indiana,Daviess,1104,15,37,0,2020-11-07,38.70186039,-87.07185406
Indiana,Dearborn,1323,55,28,0,2020-11-07,39.14647946,-84.97333539
Indiana,Decatur,758,30,39,0,2020-11-07,39.30712658,-85.50087166
Indiana,DeKalb,1072,20,14,0,2020-11-07,41.39804622,-84.99906934
Indiana,Delaware,3672,66,88,1,2020-11-07,40.22787247,-85.39732772
Indiana,Dubois,1824,22,29,0,2020-11-07,38.36597551,-86.87924170000002
Indiana,Elkhart,11802,354,167,6,2020-11-07,41.59761169,-85.85875695
Indiana,Fayette,1081,23,26,0,2020-11-07,39.63684962,-85.17797541
Indiana,Floyd,2231,45,72,1,2020-11-07,38.32117957,-85.90385377
Indiana,Fountain,467,10,4,0,2020-11-07,40.12361933,-87.24217689
Indiana,Franklin,448,15,25,-1,2020-11-07,39.4142482,-85.06062647
Indiana,Fulton,509,11,13,0,2020-11-07,41.0469907,-86.26252745
Indiana,Gibson,1178,28,12,0,2020-11-07,38.30393723,-87.58054938
Indiana,Grant,1637,28,43,0,2020-11-07,40.51587228,-85.65468702
Indiana,Greene,714,20,46,2,2020-11-07,39.03630547,-86.96223202
Indiana,Hamilton,8187,265,136,4,2020-11-07,40.07306535,-86.05244729
Indiana,Hancock,1586,37,45,0,2020-11-07,39.82304555,-85.77566351
Indiana,Harrison,959,11,24,0,2020-11-07,38.19467379,-86.10948271
Indiana,Hendricks,3997,67,145,1,2020-11-07,39.76719009,-86.51037283
Indiana,Henry,1731,19,30,0,2020-11-07,39.93029017,-85.39625719
Indiana,Howard,2040,46,71,1,2020-11-07,40.48527731,-86.11351892
Indiana,Huntington,656,22,6,0,2020-11-07,40.82907273,-85.48822092
Indiana,Jackson,1445,32,22,0,2020-11-07,38.90915820000001,-86.03851889
Indiana,Jasper,954,29,6,0,2020-11-07,41.02078733,-87.11553319
Indiana,Jay,535,23,8,1,2020-11-07,40.43781032,-85.00576229
Indiana,Jefferson,546,24,6,0,2020-11-07,38.78576239,-85.43633383
Indiana,Jennings,517,33,13,0,2020-11-07,38.99588883,-85.62710784
Indiana,Johnson,4052,95,154,1,2020-11-07,39.48994426,-86.10149107
Indiana,Knox,1126,31,12,0,2020-11-07,38.68861576,-87.4194665
Indiana,Kosciusko,2787,91,33,1,2020-11-07,41.24521668,-85.86312322
Indiana,LaGrange,1001,25,18,0,2020-11-07,41.64232188,-85.42674232
Indiana,Lake,18391,465,391,2,2020-11-07,41.41874274,-87.38277575
Indiana,LaPorte,3047,96,73,2,2020-11-07,41.54366008,-86.74072188
Indiana,Lawrence,1246,27,42,1,2020-11-07,38.84112637,-86.48361629
Indiana,Madison,3229,98,107,0,2020-11-07,40.16143691,-85.71964711
Indiana,Marion,30001,550,803,2,2020-11-07,39.78163624,-86.13826325
Indiana,Marshall,1911,39,33,1,2020-11-07,41.32467367,-86.26185087
Indiana,Martin,242,6,0,0,2020-11-07,38.7099921,-86.80373186
Indiana,Miami,920,25,5,0,2020-11-07,40.76940965,-86.04525048
Indiana,Monroe,3861,67,42,0,2020-11-07,39.16130004,-86.52414358
Indiana,Montgomery,841,21,22,0,2020-11-07,40.04034823,-86.89335024
Indiana,Morgan,1292,45,41,0,2020-11-07,39.47899078,-86.44573375
Indiana,Newton,348,15,12,0,2020-11-07,40.95610449,-87.39635768
Indiana,Noble,1572,28,38,3,2020-11-07,41.39672484,-85.41966713
Indiana,Ohio,161,2,7,0,2020-11-07,38.955305,-84.96515993
Indiana,Orange,496,4,27,1,2020-11-07,38.54118920000001,-86.49523093
Indiana,Owen,322,20,1,0,2020-11-07,39.31145587,-86.83900724
Indiana,Parke,338,16,6,0,2020-11-07,39.77202286,-87.20375833
Indiana,Perry,615,20,17,1,2020-11-07,38.07809328,-86.63741946
Indiana,Pike,403,-5,18,0,2020-11-07,38.40112197,-87.23574907
Indiana,Porter,4850,135,61,0,2020-11-07,41.45986947,-87.06848888
Indiana,Posey,922,3,11,0,2020-11-07,38.02097333,-87.86480429
Indiana,Pulaski,245,11,8,1,2020-11-07,41.04166107,-86.69890683
Indiana,Putnam,898,7,21,0,2020-11-07,39.66437981,-86.84517605
Indiana,Randolph,658,24,12,0,2020-11-07,40.15734772,-85.01139319
Indiana,Ripley,691,19,11,0,2020-11-07,39.10235626,-85.26212744
Indiana,Rush,360,12,5,0,2020-11-07,39.62002287,-85.4655599
Indiana,St. Joseph,11793,271,185,1,2020-11-07,41.61756781,-86.29040834
Indiana,Scott,657,8,17,1,2020-11-07,38.68672078,-85.74627859
Indiana,Shelby,1207,33,47,1,2020-11-07,39.52305623,-85.79158570000001
Indiana,Spencer,534,7,6,0,2020-11-07,38.01519732,-87.0079644
Indiana,Starke,620,12,12,1,2020-11-07,41.27890281,-86.64686895
Indiana,Steuben,861,16,10,0,2020-11-07,41.64423868,-85.00101094
Indiana,Sullivan,534,8,14,0,2020-11-07,39.08952258,-87.41414469
Indiana,Switzerland,153,19,0,0,2020-11-07,38.82767338,-85.03022429
Indiana,Tippecanoe,5294,157,22,3,2020-11-07,40.38872739,-86.89413959
Indiana,Tipton,350,15,23,0,2020-11-07,40.31123252,-86.05234925
Indiana,Union,163,5,0,0,2020-11-07,39.62550777,-84.92497066
Indiana,Vanderburgh,7241,83,88,0,2020-11-07,38.02658833,-87.58763124
Indiana,Vermillion,348,6,2,0,2020-11-07,39.8523352,-87.46160542
Indiana,Vigo,3509,81,56,1,2020-11-07,39.42944561,-87.39169027
Indiana,Wabash,757,38,13,0,2020-11-07,40.84704239,-85.79328272
Indiana,Warren,143,5,1,0,2020-11-07,40.34728141,-87.35602659
Indiana,Warrick,2423,26,67,0,2020-11-07,38.08922676,-87.2716085
Indiana,Washington,471,9,4,0,2020-11-07,38.60219804,-86.1049363
Indiana,Wayne,1976,37,41,2,2020-11-07,39.8633444,-85.01044989
Indiana,Wells,677,34,15,0,2020-11-07,40.72934187,-85.22132966
Indiana,White,789,22,17,0,2020-11-07,40.74911165,-86.86492015
Indiana,Whitley,716,24,6,0,2020-11-07,41.13863784,-85.50791236
Iowa,Adair,266,5,3,0,2020-11-07,41.33075609,-94.47105874
Iowa,Adams,96,3,1,0,2020-11-07,41.02903567,-94.69932645
Iowa,Allamakee,487,7,9,0,2020-11-07,43.28383218,-91.37860922
Iowa,Appanoose,377,16,3,0,2020-11-07,40.74324454,-92.86865906
Iowa,Audubon,225,5,1,0,2020-11-07,41.6844628,-94.90581859
Iowa,Benton,928,43,6,0,2020-11-07,42.08011739,-92.06463573
Iowa,Black Hawk,7428,192,108,1,2020-11-07,42.4704581,-92.30524729
Iowa,Boone,895,18,10,0,2020-11-07,42.03657094,-93.9313999
Iowa,Bremer,1040,46,11,1,2020-11-07,42.77461496,-92.31795937
Iowa,Buchanan,672,30,5,0,2020-11-07,42.4709188,-91.83510825
Iowa,Buena Vista,2494,40,13,0,2020-11-07,42.73545875,-95.15100162
Iowa,Butler,548,17,3,0,2020-11-07,42.73172833,-92.79015971
Iowa,Calhoun,631,163,5,0,2020-11-07,42.38521079,-94.64046046
Iowa,Carroll,1433,34,14,1,2020-11-07,42.03617207,-94.86032705
Iowa,Cass,570,10,10,0,2020-11-07,41.33149454,-94.92792482
Iowa,Cedar,640,14,9,1,2020-11-07,41.77233777,-91.13246684
Iowa,Cerro Gordo,1985,99,30,1,2020-11-07,43.08177563,-93.2612239
Iowa,Cherokee,513,7,3,0,2020-11-07,42.73538914,-95.62389402
Iowa,Chickasaw,460,13,1,0,2020-11-07,43.06001295,-92.31773347
Iowa,Clarke,393,4,3,0,2020-11-07,41.02868181,-93.78499767
Iowa,Clay,697,18,4,0,2020-11-07,43.08247182,-95.15096481
Iowa,Clayton,667,8,4,0,2020-11-07,42.84443388,-91.34133693
Iowa,Clinton,1917,72,30,0,2020-11-07,41.89981633,-90.53275096
Iowa,Crawford,1492,8,15,0,2020-11-07,42.03718237,-95.3819718
Iowa,Dallas,4294,144,51,0,2020-11-07,41.68560356,-94.04127625
Iowa,Davis,255,11,4,0,2020-11-07,40.74773536,-92.41005468
Iowa,Decatur,218,6,0,0,2020-11-07,40.73742757,-93.78645949
Iowa,Delaware,1000,25,16,0,2020-11-07,42.47104597,-91.3664492
Iowa,Des Moines,1943,52,13,0,2020-11-07,40.92012606,-91.18326592
Iowa,Dickinson,936,20,9,0,2020-11-07,43.37787725,-95.1510206
Iowa,Dubuque,6649,192,69,2,2020-11-07,42.46815349,-90.88181925
Iowa,Emmet,511,13,21,0,2020-11-07,43.37782951,-94.67858943
Iowa,Fayette,560,16,6,0,2020-11-07,42.86271799,-91.8441231
Iowa,Floyd,560,10,11,0,2020-11-07,43.06000529999999,-92.78940097
Iowa,Franklin,465,15,19,0,2020-11-07,42.73270384,-93.26256925
Iowa,Fremont,249,6,2,0,2020-11-07,40.74542720000001,-95.60129045
Iowa,Greene,262,10,0,0,2020-11-07,42.03614551,-94.39658081
Iowa,Grundy,463,19,6,0,2020-11-07,42.40183723,-92.78829551
Iowa,Guthrie,500,11,15,0,2020-11-07,41.68378965,-94.50111014
Iowa,Hamilton,572,20,6,0,2020-11-07,42.38382428,-93.70197703
Iowa,Hancock,525,28,6,0,2020-11-07,43.08178477,-93.73454884
Iowa,Hardin,668,28,8,1,2020-11-07,42.38353877,-93.23654611
Iowa,Harrison,803,6,21,0,2020-11-07,41.68330137,-95.81558439
Iowa,Henry,1297,34,6,0,2020-11-07,40.98767962,-91.54436349
Iowa,Howard,324,3,9,0,2020-11-07,43.35671042,-92.31702714
Iowa,Humboldt,458,11,3,0,2020-11-07,42.7764426,-94.20722537
Iowa,Ida,306,11,3,0,2020-11-07,42.38696136,-95.51355387
Iowa,Iowa,582,24,11,0,2020-11-07,41.68630265,-92.0643373
Iowa,Jackson,961,46,5,0,2020-11-07,42.17178824,-90.57354837
Iowa,Jasper,1511,48,34,0,2020-11-07,41.68576082,-93.05567785
Iowa,Jefferson,346,10,1,0,2020-11-07,41.03192394,-91.94849466
Iowa,Johnson,6868,148,33,0,2020-11-07,41.67169354,-91.58754744
Iowa,Jones,1311,49,4,0,2020-11-07,42.12118609,-91.13139641
Iowa,Keokuk,291,20,1,0,2020-11-07,41.33649833,-92.1785067
Iowa,Kossuth,599,27,1,0,2020-11-07,43.20405458,-94.20691791
Iowa,Lee,1282,45,14,1,2020-11-07,40.64181461,-91.48183025
Iowa,Linn,8375,361,140,1,2020-11-07,42.07923082,-91.59809485
Iowa,Louisa,617,6,15,0,2020-11-07,41.21842119,-91.26102611
Iowa,Lucas,245,3,6,0,2020-11-07,41.02958964,-93.32780803
Iowa,Lyon,634,7,8,0,2020-11-07,43.38107862,-96.20926845
Iowa,Madison,446,12,4,0,2020-11-07,41.33081904,-94.01554631
Iowa,Mahaska,898,29,25,0,2020-11-07,41.33521503,-92.64083907
Iowa,Marion,1331,39,13,0,2020-11-07,41.33445101,-93.09934783
Iowa,Marshall,2533,60,37,0,2020-11-07,42.03586837,-92.9990819
Iowa,Mills,587,31,3,0,2020-11-07,41.03299766,-95.61920963
Iowa,Mitchell,412,15,2,0,2020-11-07,43.35638371,-92.78887719
Iowa,Monona,291,4,2,0,2020-11-07,42.05220391,-95.95743843
Iowa,Monroe,313,9,12,0,2020-11-07,41.02988815,-92.8690667
Iowa,Montgomery,261,15,7,0,2020-11-07,41.03018714,-95.15642896
Iowa,Muscatine,1810,34,60,1,2020-11-07,41.48370744,-91.1121697
Iowa,O'Brien,937,29,18,0,2020-11-07,43.08310673,-95.62474482
Iowa,Osceola,350,8,0,0,2020-11-07,43.37824276,-95.62422844
Iowa,Page,652,50,1,1,2020-11-07,40.7393172,-95.1497813
Iowa,Palo Alto,400,9,2,0,2020-11-07,43.08193849,-94.67824621
Iowa,Plymouth,2059,48,34,1,2020-11-07,42.737633,-96.21366621
Iowa,Pocahontas,337,16,2,0,2020-11-07,42.73420133,-94.67862564
Iowa,Polk,22879,520,297,0,2020-11-07,41.68679484,-93.57767461
Iowa,Pottawattamie,3989,114,49,1,2020-11-07,41.33640314,-95.53907776
Iowa,Poweshiek,621,23,11,0,2020-11-07,41.68625425,-92.53155731
Iowa,Ringgold,122,4,2,0,2020-11-07,40.73518949,-94.24368535
Iowa,Sac,512,14,5,0,2020-11-07,42.38624071,-95.10547892
Iowa,Scott,6258,215,51,0,2020-11-07,41.63935978,-90.61959493
Iowa,Shelby,491,11,2,0,2020-11-07,41.6850066,-95.31015553
Iowa,Sioux,2870,34,20,0,2020-11-07,43.08221074,-96.1767568
Iowa,Story,4753,95,18,0,2020-11-07,42.03621213,-93.46499005
Iowa,Tama,1153,26,38,0,2020-11-07,42.07991767,-92.53266945
Iowa,Taylor,312,8,2,0,2020-11-07,40.73710579,-94.69778563
Iowa,Union,349,15,6,0,2020-11-07,41.0277278,-94.24234847
Iowa,Van Buren,234,4,2,0,2020-11-07,40.75326764,-91.95017958
Iowa,Wapello,1822,41,64,0,2020-11-07,41.03064984,-92.40954728
Iowa,Warren,1637,62,9,0,2020-11-07,41.33559454,-93.56007641
Iowa,Washington,848,22,12,0,2020-11-07,41.33577126,-91.71725711
Iowa,Wayne,220,3,4,0,2020-11-07,40.73969028,-93.32752197
Iowa,Webster,2379,79,18,0,2020-11-07,42.42853483,-94.17987389
Iowa,Winnebago,613,17,20,0,2020-11-07,43.37751174,-93.73407298
Iowa,Winneshiek,613,19,9,0,2020-11-07,43.29094334,-91.84422722
Iowa,Woodbury,8287,106,102,0,2020-11-07,42.38979414,-96.0459439
Iowa,Worth,204,10,0,0,2020-11-07,43.37750768,-93.26087602
Iowa,Wright,907,23,1,0,2020-11-07,42.73305373,-93.73515113
Kansas,Allen,175,0,1,0,2020-11-07,37.88582951,-95.30030847
Kansas,Anderson,263,0,0,0,2020-11-07,38.21413251,-95.29272815
Kansas,Atchison,620,0,7,0,2020-11-07,39.53185661,-95.30870026
Kansas,Barber,104,0,0,0,2020-11-07,37.2288586,-98.68460053
Kansas,Barton,934,0,7,0,2020-11-07,38.47889676,-98.75636726
Kansas,Bourbon,337,0,3,0,2020-11-07,37.85508555,-94.84865997
Kansas,Brown,326,0,6,0,2020-11-07,39.82652589,-95.56421698
Kansas,Butler,1188,0,3,0,2020-11-07,37.78134351,-96.83878537
Kansas,Chase,118,0,3,0,2020-11-07,38.30292938,-96.59563862
Kansas,Chautauqua,24,0,0,0,2020-11-07,37.14994405,-96.2454192
Kansas,Cherokee,815,43,7,0,2020-11-07,37.16928494,-94.8462897
Kansas,Cheyenne,134,0,6,0,2020-11-07,39.78580976,-101.7318201
Kansas,Clark,77,0,4,0,2020-11-07,37.23577007,-99.81883015
Kansas,Clay,173,0,3,0,2020-11-07,39.34948772,-97.16518128
Kansas,Cloud,270,0,1,0,2020-11-07,39.48028352,-97.64925343
Kansas,Coffey,198,0,9,0,2020-11-07,38.2365018,-95.73379515
Kansas,Comanche,23,0,0,0,2020-11-07,37.19114520000001,-99.27113247
Kansas,Cowley,711,0,10,0,2020-11-07,37.23781842,-96.83776647
Kansas,Crawford,1608,0,14,0,2020-11-07,37.50675523,-94.85245778
Kansas,Decatur,154,0,1,0,2020-11-07,39.78468441,-100.4594081
Kansas,Dickinson,447,0,5,0,2020-11-07,38.86600962,-97.15532383
Kansas,Doniphan,227,0,1,0,2020-11-07,39.79067154,-95.14056866
Kansas,Douglas,3278,0,19,0,2020-11-07,38.88503636,-95.2925121
Kansas,Edwards,98,0,0,0,2020-11-07,37.88735543,-99.31263309
Kansas,Elk,20,0,0,0,2020-11-07,37.45338105,-96.24369667
Kansas,Ellis,1586,0,18,0,2020-11-07,38.91458712,-99.31751551
Kansas,Ellsworth,444,0,3,0,2020-11-07,38.69677695,-98.20462799
Kansas,Finney,3485,0,20,0,2020-11-07,38.04340344,-100.7381938
Kansas,Ford,3886,0,13,0,2020-11-07,37.69200114,-99.88825298
Kansas,Franklin,677,0,5,0,2020-11-07,38.56443815,-95.28644341
Kansas,Geary,439,0,4,0,2020-11-07,38.99871131,-96.7577178
Kansas,Gove,220,0,19,0,2020-11-07,38.91588178,-100.4829321
Kansas,Graham,70,0,1,0,2020-11-07,39.34987223,-99.88332493
Kansas,Grant,531,19,8,0,2020-11-07,37.56227336,-101.3079758
Kansas,Gray,211,0,2,0,2020-11-07,37.73836671,-100.4369088
Kansas,Greeley,51,0,0,0,2020-11-07,38.4808095,-101.8061079
Kansas,Greenwood,142,0,0,0,2020-11-07,37.8774388,-96.23250453
Kansas,Hamilton,64,0,0,0,2020-11-07,37.99978709,-101.7921066
Kansas,Harper,191,0,3,0,2020-11-07,37.19175361,-98.07578384
Kansas,Harvey,784,0,8,0,2020-11-07,38.04293782,-97.42747573
Kansas,Haskell,184,0,1,0,2020-11-07,37.5620394,-100.8710738
Kansas,Hodgeman,83,0,0,0,2020-11-07,38.08780079,-99.89829881
Kansas,Jackson,404,26,4,0,2020-11-07,39.41673394,-95.79356799
Kansas,Jefferson,355,0,6,0,2020-11-07,39.2347941,-95.38289232
Kansas,Jewell,32,0,1,0,2020-11-07,39.78470589,-98.21820662
Kansas,Johnson,16717,302,233,4,2020-11-07,38.88548175,-94.82250877
Kansas,Kearny,173,0,6,0,2020-11-07,38.00017981,-101.321681
Kansas,Kingman,154,0,3,0,2020-11-07,37.55909527,-98.13638678
Kansas,Kiowa,69,0,0,0,2020-11-07,37.55848695,-99.2856537
Kansas,Labette,452,0,6,0,2020-11-07,37.19113093,-95.29849679
Kansas,Lane,40,0,0,0,2020-11-07,38.48119447,-100.4660754
Kansas,Leavenworth,2749,0,21,0,2020-11-07,39.20183497,-95.03620809
Kansas,Lincoln,23,0,1,0,2020-11-07,39.04549684,-98.20756994
Kansas,Linn,145,0,1,0,2020-11-07,38.21267844,-94.84254089
Kansas,Logan,142,0,0,0,2020-11-07,38.91735806,-101.148475
Kansas,Lyon,1542,0,41,0,2020-11-07,38.45576156,-96.15275715
Kansas,McPherson,674,77,8,0,2020-11-07,38.39184858,-97.64769869
Kansas,Marion,183,0,1,0,2020-11-07,38.35855394,-97.0985251
Kansas,Marshall,113,0,0,0,2020-11-07,39.78359669,-96.52278974
Kansas,Meade,154,0,1,0,2020-11-07,37.23859987,-100.364831
Kansas,Miami,605,0,2,0,2020-11-07,38.56383358,-94.83832189
Kansas,Mitchell,70,0,0,0,2020-11-07,39.39331582,-98.20906732
Kansas,Montgomery,706,0,6,0,2020-11-07,37.19236568,-95.74329258
Kansas,Morris,85,0,0,0,2020-11-07,38.68827511,-96.65128437
Kansas,Morton,56,0,2,0,2020-11-07,37.19141121,-101.79925190000002
Kansas,Nemaha,418,0,4,0,2020-11-07,39.78345387,-96.01392079
Kansas,Neosho,349,0,0,0,2020-11-07,37.55862897,-95.30670046
Kansas,Ness,167,0,9,0,2020-11-07,38.47974157,-99.91547333
Kansas,Norton,934,0,20,0,2020-11-07,39.78443827,-99.90286639
Kansas,Osage,194,0,5,0,2020-11-07,38.65235984,-95.72707998
Kansas,Osborne,26,0,0,0,2020-11-07,39.3503437,-98.76753828
Kansas,Ottawa,128,0,0,0,2020-11-07,39.13237408,-97.65020313
Kansas,Pawnee,440,0,1,0,2020-11-07,38.18108732,-99.23692334
Kansas,Phillips,256,0,9,0,2020-11-07,39.78465501,-99.34668865
Kansas,Pottawatomie,429,0,0,0,2020-11-07,39.37925655,-96.34564657
Kansas,Pratt,285,0,0,0,2020-11-07,37.64780729,-98.73922153
Kansas,Rawlins,129,0,0,0,2020-11-07,39.78525843,-101.0761617
Kansas,Reno,2834,116,19,0,2020-11-07,37.95230263,-98.08607292
Kansas,Republic,111,0,1,0,2020-11-07,39.82799632,-97.65036709
Kansas,Rice,177,0,1,0,2020-11-07,38.34616184,-98.19992118
Kansas,Riley,2409,0,12,0,2020-11-07,39.28935726,-96.73420026
Kansas,Rooks,193,0,7,0,2020-11-07,39.35022773,-99.32484567
Kansas,Rush,98,0,0,0,2020-11-07,38.52275276,-99.30863983
Kansas,Russell,268,25,6,1,2020-11-07,38.91462787,-98.76254297
Kansas,Saline,1352,0,16,0,2020-11-07,38.78369175,-97.65185177
Kansas,Scott,231,8,1,0,2020-11-07,38.48222076,-100.9066539
Kansas,Sedgwick,14328,406,137,0,2020-11-07,37.6842718,-97.4608198
Kansas,Seward,2341,0,13,0,2020-11-07,37.19324632,-100.8507201
Kansas,Shawnee,4252,0,89,0,2020-11-07,39.04100763,-95.7557264
Kansas,Sheridan,208,0,0,0,2020-11-07,39.35018161,-100.4418259
Kansas,Sherman,276,0,6,0,2020-11-07,39.35147699,-101.7197624
Kansas,Smith,45,0,0,0,2020-11-07,39.78516566,-98.78566062
Kansas,Stafford,114,0,1,0,2020-11-07,38.03100851,-98.71762001
Kansas,Stanton,54,0,2,0,2020-11-07,37.56304714,-101.7843534
Kansas,Stevens,282,0,1,0,2020-11-07,37.1923008,-101.3118967
Kansas,Sumner,384,0,4,0,2020-11-07,37.23682549,-97.47721621
Kansas,Thomas,455,0,2,0,2020-11-07,39.35107575,-101.0553705
Kansas,Trego,128,0,3,0,2020-11-07,38.91467218,-99.87284448
Kansas,Wabaunsee,114,0,1,0,2020-11-07,38.95471985,-96.20350509
Kansas,Wallace,89,0,0,0,2020-11-07,38.91686134,-101.7638876
Kansas,Washington,86,0,0,0,2020-11-07,39.78420784,-97.0875323
Kansas,Wichita,51,0,0,0,2020-11-07,38.48178252,-101.3471509
Kansas,Wilson,149,0,4,0,2020-11-07,37.55937174,-95.74323255
Kansas,Woodson,42,0,0,0,2020-11-07,37.8865336,-95.74006277
Kansas,Wyandotte,8876,62,166,0,2020-11-07,39.11727348,-94.76378225
Kentucky,Adair,539,7,22,0,2020-11-07,37.10459774,-85.28129668
Kentucky,Allen,597,8,11,0,2020-11-07,36.75197631,-86.19457544
Kentucky,Anderson,312,14,1,0,2020-11-07,38.00671029,-84.99171713
Kentucky,Ballard,103,5,1,0,2020-11-07,37.05842757,-88.99427697
Kentucky,Barren,1500,25,15,2,2020-11-07,36.96469836,-85.93338945
Kentucky,Bath,162,8,1,0,2020-11-07,38.14735938,-83.74588932
Kentucky,Bell,889,13,17,0,2020-11-07,36.73355174,-83.67766671
Kentucky,Boone,2641,56,25,0,2020-11-07,38.97065142,-84.72615357
Kentucky,Bourbon,372,11,1,0,2020-11-07,38.2054607,-84.21827874
Kentucky,Boyd,865,27,23,0,2020-11-07,38.36176608,-82.68652187
Kentucky,Boyle,543,12,0,0,2020-11-07,37.62680923,-84.8633779
Kentucky,Bracken,82,2,1,0,2020-11-07,38.69158994,-84.08532444
Kentucky,Breathitt,186,5,2,1,2020-11-07,37.52333168,-83.31959161
Kentucky,Breckinridge,294,10,3,0,2020-11-07,37.77377239,-86.42885017
Kentucky,Bullitt,1863,33,16,0,2020-11-07,37.97162523,-85.68955617
Kentucky,Butler,464,7,16,0,2020-11-07,37.20946153,-86.68748787
Kentucky,Caldwell,370,11,0,0,2020-11-07,37.14749129,-87.86948214
Kentucky,Calloway,1162,25,10,0,2020-11-07,36.62093411,-88.2731593
Kentucky,Campbell,1700,63,16,0,2020-11-07,38.94384345,-84.37875208
Kentucky,Carlisle,127,2,1,0,2020-11-07,36.85372876,-88.96692220000001
Kentucky,Carroll,249,7,6,0,2020-11-07,38.66599534,-85.12601074
Kentucky,Carter,430,6,4,0,2020-11-07,38.31690743,-83.05092385
Kentucky,Casey,343,2,16,0,2020-11-07,37.32533118,-84.92726209
Kentucky,Christian,2190,45,31,0,2020-11-07,36.89267803,-87.49055367
Kentucky,Clark,625,18,12,0,2020-11-07,37.9689263,-84.14615986
Kentucky,Clay,702,12,6,0,2020-11-07,37.16451126,-83.712575
Kentucky,Clinton,268,3,3,0,2020-11-07,36.72581156,-85.13377529
Kentucky,Crittenden,184,3,1,0,2020-11-07,37.35839237,-88.08826090000002
Kentucky,Cumberland,161,1,0,0,2020-11-07,36.78926125,-85.39050034
Kentucky,Daviess,2320,46,34,1,2020-11-07,37.73028906,-87.09019479999998
Kentucky,Edmonson,210,4,12,0,2020-11-07,37.21218923,-86.23955613
Kentucky,Elliott,385,23,0,0,2020-11-07,38.11624059,-83.09771563
Kentucky,Estill,327,1,0,0,2020-11-07,37.69241417,-83.95956369
Kentucky,Fayette,12292,213,94,0,2020-11-07,38.0368225,-84.45576892
Kentucky,Fleming,225,4,0,0,2020-11-07,38.36758311,-83.69657514
Kentucky,Floyd,639,34,4,0,2020-11-07,37.56213922,-82.74750924
Kentucky,Franklin,981,17,14,0,2020-11-07,38.2379395,-84.87962551
Kentucky,Fulton,244,0,3,0,2020-11-07,36.55238827,-89.20140068
Kentucky,Gallatin,141,4,8,0,2020-11-07,38.75398691,-84.8558382
Kentucky,Garrard,381,0,4,0,2020-11-07,37.6388668,-84.53289319
Kentucky,Grant,346,13,6,0,2020-11-07,38.64962758,-84.62415957
Kentucky,Graves,1067,25,31,1,2020-11-07,36.72292505,-88.65143315
Kentucky,Grayson,633,10,18,2,2020-11-07,37.46231118,-86.34248968
Kentucky,Green,365,3,8,0,2020-11-07,37.26484328,-85.5540745
Kentucky,Greenup,768,14,12,0,2020-11-07,38.54332505,-82.9215658
Kentucky,Hancock,184,2,5,0,2020-11-07,37.83766422,-86.78280584
Kentucky,Hardin,2635,66,17,0,2020-11-07,37.6976111,-85.96319251
Kentucky,Harlan,680,9,14,0,2020-11-07,36.85699301,-83.21899516
Kentucky,Harrison,308,7,1,0,2020-11-07,38.44188174,-84.32869741
Kentucky,Hart,566,13,1,0,2020-11-07,37.29943898,-85.88461055
Kentucky,Henderson,1529,29,29,0,2020-11-07,37.79344553,-87.57392021
Kentucky,Henry,346,8,2,0,2020-11-07,38.44942688,-85.11587507
Kentucky,Hickman,130,1,1,0,2020-11-07,36.67948079999999,-88.97875928
Kentucky,Hopkins,1271,59,43,0,2020-11-07,37.30939025,-87.54670406
Kentucky,Jackson,539,3,17,0,2020-11-07,37.41866422,-83.99825483
Kentucky,Jefferson,25967,317,391,4,2020-11-07,38.18664655,-85.65931031
Kentucky,Jessamine,1153,25,18,1,2020-11-07,37.87119786,-84.58252003
Kentucky,Johnson,471,8,2,0,2020-11-07,37.85106355,-82.8264322
Kentucky,Kenton,3412,62,51,0,2020-11-07,38.93950319,-84.53241199
Kentucky,Knott,409,10,8,1,2020-11-07,37.35388197,-82.94981134
Kentucky,Knox,989,10,10,0,2020-11-07,36.89225732,-83.85403396
Kentucky,Larue,358,2,1,0,2020-11-07,37.54567114,-85.70138352
Kentucky,Laurel,1800,37,11,0,2020-11-07,37.10975748,-84.11321779
Kentucky,Lawrence,192,4,0,0,2020-11-07,38.07136018,-82.72882223
Kentucky,Lee,204,7,9,2,2020-11-07,37.59645942,-83.71513901
Kentucky,Leslie,159,2,1,0,2020-11-07,37.09246661,-83.37999606
Kentucky,Letcher,351,4,2,0,2020-11-07,37.12306748,-82.85346474
Kentucky,Lewis,379,13,17,0,2020-11-07,38.53184419,-83.37735618
Kentucky,Lincoln,399,2,19,0,2020-11-07,37.45475628,-84.6565327
Kentucky,Livingston,168,6,2,1,2020-11-07,37.21137452,-88.34797529
Kentucky,Logan,887,9,31,0,2020-11-07,36.85949479,-86.877635
Kentucky,Lyon,133,3,5,0,2020-11-07,37.02080035,-88.07886257
Kentucky,McCracken,1516,45,12,0,2020-11-07,37.05350953,-88.70445755
Kentucky,McCreary,287,1,1,0,2020-11-07,36.73874143,-84.48102924
Kentucky,McLean,251,8,6,0,2020-11-07,37.5301951,-87.26803443
Kentucky,Madison,2627,41,14,0,2020-11-07,37.71659336,-84.27220275
Kentucky,Magoffin,257,13,0,0,2020-11-07,37.70820545,-83.0657714
Kentucky,Marion,603,11,10,0,2020-11-07,37.55218078,-85.26898542
Kentucky,Marshall,600,7,8,0,2020-11-07,36.88007070000001,-88.32803576
Kentucky,Martin,267,10,5,0,2020-11-07,37.79990579,-82.51247478
Kentucky,Mason,220,1,2,0,2020-11-07,38.59471935,-83.82151043
Kentucky,Meade,467,4,4,0,2020-11-07,37.96163597,-86.21028219
Kentucky,Menifee,104,1,1,0,2020-11-07,37.94090733,-83.59985712
Kentucky,Mercer,439,8,6,0,2020-11-07,37.81474237,-84.87488475
Kentucky,Metcalfe,258,13,2,0,2020-11-07,36.99459295,-85.63123699
Kentucky,Monroe,452,18,5,0,2020-11-07,36.71225341,-85.71596443
Kentucky,Montgomery,666,11,7,0,2020-11-07,38.03253032,-83.9145241
Kentucky,Morgan,173,4,0,0,2020-11-07,37.92465657,-83.25558245
Kentucky,Muhlenberg,1034,4,18,0,2020-11-07,37.21425819,-87.14632053
Kentucky,Nelson,1289,34,4,0,2020-11-07,37.80335779,-85.4657193
Kentucky,Nicholas,129,0,3,0,2020-11-07,38.33342292,-84.01889177
Kentucky,Ohio,664,4,11,0,2020-11-07,37.47751843,-86.85368087
Kentucky,Oldham,1634,29,26,0,2020-11-07,38.39791089,-85.448222
Kentucky,Owen,137,6,3,0,2020-11-07,38.51679143,-84.82404619
Kentucky,Owsley,109,0,1,0,2020-11-07,37.42823949,-83.68811419
Kentucky,Pendleton,164,10,0,0,2020-11-07,38.69607718,-84.35599463
Kentucky,Perry,652,20,9,0,2020-11-07,37.25023553,-83.22922731
Kentucky,Pike,1168,26,5,0,2020-11-07,37.47088263,-82.39487445
Kentucky,Powell,208,11,0,0,2020-11-07,37.83218794,-83.82553961
Kentucky,Pulaski,1076,9,13,0,2020-11-07,37.10466131,-84.57629079
Kentucky,Robertson,48,2,1,0,2020-11-07,38.51923469,-84.05055616
Kentucky,Rockcastle,410,0,2,0,2020-11-07,37.36642393,-84.31176452
Kentucky,Rowan,460,10,2,0,2020-11-07,38.19484205,-83.42088935
Kentucky,Russell,420,5,7,0,2020-11-07,36.99308373,-85.06070117
Kentucky,Scott,1294,26,20,0,2020-11-07,38.29622293,-84.5816631
Kentucky,Shelby,1652,24,25,0,2020-11-07,38.21476019,-85.194223
Kentucky,Simpson,417,6,8,0,2020-11-07,36.74058474,-86.58047435
Kentucky,Spencer,389,7,1,0,2020-11-07,38.03223971,-85.32749335
Kentucky,Taylor,588,13,7,0,2020-11-07,37.3677562,-85.3329931
Kentucky,Todd,320,2,13,0,2020-11-07,36.8381152,-87.17878374
Kentucky,Trigg,277,1,0,0,2020-11-07,36.80767017,-87.87333656
Kentucky,Trimble,116,2,0,0,2020-11-07,38.61056487,-85.33775972
Kentucky,Union,548,2,6,0,2020-11-07,37.66166713,-87.94300009
Kentucky,Warren,5812,74,59,1,2020-11-07,36.99903045,-86.42672751
Kentucky,Washington,315,12,2,0,2020-11-07,37.75599461,-85.17407732
Kentucky,Wayne,335,6,2,0,2020-11-07,36.80310688,-84.8251971
Kentucky,Webster,387,5,5,0,2020-11-07,37.52168356,-87.67989953
Kentucky,Whitley,983,24,8,0,2020-11-07,36.75700531,-84.14541217
Kentucky,Wolfe,104,8,0,0,2020-11-07,37.73941626,-83.49303612
Kentucky,Woodford,469,8,0,0,2020-11-07,38.04178222,-84.7417556
Louisiana,Acadia,3330,0,106,0,2020-11-07,30.2950649,-92.41419698
Louisiana,Allen,1877,0,64,0,2020-11-07,30.65385745,-92.82442028
Louisiana,Ascension,4405,0,100,0,2020-11-07,30.20406249,-90.91328409999998
Louisiana,Assumption,828,0,24,0,2020-11-07,29.89946234,-91.06461642
Louisiana,Avoyelles,1788,0,63,0,2020-11-07,31.07796211,-92.00079449
Louisiana,Beauregard,1107,0,41,0,2020-11-07,30.64836518,-93.34173616
Louisiana,Bienville,642,0,35,0,2020-11-07,32.34569994,-93.05398492
Louisiana,Bossier,4572,0,125,0,2020-11-07,32.67932307,-93.60460152
Louisiana,Caddo,10679,0,406,0,2020-11-07,32.57991587,-93.88375652
Louisiana,Calcasieu,8643,0,231,0,2020-11-07,30.22931235,-93.35400434
Louisiana,Caldwell,400,0,3,0,2020-11-07,32.0902519,-92.11752148
Louisiana,Cameron,253,0,3,0,2020-11-07,29.87592238,-93.19310676
Louisiana,Catahoula,465,0,15,0,2020-11-07,31.66778967,-91.84526385
Louisiana,Claiborne,621,0,26,0,2020-11-07,32.82308512,-92.99526883
Louisiana,Concordia,637,0,16,0,2020-11-07,31.44817835,-91.63814433
Louisiana,De Soto,1071,0,35,0,2020-11-07,32.05457447,-93.74130302
Louisiana,East Baton Rouge,16626,0,461,0,2020-11-07,30.53842039,-91.09777565
Louisiana,East Carroll,597,0,6,0,2020-11-07,32.73926954,-91.23425694
Louisiana,East Feliciana,1813,0,79,0,2020-11-07,30.84425359,-91.04976723
Louisiana,Evangeline,1448,0,40,0,2020-11-07,30.72985248,-92.39915924
Louisiana,Franklin,1393,0,50,0,2020-11-07,32.13675181,-91.67589857
Louisiana,Grant,553,0,30,0,2020-11-07,31.59882456,-92.56124347
Louisiana,Iberia,3116,0,99,0,2020-11-07,29.86803617,-91.75871777
Louisiana,Iberville,1527,0,61,0,2020-11-07,30.25734305,-91.3499598
Louisiana,Jackson,903,0,24,0,2020-11-07,32.30251776,-92.55692092
Louisiana,Jefferson,19077,0,590,0,2020-11-07,29.74075478,-90.11115756
Louisiana,Jefferson Davis,1384,0,45,0,2020-11-07,30.26896765,-92.81210004
Louisiana,Lafayette,9671,0,140,0,2020-11-07,30.2049055,-92.06959876
Louisiana,Lafourche,3954,0,131,0,2020-11-07,29.52470226,-90.40976986
Louisiana,LaSalle,539,0,11,0,2020-11-07,31.67884782,-92.15907765
Louisiana,Lincoln,1745,0,52,0,2020-11-07,32.6003154,-92.6659741
Louisiana,Livingston,4357,0,82,0,2020-11-07,30.44143993,-90.73061664
Louisiana,Madison,907,0,10,0,2020-11-07,32.36918118,-91.23973355
Louisiana,Morehouse,916,0,29,0,2020-11-07,32.81686191,-91.80421614
Louisiana,Natchitoches,1572,0,34,0,2020-11-07,31.72321584,-93.09816516
Louisiana,Orleans,13719,0,600,0,2020-11-07,30.06971951,-89.92660315
Louisiana,Ouachita,7297,0,173,0,2020-11-07,32.47645559,-92.15704172
Louisiana,Plaquemines,913,0,19,0,2020-11-07,29.42245447,-89.60322085
Louisiana,Pointe Coupee,1155,0,42,0,2020-11-07,30.71409502,-91.60209535
Louisiana,Rapides,4873,0,163,0,2020-11-07,31.19778499,-92.52997303
Louisiana,Red River,476,0,25,0,2020-11-07,32.09530039,-93.34213308
Louisiana,Richland,947,0,20,0,2020-11-07,32.41391005,-91.76634876
Louisiana,Sabine,1053,0,16,0,2020-11-07,31.56388699,-93.55433981
Louisiana,St. Bernard,1572,0,32,0,2020-11-07,29.87761636,-89.51887093
Louisiana,St. Charles,1993,0,64,0,2020-11-07,29.90709658,-90.35555967
Louisiana,St. Helena,446,0,4,0,2020-11-07,30.82210324,-90.71013176
Louisiana,St. James,854,0,40,0,2020-11-07,30.02531716,-90.80212061
Louisiana,St. John the Baptist,1695,0,108,0,2020-11-07,30.12597499,-90.4753503
Louisiana,St. Landry,3798,0,138,0,2020-11-07,30.59724262,-92.00135806
Louisiana,St. Martin,2295,0,64,0,2020-11-07,30.13112107,-91.61403569
Louisiana,St. Mary,2054,0,87,0,2020-11-07,29.69262097,-91.44702164
Louisiana,St. Tammany,7940,0,274,0,2020-11-07,30.40942847,-89.95642711
Louisiana,Tangipahoa,5116,0,127,0,2020-11-07,30.62888673,-90.40664996
Louisiana,Tensas,188,0,3,0,2020-11-07,32.00760749,-91.32915234
Louisiana,Terrebonne,3922,0,126,0,2020-11-07,29.37343766,-90.82626855
Louisiana,Union,1156,0,53,0,2020-11-07,32.83121059,-92.3749373
Louisiana,Vermilion,2162,0,70,0,2020-11-07,29.83517605,-92.30292538
Louisiana,Vernon,1145,0,56,0,2020-11-07,31.10884837,-93.18153838
Louisiana,Washington,1778,0,72,0,2020-11-07,30.85288548,-90.03866652
Louisiana,Webster,1546,0,42,0,2020-11-07,32.70847669,-93.33121835
Louisiana,West Baton Rouge,1012,0,42,0,2020-11-07,30.46058217,-91.30989571
Louisiana,West Carroll,391,0,14,0,2020-11-07,32.78550125,-91.461201
Louisiana,West Feliciana,760,0,25,0,2020-11-07,30.87882871,-91.4148538
Louisiana,Winn,715,0,21,0,2020-11-07,31.94449367,-92.63789413
Maine,Androscoggin,951,29,11,0,2020-11-07,44.1664747,-70.20380627
Maine,Aroostook,74,1,1,0,2020-11-07,46.65926321,-68.59841248
Maine,Cumberland,2919,47,70,0,2020-11-07,43.8370751,-70.37226999
Maine,Franklin,124,4,2,0,2020-11-07,44.97330019,-70.44381045
Maine,Hancock,94,9,1,0,2020-11-07,44.59816444,-68.38401854
Maine,Kennebec,445,9,11,0,2020-11-07,44.40759555,-69.76738544
Maine,Knox,134,9,1,0,2020-11-07,44.11486325,-69.10529169
Maine,Lincoln,77,1,1,0,2020-11-07,44.05996956,-69.54227124
Maine,Oxford,191,4,2,0,2020-11-07,44.49952995,-70.75682123
Maine,Penobscot,362,7,6,0,2020-11-07,45.40194593,-68.65020455
Maine,Piscataquis,17,3,0,0,2020-11-07,45.83839062,-69.2860223
Maine,Sagadahoc,96,1,0,0,2020-11-07,43.95415864,-69.85074999
Maine,Somerset,268,6,9,1,2020-11-07,45.51229767,-69.95995554
Maine,Waldo,173,4,15,0,2020-11-07,44.4858305,-69.12061935
Maine,Washington,104,6,0,0,2020-11-07,45.01607142,-67.62813524
Maine,York,1566,20,21,0,2020-11-07,43.47808377,-70.71052375
Maryland,Allegany,1023,51,26,0,2020-11-07,39.62357628,-78.69280486
Maryland,Anne Arundel,12970,175,283,0,2020-11-07,39.00670238,-76.60329337
Maryland,Baltimore,22267,221,683,2,2020-11-07,39.45784712,-76.62911955
Maryland,Calvert,1270,5,29,0,2020-11-07,38.53961642,-76.56820632
Maryland,Caroline,777,3,8,0,2020-11-07,38.87172293,-75.82904158
Maryland,Carroll,2421,25,130,0,2020-11-07,39.56453592,-77.02373735
Maryland,Cecil,1459,20,36,0,2020-11-07,39.56647682,-75.94627411
Maryland,Charles,3419,42,102,0,2020-11-07,38.51092331,-76.98580666
Maryland,Dorchester,858,10,12,0,2020-11-07,38.45413522,-76.02752426
Maryland,Frederick,5116,47,140,0,2020-11-07,39.47296601,-77.39999394
Maryland,Garrett,174,2,1,0,2020-11-07,39.52786077,-79.27355126
Maryland,Harford,3999,51,83,1,2020-11-07,39.55010644,-76.30775940000002
Maryland,Howard,6261,66,128,-1,2020-11-07,39.25305293,-76.93126208
Maryland,Kent,355,1,26,0,2020-11-07,39.24976208,-76.04741541
Maryland,Montgomery,27169,173,888,2,2020-11-07,39.13676329,-77.20358245
Maryland,Prince George's,34246,176,869,0,2020-11-07,38.83070039,-76.8496441
Maryland,Queen Anne's,835,9,26,0,2020-11-07,39.06198912,-76.03530977
Maryland,St. Mary's,1571,13,60,0,2020-11-07,38.30058422,-76.60629279999998
Maryland,Somerset,489,5,7,1,2020-11-07,38.1163542,-75.75118623
Maryland,Talbot,670,2,6,0,2020-11-07,38.76618159,-76.10882561
Maryland,Washington,2557,43,47,0,2020-11-07,39.60835778,-77.82002295
Maryland,Wicomico,2671,24,52,0,2020-11-07,38.37301947,-75.62705831
Maryland,Worcester,1273,5,31,0,2020-11-07,38.21274277,-75.33200012
Maryland,Baltimore,22267,221,683,2,2020-11-07,39.45784712,-76.62911955
Massachusetts,Barnstable,2123,12,186,0,2020-11-07,41.72980578,-70.28854339
Massachusetts,Berkshire,838,9,52,0,2020-11-07,42.37428441,-73.20524838
Massachusetts,Bristol,13876,219,773,2,2020-11-07,41.79228404,-71.10872211
Massachusetts,Essex,26137,396,1366,2,2020-11-07,42.6687626,-70.94687179
Massachusetts,Franklin,504,4,74,0,2020-11-07,42.58119713,-72.58602547
Massachusetts,Hampden,11188,181,836,2,2020-11-07,42.13440424,-72.63235561
Massachusetts,Hampshire,1638,34,158,0,2020-11-07,42.33997957,-72.65898478
Massachusetts,Middlesex,34586,444,2314,4,2020-11-07,42.48607732,-71.39049229
Massachusetts,Norfolk,12697,159,1125,4,2020-11-07,42.16073095,-71.20530408
Massachusetts,Plymouth,12131,109,850,2,2020-11-07,41.94070556,-70.80802823
Massachusetts,Suffolk,30359,297,1193,2,2020-11-07,42.3279514,-71.07850442
Massachusetts,Worcester,18171,298,1194,5,2020-11-07,42.35026951,-71.90493363
Michigan,Alcona,61,2,3,0,2020-11-07,44.6846864,-83.59507875
Michigan,Alger,140,5,1,0,2020-11-07,46.41292944,-86.60260122
Michigan,Allegan,1941,84,8,0,2020-11-07,42.59147037,-85.89102866
Michigan,Alpena,211,4,14,0,2020-11-07,45.03477666,-83.62212411
Michigan,Antrim,189,8,0,0,2020-11-07,44.99690221,-85.15503082
Michigan,Arenac,141,7,5,0,2020-11-07,44.0636262,-83.89277559
Michigan,Baraga,190,17,4,0,2020-11-07,46.6720582,-88.36363591
Michigan,Barry,1039,58,9,1,2020-11-07,42.59513984,-85.30834519
Michigan,Bay,2084,146,68,0,2020-11-07,43.70639106,-83.98731479
Michigan,Benzie,176,4,2,0,2020-11-07,44.63899297,-86.01608482
Michigan,Berrien,3541,130,93,2,2020-11-07,41.95447397,-86.41313079999998
Michigan,Branch,1203,39,15,1,2020-11-07,41.91600556,-85.05929476
Michigan,Calhoun,4012,152,81,3,2020-11-07,42.24633834,-85.00493569
Michigan,Cass,1312,38,25,0,2020-11-07,41.91522292,-85.99405727
Michigan,Charlevoix,285,10,4,0,2020-11-07,45.37790017,-85.19614053
Michigan,Cheboygan,240,11,5,0,2020-11-07,45.44787015,-84.50122149
Michigan,Chippewa,310,29,0,0,2020-11-07,46.29552653,-84.54353449
Michigan,Clare,403,14,17,0,2020-11-07,43.98794227,-84.84819859999998
Michigan,Clinton,1577,41,17,0,2020-11-07,42.94400871,-84.60145248
Michigan,Crawford,179,4,5,0,2020-11-07,44.68255561,-84.61006219
Michigan,Delta,1672,28,45,2,2020-11-07,45.90484910000001,-86.9080745
Michigan,Dickinson,939,19,26,2,2020-11-07,46.00999672,-87.86961634
Michigan,Eaton,1624,68,13,-1,2020-11-07,42.59599185,-84.83740035
Michigan,Emmet,489,23,13,3,2020-11-07,45.52625509,-84.89083249
Michigan,Genesee,8508,270,357,5,2020-11-07,43.02244215,-83.70589709
Michigan,Gladwin,306,14,3,0,2020-11-07,43.98901072,-84.38774817
Michigan,Gogebic,543,15,16,0,2020-11-07,46.40862701,-89.69377193
Michigan,Grand Traverse,1081,110,14,0,2020-11-07,44.69565625,-85.55585247
Michigan,Gratiot,850,106,18,1,2020-11-07,43.29265605,-84.60505416
Michigan,Hillsdale,712,27,29,0,2020-11-07,41.88753639,-84.59312019
Michigan,Houghton,1113,40,9,0,2020-11-07,46.89988536,-88.68495385
Michigan,Huron,370,13,8,0,2020-11-07,43.83353985,-83.04078453
Michigan,Ingham,5499,99,73,3,2020-11-07,42.59716886,-84.37472069
Michigan,Ionia,1066,52,8,0,2020-11-07,42.94502238,-85.07413319
Michigan,Iosco,377,14,17,0,2020-11-07,44.35486835,-83.63484895
Michigan,Iron,547,13,28,0,2020-11-07,46.20974132,-88.53136251
Michigan,Isabella,1365,45,15,0,2020-11-07,43.64060976,-84.84664923
Michigan,Jackson,2493,118,78,3,2020-11-07,42.24807035,-84.42258681
Michigan,Kalamazoo,6126,188,129,3,2020-11-07,42.24542231,-85.53038622
Michigan,Kalkaska,183,8,4,0,2020-11-07,44.68512729,-85.09085699
Michigan,Kent,18987,447,209,2,2020-11-07,43.03197711,-85.54934642
Michigan,Keweenaw,26,1,1,0,2020-11-07,47.63197653,-88.41434263
Michigan,Lake,92,1,1,0,2020-11-07,43.99050893,-85.802173
Michigan,Lapeer,1188,56,39,0,2020-11-07,43.09052506,-83.22153148
Michigan,Leelanau,196,6,2,0,2020-11-07,44.94430054,-85.80150326
Michigan,Lenawee,1404,37,21,0,2020-11-07,41.89475156,-84.06603727
Michigan,Livingston,2851,111,35,-1,2020-11-07,42.60302282,-83.91297209
Michigan,Luce,109,6,1,0,2020-11-07,46.47227431,-85.54471223
Michigan,Mackinac,187,1,0,0,2020-11-07,46.07028979,-85.04980537
Michigan,Macomb,22667,582,1120,10,2020-11-07,42.69158356,-82.92752801
Michigan,Manistee,187,1,5,0,2020-11-07,44.33352407,-86.05626916
Michigan,Marquette,1582,64,19,0,2020-11-07,46.4338914,-87.64043701
Michigan,Mason,344,8,5,0,2020-11-07,43.99509218,-86.24988902
Michigan,Mecosta,750,18,4,0,2020-11-07,43.64064262,-85.32463223
Michigan,Menominee,905,9,7,0,2020-11-07,45.58038692,-87.55370409
Michigan,Midland,1526,55,14,0,2020-11-07,43.64330771,-84.38804374
Michigan,Missaukee,139,1,1,0,2020-11-07,44.33772443,-85.09256478
Michigan,Monroe,2687,132,45,1,2020-11-07,41.92734151,-83.53749864
Michigan,Montcalm,976,40,15,1,2020-11-07,43.31082541,-85.15252824
Michigan,Montmorency,50,2,0,0,2020-11-07,45.0275929,-84.12696227
Michigan,Muskegon,3675,379,91,5,2020-11-07,43.29123859,-86.15176712
Michigan,Newaygo,876,29,6,2,2020-11-07,43.554374,-85.80070107
Michigan,Oakland,29849,695,1255,6,2020-11-07,42.66090111,-83.38595416
Michigan,Oceana,779,13,6,0,2020-11-07,43.64124435,-86.26726673
Michigan,Ogemaw,194,10,6,0,2020-11-07,44.33481032,-84.12725175
Michigan,Ontonagon,198,11,1,0,2020-11-07,46.665226200000006,-89.31390481
Michigan,Osceola,260,6,1,0,2020-11-07,43.98992088,-85.32566756
Michigan,Oscoda,75,4,2,0,2020-11-07,44.68192279,-84.12939244
Michigan,Otsego,367,18,12,0,2020-11-07,45.02085831,-84.59898295
Michigan,Ottawa,7233,254,87,3,2020-11-07,42.95996803,-85.9969107
Michigan,Presque Isle,99,1,1,0,2020-11-07,45.34018577,-83.91498656
Michigan,Roscommon,268,6,6,0,2020-11-07,44.33473082,-84.61067651
Michigan,Saginaw,5022,173,159,0,2020-11-07,43.33433923,-84.05131209999998
Michigan,St. Clair,2121,75,68,0,2020-11-07,42.92655373,-82.67937954
Michigan,St. Joseph,1651,39,25,0,2020-11-07,41.91441767,-85.52797979
Michigan,Sanilac,321,13,8,1,2020-11-07,43.42406072,-82.82055898
Michigan,Schoolcraft,128,2,1,0,2020-11-07,46.19235734,-86.19972234
Michigan,Shiawassee,980,55,35,0,2020-11-07,42.95392800000001,-84.14585902
Michigan,Tuscola,900,34,37,0,2020-11-07,43.46606813,-83.41897025
Michigan,Van Buren,1495,49,21,0,2020-11-07,42.25190229,-86.01939087
Michigan,Washtenaw,6510,165,120,1,2020-11-07,42.253105,-83.83853204
Michigan,Wayne,45576,688,3084,6,2020-11-07,42.28098405,-83.281255
Michigan,Wexford,261,14,6,0,2020-11-07,44.33853602,-85.57712739
Minnesota,Aitkin,323,34,5,0,2020-11-07,46.60962049,-93.4116826
Minnesota,Anoka,11961,400,174,5,2020-11-07,45.27476015,-93.24604565
Minnesota,Becker,894,34,4,0,2020-11-07,46.93479392,-95.67158144
Minnesota,Beltrami,1207,53,13,0,2020-11-07,47.97373527,-94.93732139
Minnesota,Benton,1473,57,19,2,2020-11-07,45.69804958,-93.99514135
Minnesota,Big Stone,209,9,1,0,2020-11-07,45.42712824,-96.41403739
Minnesota,Blue Earth,2484,92,7,0,2020-11-07,44.03554215,-94.06699781
Minnesota,Brown,535,35,4,0,2020-11-07,44.24205652,-94.72562874
Minnesota,Carlton,767,27,5,0,2020-11-07,46.59180601,-92.67601019
Minnesota,Carver,2248,74,9,0,2020-11-07,44.82017001,-93.8009918
Minnesota,Cass,643,28,5,0,2020-11-07,46.95043611,-94.32603968
Minnesota,Chippewa,553,19,3,0,2020-11-07,45.02343421,-95.56403693
Minnesota,Chisago,1622,61,2,0,2020-11-07,45.5021011,-92.90861945
Minnesota,Clay,3087,73,46,0,2020-11-07,46.89289518,-96.48761922
Minnesota,Clearwater,208,12,2,1,2020-11-07,47.57992111,-95.37790562
Minnesota,Cook,33,1,0,0,2020-11-07,47.90504893,-90.52629546
Minnesota,Cottonwood,365,21,0,0,2020-11-07,44.00715262,-95.18138802
Minnesota,Crow Wing,1706,77,22,0,2020-11-07,46.48096553,-94.06755609
Minnesota,Dakota,12213,275,146,2,2020-11-07,44.67172617,-93.06299363
Minnesota,Dodge,496,12,0,0,2020-11-07,44.02238415,-92.86244324
Minnesota,Douglas,1069,48,10,1,2020-11-07,45.93348491,-95.45335469
Minnesota,Faribault,307,12,0,0,2020-11-07,43.67381499,-93.94787458
Minnesota,Fillmore,349,18,0,0,2020-11-07,43.67394126,-92.08980382
Minnesota,Freeborn,888,48,5,0,2020-11-07,43.67385583,-93.34884422
Minnesota,Goodhue,964,33,17,0,2020-11-07,44.40849741,-92.7234195
Minnesota,Grant,132,1,5,0,2020-11-07,45.93424769,-96.01139609
Minnesota,Hennepin,41436,877,1020,4,2020-11-07,45.00761521,-93.47694895
Minnesota,Houston,336,18,2,0,2020-11-07,43.67129565,-91.49143057
Minnesota,Hubbard,596,15,8,0,2020-11-07,47.10778564,-94.91693868
Minnesota,Isanti,843,44,8,0,2020-11-07,45.56181234,-93.29487636
Minnesota,Itasca,1026,34,17,0,2020-11-07,47.51009045,-93.63092229
Minnesota,Jackson,266,3,1,0,2020-11-07,43.67423373,-95.15398258
Minnesota,Kanabec,291,12,10,0,2020-11-07,45.9459309,-93.29275192
Minnesota,Kandiyohi,2180,49,6,1,2020-11-07,45.1526059,-95.00586446
Minnesota,Kittson,100,6,1,0,2020-11-07,48.77754106,-96.78317184
Minnesota,Koochiching,200,4,5,0,2020-11-07,48.24539665,-93.78352843
Minnesota,Lac qui Parle,171,1,3,0,2020-11-07,44.9973857,-96.17488219
Minnesota,Lake,170,2,0,0,2020-11-07,47.64270764,-91.44557998
Minnesota,Lake of the Woods,61,3,1,0,2020-11-07,48.77217001,-94.90274472
Minnesota,Le Sueur,810,34,6,0,2020-11-07,44.37136597,-93.72844721
Minnesota,Lincoln,226,4,1,0,2020-11-07,44.41311883,-96.26688165
Minnesota,Lyon,1214,38,6,0,2020-11-07,44.41327865,-95.83806103
Minnesota,McLeod,807,51,4,0,2020-11-07,44.82367677,-94.27287017
Minnesota,Mahnomen,150,1,3,0,2020-11-07,47.32557075,-95.80921485
Minnesota,Marshall,244,11,3,0,2020-11-07,48.35825983,-96.37017407
Minnesota,Martin,701,13,18,0,2020-11-07,43.67429718,-94.55099908
Minnesota,Meeker,494,28,4,0,2020-11-07,45.12328869,-94.52839455
Minnesota,Mille Lacs,704,40,21,0,2020-11-07,45.93705297,-93.63236823
Minnesota,Morrison,1101,27,11,1,2020-11-07,46.01265363,-94.27341528
Minnesota,Mower,1677,30,21,0,2020-11-07,43.67142874,-92.75234549
Minnesota,Murray,344,6,3,0,2020-11-07,44.02216709,-95.76328482
Minnesota,Nicollet,920,34,20,0,2020-11-07,44.35291112,-94.24710352
Minnesota,Nobles,2556,19,22,0,2020-11-07,43.67434621,-95.75329576
Minnesota,Norman,198,6,4,0,2020-11-07,47.32628443,-96.45620947
Minnesota,Olmsted,4147,102,30,0,2020-11-07,44.00374114,-92.40209944
Minnesota,Otter Tail,1234,32,8,0,2020-11-07,46.40846929,-95.70835255
Minnesota,Pennington,269,8,2,0,2020-11-07,48.06642577,-96.0370814
Minnesota,Pine,731,20,2,0,2020-11-07,46.12105238,-92.74070188
Minnesota,Pipestone,426,6,17,0,2020-11-07,44.02301619,-96.25841142
Minnesota,Polk,1240,40,9,0,2020-11-07,47.77372465,-96.40134647
Minnesota,Pope,230,8,1,1,2020-11-07,45.58606667,-95.44451209
Minnesota,Ramsey,17297,326,399,7,2020-11-07,45.01625271,-93.09872295
Minnesota,Red Lake,108,4,2,0,2020-11-07,47.87197525,-96.09561104
Minnesota,Redwood,387,14,12,0,2020-11-07,44.40555844,-95.25207021
Minnesota,Renville,363,17,14,1,2020-11-07,44.72836381,-94.94553734
Minnesota,Rice,2074,84,14,1,2020-11-07,44.3543376,-93.29658715
Minnesota,Rock,425,4,9,0,2020-11-07,43.67482683,-96.25296832
Minnesota,Roseau,534,33,1,0,2020-11-07,48.77501878,-95.81079919
Minnesota,St. Louis,4120,98,77,0,2020-11-07,47.6048407,-92.46879855
Minnesota,Scott,4481,141,40,1,2020-11-07,44.6490231,-93.53340251
Minnesota,Sherburne,2626,122,26,0,2020-11-07,45.44447208,-93.77617511
Minnesota,Sibley,339,23,3,0,2020-11-07,44.5796592,-94.23164924
Minnesota,Stearns,7839,185,59,1,2020-11-07,45.55192576,-94.61078221
Minnesota,Steele,1004,49,4,0,2020-11-07,44.02240351,-93.22627088
Minnesota,Stevens,231,5,1,0,2020-11-07,45.58613007,-96.00163705
Minnesota,Swift,299,16,3,1,2020-11-07,45.2829032,-95.68264092
Minnesota,Todd,1158,31,10,1,2020-11-07,46.06996226,-94.89785296
Minnesota,Traverse,74,3,0,0,2020-11-07,45.77298854,-96.47062949
Minnesota,Wabasha,535,20,1,0,2020-11-07,44.28424356,-92.23121312
Minnesota,Wadena,388,12,5,0,2020-11-07,46.58589171,-94.96968506
Minnesota,Waseca,1004,9,10,0,2020-11-07,44.02211116,-93.58720034
Minnesota,Washington,8115,185,78,1,2020-11-07,45.03864533,-92.88429635
Minnesota,Watonwan,616,2,4,0,2020-11-07,43.97823903,-94.61413846
Minnesota,Wilkin,180,4,4,0,2020-11-07,46.35721532,-96.4684375
Minnesota,Winona,1653,47,20,0,2020-11-07,43.98772283,-91.78081305
Minnesota,Wright,3641,127,20,2,2020-11-07,45.17297924,-93.96234781
Minnesota,Yellow Medicine,381,8,7,0,2020-11-07,44.71710183,-95.86842453
Mississippi,Adams,1173,18,46,0,2020-11-07,31.47669768,-91.35326037
Mississippi,Alcorn,1193,7,14,0,2020-11-07,34.88084463,-88.57996173
Mississippi,Amite,442,1,14,0,2020-11-07,31.17467303,-90.80501621
Mississippi,Attala,856,12,27,0,2020-11-07,33.08658803,-89.57838564
Mississippi,Benton,412,9,12,0,2020-11-07,34.81681228,-89.18945516
Mississippi,Bolivar,2144,19,81,0,2020-11-07,33.79696941,-90.87372121
Mississippi,Calhoun,652,3,13,0,2020-11-07,33.93683395,-89.33686647
Mississippi,Carroll,568,11,13,1,2020-11-07,33.44834567,-89.91994479
Mississippi,Chickasaw,907,10,31,0,2020-11-07,33.91983202,-88.9481545
Mississippi,Choctaw,230,1,7,0,2020-11-07,33.34598242,-89.24809382
Mississippi,Claiborne,550,0,16,0,2020-11-07,31.97061673,-90.90702196
Mississippi,Clarke,814,2,53,0,2020-11-07,32.04158545,-88.68896219999998
Mississippi,Clay,756,2,25,2,2020-11-07,33.65358105,-88.77784255
Mississippi,Coahoma,1308,2,37,0,2020-11-07,34.22772299,-90.60415045
Mississippi,Copiah,1442,10,38,0,2020-11-07,31.86977774,-90.44565118
Mississippi,Covington,1051,5,31,0,2020-11-07,31.63225413,-89.55389939
Mississippi,DeSoto,8108,72,83,1,2020-11-07,34.87625235,-89.99091418
Mississippi,Forrest,3271,15,82,0,2020-11-07,31.18961454,-89.25832496
Mississippi,Franklin,261,1,3,0,2020-11-07,31.47786634,-90.89672989
Mississippi,George,1092,15,21,0,2020-11-07,30.86259065,-88.64436789
Mississippi,Greene,511,4,19,1,2020-11-07,31.21444233,-88.63922281
Mississippi,Grenada,1271,5,42,0,2020-11-07,33.77036166,-89.80245083
Mississippi,Hancock,965,16,33,0,2020-11-07,30.41830223,-89.48851033
Mississippi,Harrison,6051,112,92,1,2020-11-07,30.51359752,-89.12467576
Mississippi,Hinds,8473,44,182,1,2020-11-07,32.2656285,-90.44435448
Mississippi,Holmes,1168,4,60,0,2020-11-07,33.12345854,-90.08923538
Mississippi,Humphreys,484,3,18,0,2020-11-07,33.12825718,-90.52252707
Mississippi,Issaquena,107,0,4,0,2020-11-07,32.72531359,-90.97392828
Mississippi,Itawamba,1264,14,30,0,2020-11-07,34.27993475,-88.3606733
Mississippi,Jackson,5316,68,102,1,2020-11-07,30.54020656,-88.64184064
Mississippi,Jasper,734,8,19,0,2020-11-07,32.01922104,-89.11786866
Mississippi,Jefferson,292,1,11,0,2020-11-07,31.73397872,-91.03764977
Mississippi,Jefferson Davis,464,7,14,1,2020-11-07,31.56884708,-89.82670990000003
Mississippi,Jones,3115,11,84,0,2020-11-07,31.62257767,-89.16896899999998
Mississippi,Kemper,345,3,15,0,2020-11-07,32.75462946,-88.64105766
Mississippi,Lafayette,2693,19,43,0,2020-11-07,34.35687874,-89.48490961
Mississippi,Lamar,2492,26,42,1,2020-11-07,31.20572971,-89.5077704
Mississippi,Lauderdale,2789,16,138,2,2020-11-07,32.40419769,-88.66229662
Mississippi,Lawrence,595,2,14,0,2020-11-07,31.55147224,-90.10841127
Mississippi,Leake,1202,6,43,0,2020-11-07,32.7536828,-89.52402044
Mississippi,Lee,4010,51,85,0,2020-11-07,34.291877500000005,-88.68149954
Mississippi,Leflore,1822,14,88,0,2020-11-07,33.55545125,-90.29900733
Mississippi,Lincoln,1521,5,62,0,2020-11-07,31.53288662,-90.45391915
Mississippi,Lowndes,1956,9,62,0,2020-11-07,33.47386518,-88.44191529999998
Mississippi,Madison,4034,29,94,0,2020-11-07,32.63389156,-90.03513564
Mississippi,Marion,1003,6,46,0,2020-11-07,31.23132643,-89.8209217
Mississippi,Marshall,1672,22,35,1,2020-11-07,34.76216286,-89.50299462
Mississippi,Monroe,1653,13,75,0,2020-11-07,33.89236763,-88.4808438
Mississippi,Montgomery,609,8,23,0,2020-11-07,33.49419589,-89.61729103
Mississippi,Neshoba,1941,3,111,-1,2020-11-07,32.75339664,-89.11726492
Mississippi,Newton,907,3,28,0,2020-11-07,32.40021118,-89.11843336
Mississippi,Noxubee,623,3,17,0,2020-11-07,33.11009499,-88.56949061
Mississippi,Oktibbeha,2141,9,57,0,2020-11-07,33.42491685,-88.87905132
Mississippi,Panola,1821,19,41,0,2020-11-07,34.36398677,-89.95064249
Mississippi,Pearl River,1264,9,62,0,2020-11-07,30.77090935,-89.58677275
Mississippi,Perry,555,2,23,0,2020-11-07,31.17161885,-88.99281835
Mississippi,Pike,1443,1,56,0,2020-11-07,31.17507789,-90.40392572
Mississippi,Pontotoc,1659,14,21,0,2020-11-07,34.226046000000004,-89.03636807
Mississippi,Prentiss,1178,14,22,1,2020-11-07,34.61810501,-88.51986294
Mississippi,Quitman,435,1,7,0,2020-11-07,34.25157572,-90.28908
Mississippi,Rankin,4414,41,89,1,2020-11-07,32.26469147,-89.94537876
Mississippi,Scott,1328,10,29,0,2020-11-07,32.406704100000006,-89.53789439
Mississippi,Sharkey,293,0,15,0,2020-11-07,32.88149103,-90.8159538
Mississippi,Simpson,1296,8,50,0,2020-11-07,31.91282117,-89.91716179
Mississippi,Smith,632,-1,16,0,2020-11-07,32.01744532,-89.50644846
Mississippi,Stone,554,14,14,0,2020-11-07,30.79187949,-89.11547539
Mississippi,Sunflower,1737,18,53,0,2020-11-07,33.60192578,-90.58882684
Mississippi,Tallahatchie,898,3,26,0,2020-11-07,33.95339918,-90.1729398
Mississippi,Tate,1359,16,40,0,2020-11-07,34.65133709,-89.94485778
Mississippi,Tippah,1035,14,26,0,2020-11-07,34.76872156,-88.90988194
Mississippi,Tishomingo,888,10,41,0,2020-11-07,34.74023475,-88.23917219
Mississippi,Tunica,555,2,17,0,2020-11-07,34.64967704,-90.37481167
Mississippi,Union,1351,21,25,0,2020-11-07,34.49162015,-89.00776006
Mississippi,Walthall,675,2,27,0,2020-11-07,31.14971548,-90.10446654
Mississippi,Warren,1614,8,56,0,2020-11-07,32.35810271,-90.83352619
Mississippi,Washington,2766,6,105,0,2020-11-07,33.28392041,-90.94196237
Mississippi,Wayne,1064,3,22,0,2020-11-07,31.64135687,-88.69573913
Mississippi,Webster,388,1,13,0,2020-11-07,33.61300486,-89.28392912
Mississippi,Wilkinson,352,1,21,0,2020-11-07,31.16078225,-91.31018819
Mississippi,Winston,936,13,22,0,2020-11-07,33.08747908,-89.03391385
Mississippi,Yalobusha,601,8,23,0,2020-11-07,34.02824175,-89.70762049999998
Mississippi,Yazoo,1341,14,36,0,2020-11-07,32.77890365,-90.39656148
Missouri,Adair,663,13,0,0,2020-11-07,40.19058551,-92.60078167
Missouri,Andrew,518,6,8,0,2020-11-07,39.98492163,-94.80163024
Missouri,Atchison,102,4,1,0,2020-11-07,40.43238737,-95.42970639
Missouri,Audrain,718,10,10,0,2020-11-07,39.215877,-91.84242683
Missouri,Barry,1019,22,18,0,2020-11-07,36.70978521,-93.82919888
Missouri,Barton,483,4,4,0,2020-11-07,37.50207671,-94.34757022
Missouri,Bates,296,10,8,0,2020-11-07,38.25271289,-94.34113157
Missouri,Benton,560,13,7,0,2020-11-07,38.29503305,-93.28756116
Missouri,Bollinger,590,5,4,0,2020-11-07,37.32449052,-90.02725304
Missouri,Boone,7291,210,15,0,2020-11-07,38.99186229,-92.30723575
Missouri,Buchanan,3302,41,45,0,2020-11-07,39.65816401,-94.80138942
Missouri,Butler,1500,28,8,0,2020-11-07,36.71462476,-90.40421163
Missouri,Caldwell,228,13,1,0,2020-11-07,39.65620858,-93.98308093
Missouri,Callaway,1831,79,7,0,2020-11-07,38.83674754,-91.92186505
Missouri,Camden,1817,27,37,0,2020-11-07,38.02199522,-92.76083747
Missouri,Cape Girardeau,3219,80,55,0,2020-11-07,37.38489388,-89.6843587
Missouri,Carroll,257,10,4,0,2020-11-07,39.42762566,-93.50626255
Missouri,Carter,206,4,3,0,2020-11-07,36.94160441,-90.96051322
Missouri,Cass,2425,38,33,0,2020-11-07,38.64789422,-94.353399
Missouri,Cedar,281,5,4,0,2020-11-07,37.72391475,-93.85445441
Missouri,Chariton,113,8,0,0,2020-11-07,39.51499357,-92.9629191
Missouri,Christian,2730,61,17,0,2020-11-07,36.9711783,-93.18537118
Missouri,Clark,167,11,2,0,2020-11-07,40.41040752,-91.73661677
Missouri,Clay,3097,61,51,1,2020-11-07,39.31132056,-94.41850862
Missouri,Clinton,623,16,33,4,2020-11-07,39.6013098,-94.40465394
Missouri,Cole,4066,151,26,0,2020-11-07,38.50455671,-92.27860244
Missouri,Cooper,816,30,4,0,2020-11-07,38.844478,-92.80896081
Missouri,Crawford,795,24,9,0,2020-11-07,37.97663738,-91.30528104
Missouri,Dade,181,12,3,0,2020-11-07,37.431814,-93.8503345
Missouri,Dallas,437,8,2,0,2020-11-07,37.6811355,-93.02127031
Missouri,Daviess,252,6,4,0,2020-11-07,39.96145298,-93.98519678
Missouri,DeKalb,403,16,5,1,2020-11-07,39.89201062,-94.40476508
Missouri,Dent,307,10,4,0,2020-11-07,37.60663134,-91.50790473
Missouri,Douglas,327,8,13,0,2020-11-07,36.9325593,-92.49905109
Missouri,Dunklin,1316,22,13,0,2020-11-07,36.27167174,-90.09122243
Missouri,Franklin,3270,95,50,0,2020-11-07,38.41127108,-91.07522826
Missouri,Gasconade,325,7,24,0,2020-11-07,38.43947277,-91.50847147
Missouri,Gentry,233,5,10,0,2020-11-07,40.21097916,-94.40944419
Missouri,Greene,10423,174,153,1,2020-11-07,37.2575872,-93.34230916
Missouri,Grundy,321,1,11,0,2020-11-07,40.11406587,-93.56509276
Missouri,Harrison,227,17,1,0,2020-11-07,40.35570088,-93.99222144
Missouri,Henry,561,34,8,0,2020-11-07,38.38482826,-93.79293734
Missouri,Hickory,282,13,4,0,2020-11-07,37.94163617,-93.3203037
Missouri,Holt,154,8,1,0,2020-11-07,40.09799248,-95.2163888
Missouri,Howard,316,12,2,0,2020-11-07,39.1435761,-92.69756691
Missouri,Howell,1339,10,16,2,2020-11-07,36.77383887,-91.88683935
Missouri,Iron,133,-1,0,0,2020-11-07,37.55487945,-90.7735296
Missouri,Jackson,11748,255,145,1,2020-11-07,39.01002188,-94.34724536
Missouri,Jasper,6039,150,85,1,2020-11-07,37.20351921,-94.34050458
Missouri,Jefferson,6825,184,90,0,2020-11-07,38.25926778,-90.53870896
Missouri,Johnson,1805,42,10,0,2020-11-07,38.74719601,-93.80691168
Missouri,Knox,81,2,1,0,2020-11-07,40.12699751,-92.14780832
Missouri,Laclede,1372,25,25,0,2020-11-07,37.65896829,-92.5888493
Missouri,Lafayette,1052,27,26,0,2020-11-07,39.06986886,-93.78076396
Missouri,Lawrence,1351,27,26,0,2020-11-07,37.10626634,-93.83293097
Missouri,Lewis,274,14,2,0,2020-11-07,40.09673161,-91.72070156
Missouri,Lincoln,1475,47,5,0,2020-11-07,39.05345619,-90.95588181
Missouri,Linn,203,7,7,0,2020-11-07,39.87001769,-93.10704106
Missouri,Livingston,610,6,9,0,2020-11-07,39.78110272,-93.54645978
Missouri,McDonald,1278,4,14,1,2020-11-07,36.62869595,-94.34867205
Missouri,Macon,319,17,1,0,2020-11-07,39.83049768,-92.56453089
Missouri,Madison,578,9,3,0,2020-11-07,37.47865134,-90.3467143
Missouri,Maries,248,8,1,0,2020-11-07,38.16193985,-91.92249662
Missouri,Marion,1145,22,14,0,2020-11-07,39.80601912,-91.62203062
Missouri,Mercer,43,4,0,0,2020-11-07,40.42212303,-93.5682959
Missouri,Miller,1100,33,18,0,2020-11-07,38.21450288,-92.42610898
Missouri,Mississippi,511,3,6,0,2020-11-07,36.82516239,-89.29505753
Missouri,Moniteau,806,23,13,1,2020-11-07,38.63571781,-92.57976951
Missouri,Monroe,225,9,2,0,2020-11-07,39.49593978,-92.00043978
Missouri,Montgomery,226,6,2,0,2020-11-07,38.94022054,-91.47000721
Missouri,Morgan,819,17,8,0,2020-11-07,38.4181765,-92.88791859
Missouri,New Madrid,919,21,23,0,2020-11-07,36.59666326,-89.66070007
Missouri,Newton,2325,30,22,0,2020-11-07,36.90519407,-94.3394104
Missouri,Nodaway,1450,33,11,0,2020-11-07,40.36079813,-94.88133008
Missouri,Oregon,280,5,0,0,2020-11-07,36.68710164,-91.4033755
Missouri,Osage,650,21,3,0,2020-11-07,38.46036182,-91.8613635
Missouri,Ozark,238,4,1,0,2020-11-07,36.64916339,-92.44459066
Missouri,Pemiscot,825,18,14,0,2020-11-07,36.2130572,-89.78742322
Missouri,Perry,1016,30,8,0,2020-11-07,37.70660776,-89.82741088
Missouri,Pettis,2111,66,24,0,2020-11-07,38.72798918,-93.28471706
Missouri,Phelps,1028,16,30,0,2020-11-07,37.87736118,-91.79351727
Missouri,Pike,492,47,8,0,2020-11-07,39.34310674,-91.16980779
Missouri,Platte,1168,15,13,0,2020-11-07,39.38154439,-94.77068479
Missouri,Polk,1135,16,11,0,2020-11-07,37.6162296,-93.39828174
Missouri,Pulaski,1154,11,11,0,2020-11-07,37.82462075,-92.20783203
Missouri,Putnam,67,1,1,0,2020-11-07,40.47942497,-93.02042674
Missouri,Ralls,251,7,0,0,2020-11-07,39.52817427,-91.51838643
Missouri,Randolph,795,37,3,0,2020-11-07,39.44007257,-92.4971374
Missouri,Ray,391,9,2,0,2020-11-07,39.3537468,-93.98905745
Missouri,Reynolds,107,0,1,0,2020-11-07,37.36085952,-90.97009925
Missouri,Ripley,331,14,5,0,2020-11-07,36.65460667,-90.85990261
Missouri,St. Charles,13071,361,157,0,2020-11-07,38.77875681,-90.66662425
Missouri,St. Clair,162,10,1,0,2020-11-07,38.03699437,-93.77631447
Missouri,Ste. Genevieve,613,31,2,0,2020-11-07,37.89090059,-90.1949941
