State,County,Total Cases,New Cases,Total Deaths,New Deaths,Date,Latitude,Longitude
Alabama,Autauga,2634,17,39,0,2020-11-23,32.53952745,-86.64408227
Alabama,Baldwin,8269,70,84,0,2020-11-23,30.72774991,-87.72207058
Alabama,Barbour,1161,1,10,0,2020-11-23,31.868263,-85.3871286
Alabama,Bibb,1142,6,17,0,2020-11-23,32.99642064,-87.12511459999997
Alabama,Blount,2763,9,36,0,2020-11-23,33.98210918,-86.56790593
Alabama,Bullock,690,1,19,0,2020-11-23,32.10030533,-85.71265535
Alabama,Butler,1137,4,41,0,2020-11-23,31.75300095,-86.68057478
Alabama,Calhoun,5997,33,113,0,2020-11-23,33.77483727,-85.82630386
Alabama,Chambers,1680,5,48,0,2020-11-23,32.91360079,-85.39072749
Alabama,Cherokee,989,4,24,0,2020-11-23,34.17805983,-85.60638968
Alabama,Chilton,2169,8,37,0,2020-11-23,32.85044126,-86.7173256
Alabama,Choctaw,417,0,13,0,2020-11-23,32.02227341,-88.26564429999998
Alabama,Clarke,1554,5,19,0,2020-11-23,31.68099859,-87.83548597
Alabama,Clay,894,6,23,0,2020-11-23,33.26984193,-85.85836077
Alabama,Cleburne,744,2,14,0,2020-11-23,33.67679204,-85.52005899
Alabama,Coffee,2334,31,15,0,2020-11-23,31.39932826,-85.98901039
Alabama,Colbert,2963,20,41,0,2020-11-23,34.69847452,-87.80168544
Alabama,Conecuh,668,0,14,0,2020-11-23,31.43401703,-86.99320044
Alabama,Coosa,307,1,4,0,2020-11-23,32.93690146,-86.24847739
Alabama,Covington,2125,2,33,0,2020-11-23,31.2477854,-86.45050893
Alabama,Crenshaw,703,3,30,0,2020-11-23,31.72941803,-86.31593104
Alabama,Cullman,4126,30,36,0,2020-11-23,34.13020303,-86.86888037
Alabama,Dale,2266,12,54,0,2020-11-23,31.43037123,-85.61095742
Alabama,Dallas,2202,6,31,0,2020-11-23,32.32688101,-87.10866709999998
Alabama,DeKalb,4635,27,35,0,2020-11-23,34.45946862,-85.80782906
Alabama,Elmore,3939,29,61,0,2020-11-23,32.59785413,-86.14415284
Alabama,Escambia,1944,4,31,0,2020-11-23,31.1256789,-87.15918694
Alabama,Etowah,5905,48,64,0,2020-11-23,34.04567266,-86.04051873
Alabama,Fayette,844,13,16,0,2020-11-23,33.72076938,-87.73886638
Alabama,Franklin,2448,12,33,0,2020-11-23,34.44235334,-87.84289505
Alabama,Geneva,1174,7,8,0,2020-11-23,31.09389027,-85.83572839
Alabama,Greene,402,3,17,0,2020-11-23,32.85504247,-87.95684022
Alabama,Hale,916,1,31,0,2020-11-23,32.76039258,-87.63284988
Alabama,Henry,842,4,6,0,2020-11-23,31.51148016,-85.24267944
Alabama,Houston,5070,37,38,0,2020-11-23,31.15197924,-85.29939599
Alabama,Jackson,2919,14,24,0,2020-11-23,34.78144169,-85.99750489
Alabama,Jefferson,30620,302,491,0,2020-11-23,33.55554728,-86.89506300000002
Alabama,Lamar,626,4,7,0,2020-11-23,33.77995024,-88.09668032
Alabama,Lauderdale,3829,46,53,0,2020-11-23,34.90171875,-87.65624729
Alabama,Lawrence,1224,10,36,0,2020-11-23,34.52041498,-87.31069453
Alabama,Lee,7539,35,64,0,2020-11-23,32.60154883,-85.35132246
Alabama,Limestone,4045,37,44,0,2020-11-23,34.81185586,-86.98310072
Alabama,Lowndes,787,2,29,0,2020-11-23,32.1597283,-86.65158371
Alabama,Macon,700,6,20,0,2020-11-23,32.38759944,-85.69267724
Alabama,Madison,12410,206,146,0,2020-11-23,34.76327133,-86.55069633
Alabama,Marengo,1169,5,24,0,2020-11-23,32.24767634,-87.78796182
Alabama,Marion,1345,6,35,0,2020-11-23,34.13697363,-87.88704173
Alabama,Marshall,5819,25,53,0,2020-11-23,34.36975964,-86.30486727
Alabama,Mobile,19306,46,358,2,2020-11-23,30.78472347,-88.20842409
Alabama,Monroe,768,0,11,0,2020-11-23,31.56729412,-87.36995001
Alabama,Montgomery,12040,40,232,0,2020-11-23,32.2206831,-86.20969272
Alabama,Morgan,6182,78,47,0,2020-11-23,34.45500589,-86.85475946
Alabama,Perry,668,0,6,0,2020-11-23,32.64048341,-87.29770589
Alabama,Pickens,1153,12,18,0,2020-11-23,33.28094866,-88.08818103
Alabama,Pike,1555,8,14,0,2020-11-23,31.80396383,-85.9408295
Alabama,Randolph,998,3,21,0,2020-11-23,33.29526734,-85.45708831
Alabama,Russell,2180,5,3,0,2020-11-23,32.28725256,-85.18415324
Alabama,St. Clair,3984,24,55,0,2020-11-23,33.71902176,-86.31029372
Alabama,Shelby,9805,93,76,0,2020-11-23,33.26879845,-86.66232561
Alabama,Sumter,553,0,22,0,2020-11-23,32.59117397,-88.19916205
Alabama,Talladega,3359,19,42,0,2020-11-23,33.37823223,-86.16886178
Alabama,Tallapoosa,1692,7,90,0,2020-11-23,32.86698258,-85.79833053
Alabama,Tuscaloosa,12501,55,148,0,2020-11-23,33.28726072,-87.52556818
Alabama,Walker,3490,10,96,0,2020-11-23,33.80270512,-87.30027177
Alabama,Washington,900,2,18,0,2020-11-23,31.4092794,-88.20689944
Alabama,Wilcox,624,1,18,0,2020-11-23,31.98773215,-87.30891118
Alabama,Winston,1237,12,23,0,2020-11-23,34.15030532,-87.37325922
Alaska,Aleutians East,25,3,0,0,2020-11-23,55.32222414,-161.9722021
Alaska,Bristol Bay,0,0,0,0,2020-11-23,58.74513976,-156.701064
Alaska,Denali,41,0,0,0,2020-11-23,63.67264044,-150.0076108
Alaska,Fairbanks North Star,3245,39,17,0,2020-11-23,64.80726247,-146.5692662
Alaska,Haines,16,0,0,0,2020-11-23,59.09893571,-135.4679843
Alaska,Kenai Peninsula,2162,18,6,0,2020-11-23,60.24429722,-151.53888840000005
Alaska,Ketchikan Gateway,186,1,0,0,2020-11-23,55.57445008,-130.975561
Alaska,Kodiak Island,223,6,0,0,2020-11-23,57.65529415,-153.7493579
Alaska,Matanuska-Susitna,2599,22,5,0,2020-11-23,62.31305045,-149.5741743
Alaska,North Slope,408,1,0,0,2020-11-23,69.31479216,-153.4836093
Alaska,Northwest Arctic,345,7,0,0,2020-11-23,67.04919196,-159.7503946
Arizona,Apache,4921,0,193,0,2020-11-23,35.39465006,-109.4892383
Arizona,Cochise,3137,0,78,0,2020-11-23,31.87934684,-109.7516088
Arizona,Coconino,6988,60,164,0,2020-11-23,35.83883429,-111.7707178
Arizona,Gila,2631,12,87,0,2020-11-23,33.80190085,-110.8132779
Arizona,Graham,1933,29,33,0,2020-11-23,32.93166885,-109.8882178
Arizona,Greenlee,181,7,2,0,2020-11-23,33.21498827,-109.2405279
Arizona,La Paz,750,0,18,0,2020-11-23,33.72854224,-113.9810029
Arizona,Maricopa,191503,1469,3896,0,2020-11-23,33.34835867,-112.4918154
Arizona,Mohave,5643,3,251,0,2020-11-23,35.70471703,-113.7577902
Arizona,Navajo,7654,52,267,0,2020-11-23,35.3997715,-110.3218983
Arizona,Pima,36659,544,674,0,2020-11-23,32.0971334,-111.7890033
Arizona,Pinal,15345,176,251,0,2020-11-23,32.90525627,-111.3449483
Arizona,Santa Cruz,3624,36,68,0,2020-11-23,31.52508998,-110.8479088
Arizona,Yavapai,4529,145,107,0,2020-11-23,34.59933926,-112.5538588
Arizona,Yuma,16826,126,375,0,2020-11-23,32.76895712,-113.90666740000002
Arkansas,Arkansas,918,2,20,0,2020-11-23,34.29145151,-91.37277296
Arkansas,Ashley,772,18,13,0,2020-11-23,33.19153461,-91.7698471
Arkansas,Baxter,1281,14,27,0,2020-11-23,36.28784385,-92.33782872
Arkansas,Benton,11207,82,150,2,2020-11-23,36.33644656,-94.25680817
Arkansas,Boone,1606,30,42,1,2020-11-23,36.3084504,-93.09374925
Arkansas,Bradley,436,7,8,0,2020-11-23,33.46755808,-92.15980837
Arkansas,Calhoun,130,3,0,0,2020-11-23,33.55598792,-92.49974403
Arkansas,Carroll,1314,13,23,2,2020-11-23,36.34038560000001,-93.54270261
Arkansas,Chicot,1145,11,26,1,2020-11-23,33.26458973,-91.29539209
Arkansas,Clark,749,1,10,0,2020-11-23,34.04613432,-93.17484713
Arkansas,Clay,786,11,19,0,2020-11-23,36.36826212,-90.4148172
Arkansas,Cleburne,654,4,20,0,2020-11-23,35.53864922,-92.02640019
Arkansas,Cleveland,334,0,14,0,2020-11-23,33.89723187,-92.18537045
Arkansas,Columbia,1000,12,24,0,2020-11-23,33.21230701,-93.22642793
Arkansas,Conway,610,4,7,1,2020-11-23,35.26205537,-92.70506566
Arkansas,Craighead,6585,33,72,0,2020-11-23,35.83018283,-90.63235729
Arkansas,Crawford,2914,26,35,0,2020-11-23,35.58928601,-94.2446814
Arkansas,Crittenden,3106,15,55,0,2020-11-23,35.21247318,-90.30839406
Arkansas,Cross,783,10,26,0,2020-11-23,35.29631396,-90.77185818
Arkansas,Dallas,269,4,6,0,2020-11-23,33.97042763,-92.65167437
Arkansas,Desha,522,4,8,0,2020-11-23,33.83011025,-91.25500948
Arkansas,Drew,583,4,7,0,2020-11-23,33.59035001,-91.71777921
Arkansas,Faulkner,4444,27,53,1,2020-11-23,35.14719007,-92.33717519
Arkansas,Franklin,728,10,11,1,2020-11-23,35.51202821,-93.89299569
Arkansas,Fulton,502,2,12,0,2020-11-23,36.38177105,-91.81729127
Arkansas,Garland,3507,15,104,3,2020-11-23,34.57692074,-93.14921604
Arkansas,Grant,541,3,5,0,2020-11-23,34.29017991,-92.42320562
Arkansas,Greene,2618,40,26,0,2020-11-23,36.11735460000001,-90.55832668
Arkansas,Hempstead,817,11,6,0,2020-11-23,33.73325583,-93.66935133
Arkansas,Hot Spring,2794,25,42,1,2020-11-23,34.31709259,-92.95396325
Arkansas,Howard,777,4,15,0,2020-11-23,34.09007427,-93.9934871
Arkansas,Independence,1968,15,71,0,2020-11-23,35.74242707,-91.57001641
Arkansas,Izard,951,6,6,1,2020-11-23,36.09604046,-91.90847954
Arkansas,Jackson,1529,11,6,0,2020-11-23,35.59802983,-91.21494602
Arkansas,Jefferson,5010,20,109,2,2020-11-23,34.26767081,-91.92619839
Arkansas,Johnson,1216,7,11,0,2020-11-23,35.56759135,-93.46036368
Arkansas,Lafayette,252,0,3,0,2020-11-23,33.24116713,-93.60677071
Arkansas,Lawrence,1096,6,28,0,2020-11-23,36.04188196,-91.10867198
Arkansas,Lee,1161,2,18,0,2020-11-23,34.78498904,-90.78383866
Arkansas,Lincoln,2393,4,18,0,2020-11-23,33.95317155,-91.74002806
Arkansas,Little River,611,3,40,0,2020-11-23,33.70375665,-94.23468591
Arkansas,Logan,878,33,6,0,2020-11-23,35.21413234,-93.71951016
Arkansas,Lonoke,2512,25,49,4,2020-11-23,34.75392199,-91.88742357
Arkansas,Madison,578,12,7,0,2020-11-23,36.01038185,-93.72524943
Arkansas,Marion,393,4,6,0,2020-11-23,36.26844485,-92.68451899
Arkansas,Miller,2064,13,22,0,2020-11-23,33.31403423,-93.89285258
Arkansas,Mississippi,3024,27,79,0,2020-11-23,35.76271485,-90.05194370000002
Arkansas,Monroe,292,2,4,0,2020-11-23,34.6815935,-91.20540287
Arkansas,Montgomery,254,9,10,0,2020-11-23,34.53704874,-93.65824478
Arkansas,Nevada,428,3,14,0,2020-11-23,33.66340119,-93.30632432
Arkansas,Newton,412,2,22,0,2020-11-23,35.91947491,-93.21612969
Arkansas,Ouachita,629,21,11,0,2020-11-23,33.58839816,-92.87795984
Arkansas,Perry,233,4,3,0,2020-11-23,34.9459153,-92.94372564
Arkansas,Phillips,892,7,16,0,2020-11-23,34.43268455,-90.84800154
Arkansas,Pike,351,1,1,0,2020-11-23,34.16250414,-93.65789349
Arkansas,Poinsett,1590,6,39,0,2020-11-23,35.57433534,-90.66268713
Arkansas,Polk,710,11,8,0,2020-11-23,34.48254879,-94.22728802
Arkansas,Pope,3494,13,42,0,2020-11-23,35.44871474,-93.03212219
Arkansas,Prairie,342,4,6,0,2020-11-23,34.83624419,-91.55162157
Arkansas,Pulaski,15743,158,258,2,2020-11-23,34.77054088,-92.31355101
Arkansas,Randolph,930,5,30,1,2020-11-23,36.3415714,-91.02455531
Arkansas,St. Francis,1999,11,14,0,2020-11-23,35.02201976,-90.74828138
Arkansas,Saline,4367,58,54,2,2020-11-23,34.64916145,-92.67583224
Arkansas,Scott,331,0,2,0,2020-11-23,34.85588887,-94.0632176
Arkansas,Searcy,275,3,1,0,2020-11-23,35.9109364,-92.69936482
Arkansas,Sebastian,6657,61,122,1,2020-11-23,35.19605503,-94.27162713
Arkansas,Sevier,1665,17,17,0,2020-11-23,33.99780401,-94.2424869
Arkansas,Sharp,628,6,14,0,2020-11-23,36.16258158,-91.47819342
Arkansas,Stone,444,2,23,1,2020-11-23,35.86251946,-92.15684085
Arkansas,Union,1461,11,56,0,2020-11-23,33.16887091,-92.59746952
Arkansas,Van Buren,335,6,3,0,2020-11-23,35.58095779,-92.51295036
Arkansas,Washington,14675,107,172,2,2020-11-23,35.976844,-94.21800746
Arkansas,White,2849,72,47,1,2020-11-23,35.25688493,-91.74908296
Arkansas,Woodruff,188,2,0,0,2020-11-23,35.18902527,-91.2439489
Arkansas,Yell,1590,2,33,0,2020-11-23,35.00292371,-93.41171338
California,Alameda,27622,137,499,0,2020-11-23,37.64629437,-121.8929271
California,Alpine,42,0,0,0,2020-11-23,38.59678594,-119.8223594
California,Amador,450,0,16,0,2020-11-23,38.44583082,-120.65696
California,Butte,3712,48,59,0,2020-11-23,39.66727762,-121.6005252
California,Calaveras,434,0,21,0,2020-11-23,38.20537103,-120.552913
California,Colusa,642,0,6,0,2020-11-23,39.17881957,-122.2331726
California,Contra Costa,22482,70,258,0,2020-11-23,37.91923498,-121.9289527
California,Del Norte,273,0,1,0,2020-11-23,41.74228275,-123.8974063
California,El Dorado,1930,0,4,0,2020-11-23,38.77965956,-120.5233166
California,Fresno,36315,342,471,0,2020-11-23,36.75733899,-119.6466953
California,Glenn,832,3,6,0,2020-11-23,39.59875897,-122.3938452
California,Humboldt,784,54,9,0,2020-11-23,40.69923009,-123.876044
California,Imperial,15257,204,355,2,2020-11-23,33.0393082,-115.3669042
California,Inyo,279,-4,16,0,2020-11-23,36.51112084,-117.41119779999998
California,Kern,38519,203,445,0,2020-11-23,35.34329425,-118.7277796
California,Kings,10115,77,86,0,2020-11-23,36.07409056,-119.8159973
California,Lake,834,2,18,0,2020-11-23,39.10124298,-122.7536244
California,Lassen,1480,0,3,0,2020-11-23,40.67311306,-120.59350990000002
California,Los Angeles,370636,6116,7446,8,2020-11-23,34.30828379,-118.2282411
California,Madera,5885,171,80,0,2020-11-23,37.21513971,-119.76655890000002
California,Marin,7560,42,128,0,2020-11-23,38.07122463,-122.7210631
California,Mariposa,112,8,2,0,2020-11-23,37.57978556,-119.9073334
California,Mendocino,1424,39,22,0,2020-11-23,39.4381191,-123.3911313
California,Merced,10986,0,176,0,2020-11-23,37.18922369,-120.7209035
California,Modoc,114,3,0,0,2020-11-23,41.58965602,-120.7244817
California,Mono,499,0,3,0,2020-11-23,37.93899289,-118.8872409
California,Monterey,13887,1,114,1,2020-11-23,36.21862405,-121.2413397
California,Napa,2778,21,17,0,2020-11-23,38.50735751,-122.332839
California,Nevada,1052,34,9,0,2020-11-23,39.30394768,-120.7627281
California,Orange,71116,1422,1554,0,2020-11-23,33.70147516,-117.76459979999998
California,Placer,6071,293,67,0,2020-11-23,39.06167234,-120.7240569
California,Plumas,177,0,0,0,2020-11-23,40.00355989,-120.8395236
California,Riverside,81565,889,1413,13,2020-11-23,33.74314981,-115.9933578
California,Sacramento,33421,288,546,0,2020-11-23,38.45106826,-121.3425374
California,San Benito,1746,5,15,0,2020-11-23,36.60308176,-121.069975
California,San Bernardino,85176,645,1129,0,2020-11-23,34.84060306,-116.1774685
California,San Diego,72815,1167,968,0,2020-11-23,33.03484597,-116.7365326
California,San Joaquin,24649,0,503,0,2020-11-23,37.93433732,-121.2730061
California,San Luis Obispo,5664,46,35,0,2020-11-23,35.38822029,-120.4039028
California,San Mateo,13334,131,169,0,2020-11-23,37.4228808,-122.32755459999998
California,Santa Barbara,10946,24,133,0,2020-11-23,34.65329488,-120.0188492
California,Santa Clara,31103,427,464,1,2020-11-23,37.23104908,-121.6970462
California,Santa Cruz,3896,-2,27,0,2020-11-23,37.05580291,-122.0066524
California,Shasta,4100,5,42,0,2020-11-23,40.76391419,-122.0396884
California,Sierra,17,0,0,0,2020-11-23,39.57713498,-120.52007009999998
California,Siskiyou,495,0,1,0,2020-11-23,41.59198861,-122.5407434
California,Solano,9363,14,80,0,2020-11-23,38.26827353,-121.9357113
California,Sonoma,11486,58,155,0,2020-11-23,38.52746429,-122.8862506
California,Stanislaus,20658,288,418,2,2020-11-23,37.55862499,-120.9970722
California,Sutter,2677,39,13,0,2020-11-23,39.03417539,-121.6945899
California,Tehama,1457,22,23,0,2020-11-23,40.12570935,-122.2370171
California,Trinity,114,1,0,0,2020-11-23,40.64917670000001,-123.114713
California,Tulare,19818,66,303,0,2020-11-23,36.22026558,-118.8020203
California,Tuolumne,784,76,8,0,2020-11-23,38.02644018,-119.9525093
California,Ventura,18105,65,174,0,2020-11-23,34.44465746,-119.0910613
California,Yolo,4257,58,75,0,2020-11-23,38.68278902,-121.9018288
California,Yuba,1732,0,10,0,2020-11-23,39.26255932,-121.3535644
Colorado,Adams,26474,345,316,1,2020-11-23,39.87432092,-104.3362578
Colorado,Alamosa,518,2,12,0,2020-11-23,37.57250606,-105.7885451
Colorado,Arapahoe,24172,377,429,0,2020-11-23,39.64977461,-104.3353617
Colorado,Archuleta,152,12,0,0,2020-11-23,37.19474156,-107.0476867
Colorado,Baca,52,0,0,0,2020-11-23,37.31940883,-102.5603223
Colorado,Bent,76,6,1,0,2020-11-23,37.95474293,-103.0720195
Colorado,Boulder,10011,164,111,0,2020-11-23,40.09313619,-105.3546767
Colorado,Chaffee,587,11,21,0,2020-11-23,38.74745778,-106.19265729999998
Colorado,Cheyenne,49,0,0,0,2020-11-23,38.82777431,-102.6032558
Colorado,Clear Creek,169,2,1,0,2020-11-23,39.68864463,-105.6463118
Colorado,Conejos,151,1,2,0,2020-11-23,37.201606,-106.19174879999998
Colorado,Costilla,68,0,1,0,2020-11-23,37.27732493,-105.4276548
Colorado,Crowley,1009,2,1,0,2020-11-23,38.32608609,-103.7844965
Colorado,Custer,57,1,0,0,2020-11-23,38.10883162,-105.3683478
Colorado,Delta,499,33,8,0,2020-11-23,38.86246243,-107.8631342
Colorado,Dolores,11,0,0,0,2020-11-23,37.75208676,-108.5211585
Colorado,Douglas,9244,237,98,0,2020-11-23,39.33133796,-104.930001
Colorado,Eagle,2066,15,11,0,2020-11-23,39.62754308,-106.6933637
Colorado,Elbert,526,11,5,0,2020-11-23,39.28656773,-104.1358721
Colorado,El Paso,23030,470,248,0,2020-11-23,38.83240149,-104.5251411
Colorado,Fremont,2253,110,3,0,2020-11-23,38.47362326,-105.4399667
Colorado,Garfield,1916,30,6,0,2020-11-23,39.59921777,-107.902708
Colorado,Gilpin,76,1,0,0,2020-11-23,39.85646523,-105.5252597
Colorado,Grand,281,8,1,0,2020-11-23,40.10603347,-106.1178042
Colorado,Gunnison,446,7,7,0,2020-11-23,38.66611652,-107.0320729
Colorado,Hinsdale,7,-1,0,0,2020-11-23,37.82247444,-107.3004345
Colorado,Huerfano,119,2,4,0,2020-11-23,37.68473101,-104.9612585
Colorado,Jackson,14,0,0,0,2020-11-23,40.66593870000001,-106.3408905
Colorado,Jefferson,18001,317,416,1,2020-11-23,39.58635604,-105.2517692
Colorado,Kiowa,21,1,0,0,2020-11-23,38.43260896,-102.7392145
Colorado,Kit Carson,251,1,7,0,2020-11-23,39.30497777,-102.6022199
Colorado,Lake,239,2,0,0,2020-11-23,39.20278823,-106.3555697
Colorado,La Plata,847,4,3,0,2020-11-23,37.28632032,-107.8429014
Colorado,Larimer,8786,135,66,0,2020-11-23,40.66671597,-105.4625784
Colorado,Las Animas,164,3,0,0,2020-11-23,37.3153406,-104.0376458
Colorado,Lincoln,117,1,0,0,2020-11-23,38.98749519,-103.5136649
Colorado,Logan,2021,16,28,0,2020-11-23,40.7249637,-103.110817
Colorado,Mesa,4962,141,49,0,2020-11-23,39.01787888,-108.469799
Colorado,Mineral,24,0,0,0,2020-11-23,37.66954283,-106.9281698
Colorado,Moffat,226,15,2,0,2020-11-23,40.61810999,-108.2070876
Colorado,Montezuma,584,13,6,0,2020-11-23,37.33859579,-108.5958857
Colorado,Montrose,848,42,15,0,2020-11-23,38.40214114,-108.26390220000002
Colorado,Morgan,1473,28,51,0,2020-11-23,40.26279810000001,-103.8093302
Colorado,Otero,429,6,9,0,2020-11-23,37.9014485,-103.7173385
Colorado,Ouray,111,2,2,0,2020-11-23,38.14717457,-107.7675136
Colorado,Park,202,0,3,0,2020-11-23,39.120926,-105.7182065
Colorado,Phillips,164,6,2,0,2020-11-23,40.59414277,-102.3577703
Colorado,Pitkin,432,7,2,0,2020-11-23,39.21720112,-106.9310027
Colorado,Prowers,514,31,12,0,2020-11-23,37.95544985,-102.3926052
Colorado,Pueblo,7028,290,82,1,2020-11-23,38.17359144,-104.5127437
Colorado,Rio Blanco,104,3,1,0,2020-11-23,39.97913541,-108.2179009
Colorado,Rio Grande,204,0,4,0,2020-11-23,37.5836865,-106.3847838
Colorado,Routt,526,7,9,0,2020-11-23,40.48596505,-106.9905548
Colorado,Saguache,199,0,2,0,2020-11-23,38.08054629,-106.282466
Colorado,San Juan,19,0,0,0,2020-11-23,37.76248981,-107.67632890000002
Colorado,San Miguel,184,6,0,0,2020-11-23,38.00450883,-108.4020725
Colorado,Sedgwick,98,2,1,0,2020-11-23,40.87595412,-102.3519227
Colorado,Summit,1344,14,4,0,2020-11-23,39.63803232,-106.1150762
Colorado,Teller,548,30,4,0,2020-11-23,38.88133511,-105.1614893
Colorado,Washington,187,1,5,0,2020-11-23,39.97015535,-103.202587
Colorado,Weld,12229,211,183,0,2020-11-23,40.55499405,-104.3929621
Colorado,Yuma,298,2,1,0,2020-11-23,40.00346839,-102.4258673
Connecticut,Fairfield,35272,1624,1477,6,2020-11-23,41.26809896,-73.3881171
Connecticut,Hartford,26424,1242,1570,17,2020-11-23,41.80283011,-72.73103891
Connecticut,Litchfield,3853,251,160,4,2020-11-23,41.7937534,-73.2451475
Connecticut,Middlesex,3358,213,200,3,2020-11-23,41.45949668,-72.53714864
Connecticut,New Haven,26531,1283,1202,12,2020-11-23,41.4080325,-72.93620426
Connecticut,New London,5592,240,163,0,2020-11-23,41.48896435,-72.10430976
Connecticut,Tolland,2824,159,72,0,2020-11-23,41.85853803,-72.3308481
Connecticut,Windham,2313,152,27,1,2020-11-23,41.82972709,-71.98182316
Delaware,Kent,4498,59,123,0,2020-11-23,39.08646628,-75.56884914
Delaware,New Castle,17820,233,372,2,2020-11-23,39.57992638,-75.64054974
Delaware,Sussex,9793,111,257,2,2020-11-23,38.66143781,-75.39031349
Florida,Alachua,12395,56,97,1,2020-11-23,29.67866525,-82.35928158
Florida,Baker,1963,5,31,2,2020-11-23,30.33060121,-82.28467476
Florida,Bay,8188,19,152,2,2020-11-23,30.26548745,-85.62122584
Florida,Bradford,1374,2,18,0,2020-11-23,29.95079741,-82.16611613
Florida,Brevard,14650,86,431,3,2020-11-23,28.29409504,-80.73091022
Florida,Broward,101747,688,1629,3,2020-11-23,26.15184651,-80.48725556
Florida,Calhoun,835,1,21,0,2020-11-23,30.40666734,-85.19394153
Florida,Charlotte,4720,48,183,2,2020-11-23,26.90131002,-81.92949121
Florida,Citrus,4358,28,158,1,2020-11-23,28.84804315,-82.47614748
Florida,Clay,7473,70,144,0,2020-11-23,29.98319144,-81.85609986
Florida,Collier,16947,83,276,0,2020-11-23,26.11091986,-81.34687065
Florida,Columbia,4621,9,91,1,2020-11-23,30.22509788,-82.62160164
Florida,DeSoto,2247,51,33,0,2020-11-23,27.18677893,-81.80941373
Florida,Dixie,953,-1,11,0,2020-11-23,29.60631086,-83.15724673
Florida,Duval,40898,314,569,4,2020-11-23,30.33225875,-81.66976468
Florida,Escambia,15990,64,296,0,2020-11-23,30.67652764,-87.37284571
Florida,Flagler,2577,16,42,1,2020-11-23,29.45933576,-81.31508595
Florida,Franklin,826,0,4,0,2020-11-23,29.83791238,-84.82731662
Florida,Gadsden,3221,1,57,0,2020-11-23,30.57796289,-84.61915825
Florida,Gilchrist,732,5,19,0,2020-11-23,29.72856978,-82.79880657
Florida,Glades,655,1,8,0,2020-11-23,26.95635849,-81.18996211
Florida,Gulf,1043,0,18,0,2020-11-23,29.93543004,-85.24270990000002
Florida,Hamilton,959,2,11,0,2020-11-23,30.49673973,-82.94998918
Florida,Hardee,1734,4,18,0,2020-11-23,27.49293939,-81.80956574
Florida,Hendry,2438,7,45,0,2020-11-23,26.55386945,-81.16469006
Florida,Hernando,4641,45,199,2,2020-11-23,28.55364461,-82.42700204
Florida,Highlands,3524,17,143,0,2020-11-23,27.34254618,-81.34071957
Florida,Hillsborough,55835,353,897,12,2020-11-23,27.9276559,-82.32013172
Florida,Holmes,1105,2,14,0,2020-11-23,30.86747479,-85.81319222
Florida,Indian River,4789,46,131,0,2020-11-23,27.69308961,-80.60556721
Florida,Jackson,3716,4,89,0,2020-11-23,30.7954597,-85.21500423
Florida,Jefferson,739,3,11,0,2020-11-23,30.43669112,-83.89442308
Florida,Lafayette,1304,-1,19,0,2020-11-23,29.98484137,-83.18166636
Florida,Lake,10151,67,245,1,2020-11-23,28.76202069,-81.7125123
Florida,Lee,28279,164,563,2,2020-11-23,26.58410348,-81.88399313
Florida,Leon,14312,27,136,8,2020-11-23,30.45955727,-84.27491114
Florida,Levy,1341,7,13,0,2020-11-23,29.31829741,-82.74007147
Florida,Liberty,567,0,14,0,2020-11-23,30.23766008,-84.8829258
Florida,Madison,1226,0,26,0,2020-11-23,30.44396917,-83.47398594
Florida,Manatee,15904,181,365,0,2020-11-23,27.47196942,-82.31831044
Florida,Marion,12443,42,374,0,2020-11-23,29.21227113,-82.05803627
Florida,Martin,5985,21,170,0,2020-11-23,27.0772071,-80.43109784
Florida,Miami-Dade,216442,1499,3782,16,2020-11-23,25.6112362,-80.55170587
Florida,Monroe,3140,26,27,0,2020-11-23,25.20904673,-81.07812416
Florida,Nassau,2940,10,54,0,2020-11-23,30.61037141,-81.80297522
Florida,Okaloosa,8354,31,145,0,2020-11-23,30.69143028,-86.59267105
Florida,Okeechobee,1985,12,43,0,2020-11-23,27.386336199999995,-80.88944347
Florida,Orange,55047,411,629,4,2020-11-23,28.51367621,-81.31799498
Florida,Osceola,17277,140,236,0,2020-11-23,28.06312234,-81.14882926
Florida,Palm Beach,62278,502,1659,11,2020-11-23,26.64676272,-80.46536002
Florida,Pasco,13809,130,265,1,2020-11-23,28.30810945,-82.40227529
Florida,Pinellas,31137,259,872,5,2020-11-23,27.93130349,-82.72239666
Florida,Polk,26504,152,670,7,2020-11-23,27.95027105,-81.69732947
Florida,Putnam,2653,8,58,1,2020-11-23,29.60779729,-81.74230285
Florida,St. Johns,8082,52,91,0,2020-11-23,29.90096506,-81.43589967
Florida,St. Lucie,10316,68,361,1,2020-11-23,27.37763908,-80.47106649
Florida,Santa Rosa,7051,37,97,0,2020-11-23,30.693414500000006,-87.02458128
Florida,Sarasota,12567,148,371,0,2020-11-23,27.18546175,-82.33174248
Florida,Seminole,12244,83,267,1,2020-11-23,28.7158582,-81.24060348
Florida,Sumter,3308,16,92,0,2020-11-23,28.70181754,-82.0794267
Florida,Suwannee,3213,4,87,1,2020-11-23,30.19746066,-82.99099670000003
Florida,Taylor,1614,1,20,0,2020-11-23,30.04848048,-83.60445406
Florida,Union,1210,0,59,1,2020-11-23,30.04412971,-82.37497443
Florida,Volusia,15245,152,357,0,2020-11-23,29.05858895,-81.18263252
Florida,Wakulla,1558,3,13,0,2020-11-23,30.16548905,-84.39895211
Florida,Walton,3508,9,35,0,2020-11-23,30.64204028,-86.16935664
Florida,Washington,1461,5,24,0,2020-11-23,30.61359259,-85.66002461
Georgia,Appling,1319,2,38,0,2020-11-23,31.74847232,-82.28909114
Georgia,Atkinson,578,1,9,0,2020-11-23,31.29633502,-82.87545866
Georgia,Bacon,747,1,23,0,2020-11-23,31.55456473,-82.45936528
Georgia,Baker,121,0,6,0,2020-11-23,31.32669878,-84.44218806
Georgia,Baldwin,2605,7,69,0,2020-11-23,33.06882326,-83.24701748
Georgia,Banks,728,3,12,0,2020-11-23,34.35607081,-83.49644388
Georgia,Barrow,3293,14,56,0,2020-11-23,33.99148694,-83.71436292
Georgia,Bartow,4933,23,105,0,2020-11-23,34.23732119,-84.83887523
Georgia,Ben Hill,985,2,39,0,2020-11-23,31.76095874,-83.22145359
Georgia,Berrien,681,4,27,0,2020-11-23,31.27590016,-83.22529920000002
Georgia,Bibb,7423,20,230,0,2020-11-23,32.80904227,-83.70489165
Georgia,Bleckley,704,1,31,0,2020-11-23,32.43829035,-83.33035166
Georgia,Brantley,760,0,16,0,2020-11-23,31.19576557,-81.97743999
Georgia,Brooks,634,0,30,0,2020-11-23,30.83922642,-83.58303423
Georgia,Bryan,1458,7,17,0,2020-11-23,32.00979311,-81.44002948
Georgia,Bulloch,3704,16,52,0,2020-11-23,32.39577406,-81.74811421
Georgia,Burke,1203,2,14,0,2020-11-23,33.05917989,-81.99928721
Georgia,Butts,1029,2,46,0,2020-11-23,33.283094500000004,-83.95435040000002
Georgia,Calhoun,294,-1,11,0,2020-11-23,31.53169785,-84.62725131
Georgia,Camden,1763,12,20,0,2020-11-23,30.92951916,-81.66601818
Georgia,Candler,615,1,29,0,2020-11-23,32.40209349,-82.07702563
Georgia,Carroll,5327,31,94,1,2020-11-23,33.58138199,-85.07976677
Georgia,Catoosa,1955,25,29,1,2020-11-23,34.89872298,-85.13757014
Georgia,Charlton,784,3,17,0,2020-11-23,30.78371028,-82.13951596
Georgia,Chatham,10591,34,206,0,2020-11-23,32.00043026,-81.12489526
Georgia,Chattahoochee,1948,2,3,0,2020-11-23,32.34341231,-84.78809239
Georgia,Chattooga,1201,4,33,0,2020-11-23,34.47197698,-85.34535662
Georgia,Cherokee,10047,37,115,0,2020-11-23,34.24393976,-84.47431861
Georgia,Clarke,7721,25,54,1,2020-11-23,33.95436462,-83.37124007
Georgia,Clay,149,-1,3,0,2020-11-23,31.62221166,-84.97713865
Georgia,Clayton,10149,19,197,0,2020-11-23,33.54187245,-84.35594188
Georgia,Clinch,534,1,13,0,2020-11-23,30.91395822,-82.70432472
Georgia,Cobb,28764,127,501,1,2020-11-23,33.94243204,-84.5761255
Georgia,Coffee,2839,5,74,0,2020-11-23,31.54892966,-82.85492059999999
Georgia,Colquitt,2558,-5,47,0,2020-11-23,31.18810588,-83.7677946
Georgia,Columbia,6209,43,75,0,2020-11-23,33.54534185,-82.263524
Georgia,Cook,839,3,17,0,2020-11-23,31.16068491,-83.42947229
Georgia,Coweta,5006,29,71,0,2020-11-23,33.35334302,-84.76129976
Georgia,Crawford,244,0,6,0,2020-11-23,32.71391813,-83.98061238
Georgia,Crisp,903,1,32,0,2020-11-23,31.92289565,-83.76811843
Georgia,Dade,493,5,7,0,2020-11-23,34.854916700000004,-85.50490424
Georgia,Dawson,1094,3,11,0,2020-11-23,34.44244079,-84.16964071
Georgia,Decatur,1558,-3,45,0,2020-11-23,30.87967778,-84.57619536
Georgia,DeKalb,26592,103,447,1,2020-11-23,33.76944049,-84.22396017
Georgia,Dodge,1056,0,50,0,2020-11-23,32.17265114,-83.16948926
Georgia,Dooly,477,0,19,0,2020-11-23,32.15630737,-83.79746561
Georgia,Dougherty,3655,4,204,1,2020-11-23,31.53328528,-84.21722377
Georgia,Douglas,5448,21,86,0,2020-11-23,33.70291126,-84.77026156
Georgia,Early,679,1,36,0,2020-11-23,31.32155345,-84.90255207
Georgia,Echols,271,1,2,0,2020-11-23,30.71101099,-82.89687287
Georgia,Effingham,2151,12,32,0,2020-11-23,32.36616021,-81.34280942
Georgia,Elbert,1120,3,22,0,2020-11-23,34.11302332,-82.83936148
Georgia,Emanuel,1410,0,46,0,2020-11-23,32.59221302,-82.30239915
Georgia,Evans,551,3,12,0,2020-11-23,32.15328841,-81.8870105
Georgia,Fannin,988,1,35,0,2020-11-23,34.86430205,-84.316964
Georgia,Fayette,3043,11,62,0,2020-11-23,33.41357794,-84.49089434
Georgia,Floyd,5358,23,75,0,2020-11-23,34.26268279,-85.21577392
Georgia,Forsyth,6498,63,61,0,2020-11-23,34.22604035,-84.12315129999998
Georgia,Franklin,1179,5,22,0,2020-11-23,34.37525597,-83.23159927
Georgia,Fulton,38981,207,684,0,2020-11-23,33.79216944,-84.46319413
Georgia,Gilmer,1240,5,30,0,2020-11-23,34.69316688,-84.45802506
Georgia,Glascock,80,0,2,0,2020-11-23,33.22879932,-82.61297636
Georgia,Glynn,4194,7,118,2,2020-11-23,31.23279254,-81.53811412
Georgia,Gordon,3336,18,60,0,2020-11-23,34.50487351,-84.87296253
Georgia,Grady,985,4,31,0,2020-11-23,30.87454847,-84.23418364
Georgia,Greene,710,3,28,0,2020-11-23,33.5769205,-83.17139104
Georgia,Gwinnett,38123,177,510,0,2020-11-23,33.96044201,-84.02137802
Georgia,Habersham,2214,16,79,0,2020-11-23,34.63331566,-83.53094677
Georgia,Hall,12231,34,199,0,2020-11-23,34.32207823,-83.81896936
Georgia,Hancock,468,1,45,0,2020-11-23,33.2721566,-82.99766919
Georgia,Haralson,1274,11,22,1,2020-11-23,33.79602175,-85.21005667
Georgia,Harris,1005,3,27,0,2020-11-23,32.73709786,-84.90538572
Georgia,Hart,784,6,26,0,2020-11-23,34.34626973,-82.96567682
Georgia,Heard,357,1,7,0,2020-11-23,33.29686567,-85.12886832
Georgia,Henry,8309,47,133,0,2020-11-23,33.4533428,-84.14814659999998
Georgia,Houston,4635,21,106,0,2020-11-23,32.45802497,-83.66879087
Georgia,Irwin,429,3,12,0,2020-11-23,31.60213036,-83.27501387
Georgia,Jackson,3209,15,52,0,2020-11-23,34.13794553,-83.56814788
Georgia,Jasper,441,1,6,0,2020-11-23,33.31535543,-83.68844964
Georgia,Jeff Davis,951,4,32,0,2020-11-23,31.80405727,-82.63724870000001
Georgia,Jefferson,985,3,39,0,2020-11-23,33.05867328,-82.41609057
Georgia,Jenkins,497,0,34,0,2020-11-23,32.79248718,-81.96040187
Georgia,Johnson,523,1,30,0,2020-11-23,32.70211082,-82.66166794
Georgia,Jones,771,1,20,0,2020-11-23,33.02512137,-83.56019163
Georgia,Lamar,665,5,26,0,2020-11-23,33.07841647,-84.14263877
Georgia,Lanier,389,1,10,0,2020-11-23,31.038285700000007,-83.06472457
Georgia,Laurens,2544,9,112,-1,2020-11-23,32.46325233,-82.92221316
Georgia,Lee,918,4,33,0,2020-11-23,31.779330600000005,-84.14324253
Georgia,Liberty,1513,4,28,0,2020-11-23,31.82588896,-81.49251135
Georgia,Lincoln,316,6,10,0,2020-11-23,33.79201475,-82.45024131
Georgia,Long,323,0,5,0,2020-11-23,31.75218791,-81.74952375
Georgia,Lowndes,6103,29,124,0,2020-11-23,30.83568832,-83.27056716
Georgia,Lumpkin,1241,1,20,0,2020-11-23,34.57286511,-84.00425681
Georgia,McDuffie,915,0,21,1,2020-11-23,33.47851918,-82.48252774
Georgia,McIntosh,367,0,8,0,2020-11-23,31.49683595,-81.40163426
Georgia,Macon,326,0,15,0,2020-11-23,32.35207048,-84.04234127
Georgia,Madison,1089,6,19,0,2020-11-23,34.12920917,-83.21218732
Georgia,Marion,241,0,10,0,2020-11-23,32.3483402,-84.52733571
Georgia,Meriwether,768,0,19,0,2020-11-23,33.04163534,-84.68859732
Georgia,Miller,404,0,3,0,2020-11-23,31.16568912,-84.73151117
Georgia,Mitchell,959,3,49,1,2020-11-23,31.22483255,-84.19381821
Georgia,Monroe,1008,2,61,0,2020-11-23,33.014289,-83.92097166
Georgia,Montgomery,419,1,10,0,2020-11-23,32.17201038,-82.53527476
Georgia,Morgan,792,2,8,0,2020-11-23,33.59232073,-83.49129491
Georgia,Murray,1682,19,21,1,2020-11-23,34.78897608,-84.74993177
Georgia,Muscogee,7136,15,191,1,2020-11-23,32.50931999,-84.87142262
Georgia,Newton,3701,18,109,0,2020-11-23,33.55514538,-83.84547140000002
Georgia,Oconee,1323,6,35,0,2020-11-23,33.83749973,-83.43679568
Georgia,Oglethorpe,535,3,14,0,2020-11-23,33.878629600000004,-83.08278123
Georgia,Paulding,4834,15,76,1,2020-11-23,33.91969522,-84.86848792
Georgia,Peach,1029,6,27,0,2020-11-23,32.56934316,-83.82937
Georgia,Pickens,1070,4,15,0,2020-11-23,34.46589159,-84.46406611
Georgia,Pierce,1188,0,29,0,2020-11-23,31.35928155,-82.21598442
Georgia,Pike,772,1,16,0,2020-11-23,33.09310242,-84.38790389
Georgia,Polk,2348,10,34,0,2020-11-23,34.00267074,-85.18677781
Georgia,Pulaski,437,0,24,0,2020-11-23,32.23334561,-83.47549959999998
Georgia,Putnam,970,4,30,0,2020-11-23,33.32056115,-83.37552891
Georgia,Quitman,77,0,1,0,2020-11-23,31.86728114,-85.01773177
Georgia,Rabun,554,3,11,0,2020-11-23,34.88389445,-83.40304637
Georgia,Randolph,365,0,30,0,2020-11-23,31.76622818,-84.75732369
Georgia,Richmond,9908,33,215,2,2020-11-23,33.35777107,-82.07026432
Georgia,Rockdale,2638,12,52,0,2020-11-23,33.65145002,-84.02202167
Georgia,Schley,157,0,2,0,2020-11-23,32.2654021,-84.31258912
Georgia,Screven,496,0,13,0,2020-11-23,32.74976524,-81.60779441
Georgia,Seminole,523,1,12,0,2020-11-23,30.93464824,-84.86823924
Georgia,Spalding,2295,14,76,0,2020-11-23,33.26310031,-84.28013991
Georgia,Stephens,1454,3,48,0,2020-11-23,34.55151201,-83.29405315
Georgia,Stewart,623,0,17,0,2020-11-23,32.07996777,-84.83208037
Georgia,Sumter,1204,4,71,0,2020-11-23,32.03650571,-84.19821492
Georgia,Talbot,225,0,8,0,2020-11-23,32.69642758,-84.53351366
Georgia,Taliaferro,38,1,0,0,2020-11-23,33.56543317,-82.88136816
Georgia,Tattnall,1130,2,25,0,2020-11-23,32.04785085,-82.05539188
Georgia,Taylor,341,1,13,0,2020-11-23,32.55792548,-84.25077141
Georgia,Telfair,646,0,28,0,2020-11-23,31.92829517,-82.93491155
Georgia,Terrell,392,0,33,0,2020-11-23,31.77527543,-84.44069698
Georgia,Thomas,1886,0,81,0,2020-11-23,30.86392347,-83.91847289
Georgia,Tift,2386,11,75,0,2020-11-23,31.45743864,-83.5236119
Georgia,Toombs,1681,4,63,0,2020-11-23,32.12059861,-82.32957247
Georgia,Towns,552,8,27,1,2020-11-23,34.91369188,-83.74107459999998
Georgia,Treutlen,380,0,14,0,2020-11-23,32.40422134,-82.56904553
Georgia,Troup,3843,1,119,0,2020-11-23,33.03349196,-85.02812115
Georgia,Turner,429,1,26,0,2020-11-23,31.71612656,-83.62069378
Georgia,Twiggs,252,0,15,0,2020-11-23,32.67435595,-83.43078662
Georgia,Union,1048,5,34,0,2020-11-23,34.82995757,-83.98967069
Georgia,Upson,1468,6,77,0,2020-11-23,32.87920671,-84.30024826
Georgia,Walker,2532,20,50,0,2020-11-23,34.73376362,-85.30165174
Georgia,Walton,3141,28,78,0,2020-11-23,33.78017694,-83.73552314
Georgia,Ware,2570,1,79,0,2020-11-23,31.05449097,-82.42224148
Georgia,Warren,211,0,8,0,2020-11-23,33.41146451,-82.67795848
Georgia,Washington,1065,3,25,0,2020-11-23,32.96711864,-82.79357039
Georgia,Wayne,1610,22,46,1,2020-11-23,31.5521809,-81.91894878
Georgia,Webster,62,0,2,0,2020-11-23,32.04066113,-84.54742852
Georgia,Wheeler,420,0,17,0,2020-11-23,32.12009104,-82.72574721
Georgia,White,1246,8,27,0,2020-11-23,34.64624278,-83.74905525
Georgia,Whitfield,7416,64,77,0,2020-11-23,34.80987459,-84.96093476
Georgia,Wilcox,361,0,28,0,2020-11-23,31.97496928,-83.43438555
Georgia,Wilkes,421,0,7,0,2020-11-23,33.78290391,-82.74286107
Georgia,Wilkinson,427,1,18,0,2020-11-23,32.80291082,-83.17140684
Georgia,Worth,705,0,36,0,2020-11-23,31.55162306,-83.85090513
Idaho,Ada,23711,256,230,5,2020-11-23,43.4526575,-116.24155159999998
Idaho,Adams,92,3,2,0,2020-11-23,44.89333571,-116.4545247
Idaho,Bannock,3943,55,28,0,2020-11-23,42.67002716,-112.2233311
Idaho,Bear Lake,168,2,1,0,2020-11-23,42.28269683,-111.32892379999998
Idaho,Benewah,256,0,3,0,2020-11-23,47.21754179,-116.6586851
Idaho,Bingham,2460,17,27,0,2020-11-23,43.21672879999999,-112.3978437
Idaho,Blaine,1206,4,7,0,2020-11-23,43.4085812,-113.9752658
Idaho,Boise,127,1,2,0,2020-11-23,43.98829931,-115.7309284
Idaho,Bonner,854,11,3,0,2020-11-23,48.29996017,-116.6017932
Idaho,Bonneville,6996,131,55,-1,2020-11-23,43.38713372,-111.6161537
Idaho,Boundary,328,0,2,1,2020-11-23,48.76684761,-116.4630179
Idaho,Butte,116,-1,0,0,2020-11-23,43.72592209,-113.1735463
Idaho,Camas,52,0,0,0,2020-11-23,43.46665742,-114.8065892
Idaho,Canyon,14039,193,136,0,2020-11-23,43.61970148,-116.7095499
Idaho,Caribou,412,0,10,0,2020-11-23,42.77149116,-111.5597683
Idaho,Cassia,2009,8,17,0,2020-11-23,42.28347888,-113.6012409
Idaho,Clark,48,0,0,0,2020-11-23,44.28496071,-112.3505704
Idaho,Clearwater,498,138,0,0,2020-11-23,46.67459924,-115.6622393
Idaho,Custer,137,4,1,0,2020-11-23,44.24186819,-114.2855494
Idaho,Elmore,839,20,6,0,2020-11-23,43.3507101,-115.4701578
Idaho,Franklin,599,6,4,0,2020-11-23,42.18332217,-111.8149666
Idaho,Fremont,667,11,8,0,2020-11-23,44.22800938,-111.4809943
Idaho,Gem,784,29,5,0,2020-11-23,44.06482372,-116.398376
Idaho,Gooding,901,6,9,-1,2020-11-23,42.96927962,-114.8108306
Idaho,Idaho,686,24,6,1,2020-11-23,45.84721541,-115.4634436
Idaho,Jefferson,1434,21,10,0,2020-11-23,43.82078483,-112.3131749
Idaho,Jerome,1796,22,12,-1,2020-11-23,42.68891267,-114.2655033
Idaho,Kootenai,6751,100,73,3,2020-11-23,47.67282258,-116.7020872
Idaho,Latah,1628,57,1,0,2020-11-23,46.81587887,-116.7113698
Idaho,Lemhi,423,3,7,0,2020-11-23,44.9438088,-113.9309747
Idaho,Lewis,188,13,3,0,2020-11-23,46.23315327,-116.434146
Idaho,Lincoln,338,2,8,0,2020-11-23,43.0012336,-114.1358773
Idaho,Madison,3875,62,7,0,2020-11-23,43.78141028,-111.65384740000002
Idaho,Minidoka,1664,17,14,0,2020-11-23,42.85518524,-113.6357257
Idaho,Nez Perce,2089,94,29,2,2020-11-23,46.32638236,-116.7500975
Idaho,Oneida,125,6,0,0,2020-11-23,42.19494279999999,-112.5407838
Idaho,Owyhee,588,10,5,0,2020-11-23,42.58016894,-116.1693871
Idaho,Payette,1504,21,14,1,2020-11-23,44.00545243,-116.7647695
Idaho,Power,439,2,4,0,2020-11-23,42.69254894,-112.83957420000002
Idaho,Shoshone,462,4,22,0,2020-11-23,47.35364087,-115.8916749
Idaho,Teton,503,12,2,0,2020-11-23,43.75303583,-111.2056773
Idaho,Twin Falls,6442,49,82,7,2020-11-23,42.35440512,-114.6685381
Idaho,Valley,222,7,1,0,2020-11-23,44.76728382,-115.5676773
Idaho,Washington,689,16,10,0,2020-11-23,44.45275475,-116.7847688
Illinois,Adams,4395,47,46,0,2020-11-23,39.98815591,-91.18786813
Illinois,Alexander,244,2,2,0,2020-11-23,37.18049267,-89.32910838
Illinois,Bond,914,1,10,0,2020-11-23,38.88829622,-89.43534887
Illinois,Boone,3565,33,30,0,2020-11-23,42.32359279,-88.82345779
Illinois,Brown,279,4,3,0,2020-11-23,39.96209138,-90.75068024
Illinois,Bureau,1948,33,35,0,2020-11-23,41.40385234,-89.5283051
Illinois,Calhoun,217,2,0,0,2020-11-23,39.16840183,-90.66330078
Illinois,Carroll,984,6,24,0,2020-11-23,42.06823429,-89.93395545
Illinois,Cass,879,8,19,0,2020-11-23,39.96991073,-90.24734436
Illinois,Champaign,10151,83,48,1,2020-11-23,40.13919438,-88.20046615
Illinois,Christian,1748,17,39,1,2020-11-23,39.54581621,-89.27780482
Illinois,Clark,727,25,19,0,2020-11-23,39.33425789,-87.78705622
Illinois,Clay,747,9,17,0,2020-11-23,38.75388572,-88.48914513
Illinois,Clinton,2984,41,56,0,2020-11-23,38.60704876,-89.42385254
Illinois,Coles,3100,29,57,0,2020-11-23,39.51949084,-88.22358557
Illinois,Cook,284217,3321,6339,36,2020-11-23,41.84144849,-87.81658794
Illinois,Crawford,1015,11,9,0,2020-11-23,39.0032229,-87.75954624
Illinois,Cumberland,567,6,13,0,2020-11-23,39.27432424,-88.2401158
Illinois,DeKalb,4628,61,45,0,2020-11-23,41.89373302,-88.76958483
Illinois,De Witt,575,5,13,0,2020-11-23,40.17514519,-88.90959682
Illinois,Douglas,1254,12,16,0,2020-11-23,39.76768052,-88.21854195
Illinois,DuPage,41602,596,748,2,2020-11-23,41.85116968,-88.08642662
Illinois,Edgar,697,9,15,0,2020-11-23,39.6809186,-87.74759563
Illinois,Edwards,206,3,3,0,2020-11-23,38.41353228,-88.05720863
Illinois,Effingham,2464,31,17,0,2020-11-23,39.05935711,-88.58969584
Illinois,Fayette,1434,23,28,0,2020-11-23,39.00072038,-89.02452658
Illinois,Ford,663,5,21,0,2020-11-23,40.59706922,-88.22350769
Illinois,Franklin,1865,9,22,0,2020-11-23,37.99189086,-88.92567818
Illinois,Fulton,1277,40,10,0,2020-11-23,40.47289135,-90.20862357
Illinois,Gallatin,179,2,3,0,2020-11-23,37.76430935,-88.22953869
Illinois,Greene,763,9,26,0,2020-11-23,39.35907414,-90.388865
Illinois,Grundy,2489,63,11,0,2020-11-23,41.28569601,-88.41905692
Illinois,Hamilton,363,6,3,0,2020-11-23,38.08163641,-88.53883373
Illinois,Hancock,887,4,10,0,2020-11-23,40.40423981,-91.16313899
Illinois,Hardin,127,7,0,0,2020-11-23,37.51810645,-88.26873022
Illinois,Henderson,258,4,0,0,2020-11-23,40.81908672,-90.92491462
Illinois,Henry,2347,16,12,0,2020-11-23,41.3533994,-90.13296166
Illinois,Iroquois,1506,20,24,0,2020-11-23,40.74717633,-87.82466784
Illinois,Jackson,2472,32,34,0,2020-11-23,37.78595185,-89.38232563
Illinois,Jasper,582,1,11,0,2020-11-23,39.01054275,-88.15437049
Illinois,Jefferson,1685,12,58,0,2020-11-23,38.29980057,-88.9240025
Illinois,Jersey,1118,13,23,0,2020-11-23,39.08869046,-90.35393073
Illinois,Jo Daviess,1010,21,16,0,2020-11-23,42.36542373,-90.21094405
Illinois,Johnson,658,5,3,0,2020-11-23,37.45939802,-88.88165419
Illinois,Kane,29562,322,445,2,2020-11-23,41.93842729,-88.42861412
Illinois,Kankakee,7863,110,96,0,2020-11-23,41.13746989,-87.86205334
Illinois,Kendall,5739,93,41,0,2020-11-23,41.59081014,-88.42869583
Illinois,Knox,2561,27,56,0,2020-11-23,40.93148779,-90.21330340000002
Illinois,Lake,34539,380,604,2,2020-11-23,42.3224907,-88.00367925
Illinois,LaSalle,5608,60,119,0,2020-11-23,41.34426129999999,-88.88633881
Illinois,Lawrence,873,18,9,0,2020-11-23,38.71987914,-87.72884035
Illinois,Lee,1699,19,22,0,2020-11-23,41.74583951,-89.29977132
Illinois,Livingston,2034,29,21,2,2020-11-23,40.89188292,-88.55784752
Illinois,Logan,1471,29,12,0,2020-11-23,40.12581572,-89.36638784
Illinois,McDonough,1497,17,39,2,2020-11-23,40.45674722,-90.67775541
Illinois,McHenry,13125,117,148,1,2020-11-23,42.32451172,-88.45248227
Illinois,McLean,7729,99,49,0,2020-11-23,40.48996987,-88.84621113
Illinois,Macon,6015,65,115,0,2020-11-23,39.86064913,-88.96342505
Illinois,Macoupin,1918,23,17,0,2020-11-23,39.26119767,-89.92424028
Illinois,Madison,13074,209,217,0,2020-11-23,38.83042506,-89.90422563
Illinois,Marion,2238,21,41,0,2020-11-23,38.64963204,-88.91899208
Illinois,Marshall,352,12,5,0,2020-11-23,41.0327901,-89.34510444
Illinois,Mason,634,13,16,0,2020-11-23,40.23917274,-89.91824452
Illinois,Massac,499,32,2,0,2020-11-23,37.22078441,-88.71036614
Illinois,Menard,413,2,1,0,2020-11-23,40.02742725,-89.80246001
Illinois,Mercer,674,9,9,0,2020-11-23,41.20596782,-90.74290052
Illinois,Monroe,1875,78,44,0,2020-11-23,38.27594376,-90.17761038
Illinois,Montgomery,1050,7,19,0,2020-11-23,39.23198845,-89.47809254
Illinois,Morgan,2004,21,34,1,2020-11-23,39.71654544,-90.20255104
Illinois,Moultrie,818,5,10,0,2020-11-23,39.64187451,-88.62099969
Illinois,Ogle,2598,31,26,1,2020-11-23,42.04165196,-89.32184679
Illinois,Peoria,8239,126,118,1,2020-11-23,40.78702156,-89.76078901
Illinois,Perry,962,18,19,0,2020-11-23,38.08510853,-89.36856219
Illinois,Piatt,705,6,5,0,2020-11-23,40.01360584,-88.59319339
Illinois,Pike,955,18,21,1,2020-11-23,39.62265059,-90.8877017
Illinois,Pope,75,1,1,0,2020-11-23,37.41391284,-88.56152109
Illinois,Pulaski,379,4,2,0,2020-11-23,37.22631423,-89.13085001
Illinois,Putnam,228,4,0,0,2020-11-23,41.2013541,-89.2869272
Illinois,Randolph,2052,21,23,0,2020-11-23,38.05095369,-89.82512254
Illinois,Richland,657,14,19,0,2020-11-23,38.71240969,-88.08475366
Illinois,Rock Island,8025,120,120,0,2020-11-23,41.46613806,-90.57042164
Illinois,St. Clair,12087,172,254,1,2020-11-23,38.46996033,-89.93063427
Illinois,Saline,1042,13,22,0,2020-11-23,37.75332999,-88.54119706
Illinois,Sangamon,9236,125,89,0,2020-11-23,39.75836914,-89.65872023
Illinois,Schuyler,236,6,1,0,2020-11-23,40.1571798,-90.61114163
Illinois,Scott,212,1,0,0,2020-11-23,39.6429169,-90.47814431
Illinois,Shelby,1219,20,24,0,2020-11-23,39.39133527,-88.80611122
Illinois,Stark,210,6,3,0,2020-11-23,41.09309773,-89.79745866
Illinois,Stephenson,2288,23,30,1,2020-11-23,42.35129217,-89.662598
Illinois,Tazewell,5987,147,90,1,2020-11-23,40.50716185,-89.51404662
Illinois,Union,1112,3,26,0,2020-11-23,37.47119609,-89.25548938
Illinois,Vermilion,3453,43,43,0,2020-11-23,40.18417171,-87.73384359
Illinois,Wabash,473,13,8,0,2020-11-23,38.44272901,-87.84922065
Illinois,Warren,988,15,18,1,2020-11-23,40.84925021,-90.6147432
Illinois,Washington,599,9,2,0,2020-11-23,38.35309213,-89.40982703
Illinois,Wayne,821,9,32,0,2020-11-23,38.42955355,-88.42586459
Illinois,White,540,11,8,0,2020-11-23,38.08706198,-88.17657461
Illinois,Whiteside,3464,60,99,4,2020-11-23,41.75509713,-89.91556058
Illinois,Will,35444,479,530,0,2020-11-23,41.44619267,-87.97862712
Illinois,Williamson,3284,66,77,0,2020-11-23,37.73033511,-88.92994027
Illinois,Winnebago,17480,177,246,0,2020-11-23,42.33641854,-89.16085327
Illinois,Woodford,1553,28,26,0,2020-11-23,40.78579374,-89.20973757
Indiana,Adams,1652,52,19,0,2020-11-23,40.7457653,-84.93671406
Indiana,Allen,17299,274,290,1,2020-11-23,41.09194313,-85.06800636
Indiana,Bartholomew,3032,70,62,0,2020-11-23,39.20744865,-85.89558181
Indiana,Benton,325,15,1,0,2020-11-23,40.60626947,-87.31093999
Indiana,Blackford,512,12,11,0,2020-11-23,40.47388153,-85.32499702
Indiana,Boone,2351,34,54,0,2020-11-23,40.0509304,-86.46841646
Indiana,Brown,326,11,3,0,2020-11-23,39.19605589,-86.22868909
Indiana,Carroll,668,15,13,0,2020-11-23,40.580783200000006,-86.56198812
Indiana,Cass,2934,22,31,0,2020-11-23,40.76135835,-86.34830753
Indiana,Clark,4953,86,74,0,2020-11-23,38.48015445,-85.70510334
Indiana,Clay,1156,38,21,0,2020-11-23,39.39561833,-87.11723506
Indiana,Clinton,1749,45,20,0,2020-11-23,40.30319754,-86.47277257
Indiana,Crawford,278,7,1,0,2020-11-23,38.28814402,-86.44518825
Indiana,Daviess,1522,31,43,0,2020-11-23,38.70186039,-87.07185406
Indiana,Dearborn,2088,42,29,0,2020-11-23,39.14647946,-84.97333539
Indiana,Decatur,1235,37,42,0,2020-11-23,39.30712658,-85.50087166
Indiana,DeKalb,1712,28,29,1,2020-11-23,41.39804622,-84.99906934
Indiana,Delaware,4789,68,103,0,2020-11-23,40.22787247,-85.39732772
Indiana,Dubois,2304,12,30,0,2020-11-23,38.36597551,-86.87924170000002
Indiana,Elkhart,16665,276,212,3,2020-11-23,41.59761169,-85.85875695
Indiana,Fayette,1452,40,33,0,2020-11-23,39.63684962,-85.17797541
Indiana,Floyd,3061,50,77,0,2020-11-23,38.32117957,-85.90385377
Indiana,Fountain,737,12,8,1,2020-11-23,40.12361933,-87.24217689
Indiana,Franklin,659,24,25,0,2020-11-23,39.4142482,-85.06062647
Indiana,Fulton,811,24,17,0,2020-11-23,41.0469907,-86.26252745
Indiana,Gibson,1770,54,22,0,2020-11-23,38.30393723,-87.58054938
Indiana,Grant,2587,46,47,0,2020-11-23,40.51587228,-85.65468702
Indiana,Greene,1002,27,53,0,2020-11-23,39.03630547,-86.96223202
Indiana,Hamilton,12459,234,164,1,2020-11-23,40.07306535,-86.05244729
Indiana,Hancock,2437,48,49,0,2020-11-23,39.82304555,-85.77566351
Indiana,Harrison,1376,30,24,0,2020-11-23,38.19467379,-86.10948271
Indiana,Hendricks,5807,88,154,0,2020-11-23,39.76719009,-86.51037283
Indiana,Henry,2371,30,36,0,2020-11-23,39.93029017,-85.39625719
Indiana,Howard,3255,42,75,0,2020-11-23,40.48527731,-86.11351892
Indiana,Huntington,1223,71,10,0,2020-11-23,40.82907273,-85.48822092
Indiana,Jackson,2060,60,33,0,2020-11-23,38.90915820000001,-86.03851889
Indiana,Jasper,1383,34,11,0,2020-11-23,41.02078733,-87.11553319
Indiana,Jay,950,20,12,0,2020-11-23,40.43781032,-85.00576229
Indiana,Jefferson,1142,39,14,0,2020-11-23,38.78576239,-85.43633383
Indiana,Jennings,805,14,14,0,2020-11-23,38.99588883,-85.62710784
Indiana,Johnson,6139,168,164,3,2020-11-23,39.48994426,-86.10149107
Indiana,Knox,1780,73,17,2,2020-11-23,38.68861576,-87.4194665
Indiana,Kosciusko,4461,88,39,0,2020-11-23,41.24521668,-85.86312322
Indiana,LaGrange,1366,15,29,2,2020-11-23,41.64232188,-85.42674232
Indiana,Lake,26364,500,448,0,2020-11-23,41.41874274,-87.38277575
Indiana,LaPorte,4468,101,94,2,2020-11-23,41.54366008,-86.74072188
Indiana,Lawrence,1716,24,46,0,2020-11-23,38.84112637,-86.48361629
Indiana,Madison,4760,109,119,0,2020-11-23,40.16143691,-85.71964711
Indiana,Marion,41330,534,845,1,2020-11-23,39.78163624,-86.13826325
Indiana,Marshall,2899,63,44,2,2020-11-23,41.32467367,-86.26185087
Indiana,Martin,348,6,5,0,2020-11-23,38.7099921,-86.80373186
Indiana,Miami,1551,47,14,0,2020-11-23,40.76940965,-86.04525048
Indiana,Monroe,5252,54,47,1,2020-11-23,39.16130004,-86.52414358
Indiana,Montgomery,1312,33,26,0,2020-11-23,40.04034823,-86.89335024
Indiana,Morgan,2006,46,43,0,2020-11-23,39.47899078,-86.44573375
Indiana,Newton,540,6,12,0,2020-11-23,40.95610449,-87.39635768
Indiana,Noble,2468,26,46,0,2020-11-23,41.39672484,-85.41966713
Indiana,Ohio,225,3,7,0,2020-11-23,38.955305,-84.96515993
Indiana,Orange,657,9,28,0,2020-11-23,38.54118920000001,-86.49523093
Indiana,Owen,581,14,6,0,2020-11-23,39.31145587,-86.83900724
Indiana,Parke,541,12,6,0,2020-11-23,39.77202286,-87.20375833
Indiana,Perry,809,4,21,0,2020-11-23,38.07809328,-86.63741946
Indiana,Pike,502,6,18,0,2020-11-23,38.40112197,-87.23574907
Indiana,Porter,7912,211,79,3,2020-11-23,41.45986947,-87.06848888
Indiana,Posey,1189,23,13,0,2020-11-23,38.02097333,-87.86480429
Indiana,Pulaski,368,4,10,0,2020-11-23,41.04166107,-86.69890683
Indiana,Putnam,1183,27,26,0,2020-11-23,39.66437981,-86.84517605
Indiana,Randolph,1178,32,19,0,2020-11-23,40.15734772,-85.01139319
Indiana,Ripley,1237,23,14,0,2020-11-23,39.10235626,-85.26212744
Indiana,Rush,521,21,6,0,2020-11-23,39.62002287,-85.4655599
Indiana,St. Joseph,16319,194,220,3,2020-11-23,41.61756781,-86.29040834
Indiana,Scott,998,19,18,0,2020-11-23,38.68672078,-85.74627859
Indiana,Shelby,1745,41,54,1,2020-11-23,39.52305623,-85.79158570000001
Indiana,Spencer,804,9,7,0,2020-11-23,38.01519732,-87.0079644
Indiana,Starke,892,22,21,0,2020-11-23,41.27890281,-86.64686895
Indiana,Steuben,1411,14,13,0,2020-11-23,41.64423868,-85.00101094
Indiana,Sullivan,866,11,15,0,2020-11-23,39.08952258,-87.41414469
Indiana,Switzerland,247,2,3,0,2020-11-23,38.82767338,-85.03022429
Indiana,Tippecanoe,8267,191,27,0,2020-11-23,40.38872739,-86.89413959
Indiana,Tipton,537,9,26,0,2020-11-23,40.31123252,-86.05234925
Indiana,Union,262,7,1,0,2020-11-23,39.62550777,-84.92497066
Indiana,Vanderburgh,9428,210,112,0,2020-11-23,38.02658833,-87.58763124
Indiana,Vermillion,583,17,2,0,2020-11-23,39.8523352,-87.46160542
Indiana,Vigo,5744,112,74,0,2020-11-23,39.42944561,-87.39169027
Indiana,Wabash,1530,49,18,0,2020-11-23,40.84704239,-85.79328272
Indiana,Warren,235,8,2,0,2020-11-23,40.34728141,-87.35602659
Indiana,Warrick,3160,70,72,0,2020-11-23,38.08922676,-87.2716085
Indiana,Washington,717,21,6,0,2020-11-23,38.60219804,-86.1049363
Indiana,Wayne,2952,30,61,0,2020-11-23,39.8633444,-85.01044989
Indiana,Wells,1183,29,27,0,2020-11-23,40.72934187,-85.22132966
Indiana,White,1174,22,21,0,2020-11-23,40.74911165,-86.86492015
Indiana,Whitley,1299,25,10,0,2020-11-23,41.13863784,-85.50791236
Iowa,Adair,415,9,7,1,2020-11-23,41.33075609,-94.47105874
Iowa,Adams,155,3,1,0,2020-11-23,41.02903567,-94.69932645
Iowa,Allamakee,724,13,11,0,2020-11-23,43.28383218,-91.37860922
Iowa,Appanoose,742,9,6,0,2020-11-23,40.74324454,-92.86865906
Iowa,Audubon,283,2,1,0,2020-11-23,41.6844628,-94.90581859
Iowa,Benton,1603,29,15,1,2020-11-23,42.08011739,-92.06463573
Iowa,Black Hawk,10393,184,127,1,2020-11-23,42.4704581,-92.30524729
Iowa,Boone,1288,11,11,0,2020-11-23,42.03657094,-93.9313999
Iowa,Bremer,1826,66,12,0,2020-11-23,42.77461496,-92.31795937
Iowa,Buchanan,1100,22,9,0,2020-11-23,42.4709188,-91.83510825
Iowa,Buena Vista,2911,9,14,0,2020-11-23,42.73545875,-95.15100162
Iowa,Butler,913,19,4,1,2020-11-23,42.73172833,-92.79015971
Iowa,Calhoun,1004,26,7,0,2020-11-23,42.38521079,-94.64046046
Iowa,Carroll,1909,27,20,0,2020-11-23,42.03617207,-94.86032705
Iowa,Cass,754,19,19,0,2020-11-23,41.33149454,-94.92792482
Iowa,Cedar,1014,25,13,0,2020-11-23,41.77233777,-91.13246684
Iowa,Cerro Gordo,3265,35,41,0,2020-11-23,43.08177563,-93.2612239
Iowa,Cherokee,762,14,4,0,2020-11-23,42.73538914,-95.62389402
Iowa,Chickasaw,789,4,3,0,2020-11-23,43.06001295,-92.31773347
Iowa,Clarke,461,5,4,0,2020-11-23,41.02868181,-93.78499767
Iowa,Clay,1062,19,4,0,2020-11-23,43.08247182,-95.15096481
Iowa,Clayton,1023,15,4,0,2020-11-23,42.84443388,-91.34133693
Iowa,Clinton,3077,41,37,0,2020-11-23,41.89981633,-90.53275096
Iowa,Crawford,1706,24,15,0,2020-11-23,42.03718237,-95.3819718
Iowa,Dallas,6028,73,56,1,2020-11-23,41.68560356,-94.04127625
Iowa,Davis,440,18,5,0,2020-11-23,40.74773536,-92.41005468
Iowa,Decatur,300,5,0,0,2020-11-23,40.73742757,-93.78645949
Iowa,Delaware,1362,15,21,0,2020-11-23,42.47104597,-91.3664492
Iowa,Des Moines,2701,40,16,0,2020-11-23,40.92012606,-91.18326592
Iowa,Dickinson,1275,13,10,0,2020-11-23,43.37787725,-95.1510206
Iowa,Dubuque,8792,128,90,0,2020-11-23,42.46815349,-90.88181925
Iowa,Emmet,706,5,23,0,2020-11-23,43.37782951,-94.67858943
Iowa,Fayette,976,18,8,0,2020-11-23,42.86271799,-91.8441231
Iowa,Floyd,969,43,14,0,2020-11-23,43.06000529999999,-92.78940097
Iowa,Franklin,684,8,19,0,2020-11-23,42.73270384,-93.26256925
Iowa,Fremont,346,3,3,1,2020-11-23,40.74542720000001,-95.60129045
Iowa,Greene,498,12,0,0,2020-11-23,42.03614551,-94.39658081
Iowa,Grundy,797,24,10,0,2020-11-23,42.40183723,-92.78829551
Iowa,Guthrie,708,16,15,0,2020-11-23,41.68378965,-94.50111014
Iowa,Hamilton,1015,28,7,0,2020-11-23,42.38382428,-93.70197703
Iowa,Hancock,806,12,7,0,2020-11-23,43.08178477,-93.73454884
Iowa,Hardin,1075,17,10,0,2020-11-23,42.38353877,-93.23654611
Iowa,Harrison,1023,9,28,0,2020-11-23,41.68330137,-95.81558439
Iowa,Henry,1708,24,7,0,2020-11-23,40.98767962,-91.54436349
Iowa,Howard,506,7,9,0,2020-11-23,43.35671042,-92.31702714
Iowa,Humboldt,664,15,5,0,2020-11-23,42.7764426,-94.20722537
Iowa,Ida,439,11,10,0,2020-11-23,42.38696136,-95.51355387
Iowa,Iowa,880,13,11,0,2020-11-23,41.68630265,-92.0643373
Iowa,Jackson,1375,15,8,0,2020-11-23,42.17178824,-90.57354837
Iowa,Jasper,2066,39,39,0,2020-11-23,41.68576082,-93.05567785
Iowa,Jefferson,635,23,1,0,2020-11-23,41.03192394,-91.94849466
Iowa,Johnson,9116,108,35,0,2020-11-23,41.67169354,-91.58754744
Iowa,Jones,2222,11,12,0,2020-11-23,42.12118609,-91.13139641
Iowa,Keokuk,539,16,7,0,2020-11-23,41.33649833,-92.1785067
Iowa,Kossuth,946,25,4,0,2020-11-23,43.20405458,-94.20691791
Iowa,Lee,1903,23,15,0,2020-11-23,40.64181461,-91.48183025
Iowa,Linn,13442,190,161,3,2020-11-23,42.07923082,-91.59809485
Iowa,Louisa,813,14,16,0,2020-11-23,41.21842119,-91.26102611
Iowa,Lucas,307,2,6,0,2020-11-23,41.02958964,-93.32780803
Iowa,Lyon,966,21,8,0,2020-11-23,43.38107862,-96.20926845
Iowa,Madison,647,6,4,0,2020-11-23,41.33081904,-94.01554631
Iowa,Mahaska,1213,23,27,0,2020-11-23,41.33521503,-92.64083907
Iowa,Marion,1944,29,18,0,2020-11-23,41.33445101,-93.09934783
Iowa,Marshall,3329,51,42,1,2020-11-23,42.03586837,-92.9990819
Iowa,Mills,988,8,6,0,2020-11-23,41.03299766,-95.61920963
Iowa,Mitchell,718,11,4,0,2020-11-23,43.35638371,-92.78887719
Iowa,Monona,393,2,2,0,2020-11-23,42.05220391,-95.95743843
Iowa,Monroe,429,1,12,0,2020-11-23,41.02988815,-92.8690667
Iowa,Montgomery,432,6,10,0,2020-11-23,41.03018714,-95.15642896
Iowa,Muscatine,2703,34,66,2,2020-11-23,41.48370744,-91.1121697
Iowa,O'Brien,1189,7,29,0,2020-11-23,43.08310673,-95.62474482
Iowa,Osceola,494,0,1,0,2020-11-23,43.37824276,-95.62422844
Iowa,Page,1083,6,4,0,2020-11-23,40.7393172,-95.1497813
Iowa,Palo Alto,606,2,4,0,2020-11-23,43.08193849,-94.67824621
Iowa,Plymouth,2595,16,37,0,2020-11-23,42.737633,-96.21366621
Iowa,Pocahontas,519,12,2,0,2020-11-23,42.73420133,-94.67862564
Iowa,Polk,31707,437,324,2,2020-11-23,41.68679484,-93.57767461
Iowa,Pottawattamie,5851,105,66,0,2020-11-23,41.33640314,-95.53907776
Iowa,Poweshiek,937,22,12,0,2020-11-23,41.68625425,-92.53155731
Iowa,Ringgold,189,6,2,0,2020-11-23,40.73518949,-94.24368535
Iowa,Sac,781,20,7,0,2020-11-23,42.38624071,-95.10547892
Iowa,Scott,10403,183,75,0,2020-11-23,41.63935978,-90.61959493
Iowa,Shelby,726,8,5,1,2020-11-23,41.6850066,-95.31015553
Iowa,Sioux,3519,20,25,0,2020-11-23,43.08221074,-96.1767568
Iowa,Story,6476,98,19,0,2020-11-23,42.03621213,-93.46499005
Iowa,Tama,1463,12,40,0,2020-11-23,42.07991767,-92.53266945
Iowa,Taylor,431,15,2,0,2020-11-23,40.73710579,-94.69778563
Iowa,Union,709,23,6,0,2020-11-23,41.0277278,-94.24234847
Iowa,Van Buren,336,7,4,0,2020-11-23,40.75326764,-91.95017958
Iowa,Wapello,2428,29,71,0,2020-11-23,41.03064984,-92.40954728
Iowa,Warren,2585,39,10,0,2020-11-23,41.33559454,-93.56007641
Iowa,Washington,1313,48,13,0,2020-11-23,41.33577126,-91.71725711
Iowa,Wayne,287,4,6,0,2020-11-23,40.73969028,-93.32752197
Iowa,Webster,3359,50,30,2,2020-11-23,42.42853483,-94.17987389
Iowa,Winnebago,875,1,23,0,2020-11-23,43.37751174,-93.73407298
Iowa,Winneshiek,903,14,10,0,2020-11-23,43.29094334,-91.84422722
Iowa,Woodbury,9932,62,114,3,2020-11-23,42.38979414,-96.0459439
Iowa,Worth,336,3,0,0,2020-11-23,43.37750768,-93.26087602
Iowa,Wright,1162,20,5,0,2020-11-23,42.73305373,-93.73515113
Kansas,Allen,313,15,1,0,2020-11-23,37.88582951,-95.30030847
Kansas,Anderson,360,17,0,0,2020-11-23,38.21413251,-95.29272815
Kansas,Atchison,799,22,9,0,2020-11-23,39.53185661,-95.30870026
Kansas,Barber,182,11,0,0,2020-11-23,37.2288586,-98.68460053
Kansas,Barton,1530,75,13,0,2020-11-23,38.47889676,-98.75636726
Kansas,Bourbon,495,32,3,0,2020-11-23,37.85508555,-94.84865997
Kansas,Brown,660,54,7,0,2020-11-23,39.82652589,-95.56421698
Kansas,Butler,3011,221,8,0,2020-11-23,37.78134351,-96.83878537
Kansas,Chase,151,6,3,0,2020-11-23,38.30292938,-96.59563862
Kansas,Chautauqua,71,8,0,0,2020-11-23,37.14994405,-96.2454192
Kansas,Cherokee,1070,28,8,0,2020-11-23,37.16928494,-94.8462897
Kansas,Cheyenne,202,3,9,1,2020-11-23,39.78580976,-101.7318201
Kansas,Clark,109,9,4,0,2020-11-23,37.23577007,-99.81883015
Kansas,Clay,419,9,9,0,2020-11-23,39.34948772,-97.16518128
Kansas,Cloud,556,58,4,0,2020-11-23,39.48028352,-97.64925343
Kansas,Coffey,284,11,9,0,2020-11-23,38.2365018,-95.73379515
Kansas,Comanche,47,3,0,0,2020-11-23,37.19114520000001,-99.27113247
Kansas,Cowley,1384,117,10,0,2020-11-23,37.23781842,-96.83776647
Kansas,Crawford,2175,72,17,0,2020-11-23,37.50675523,-94.85245778
Kansas,Decatur,194,5,1,0,2020-11-23,39.78468441,-100.4594081
Kansas,Dickinson,671,26,9,1,2020-11-23,38.86600962,-97.15532383
Kansas,Doniphan,434,43,2,0,2020-11-23,39.79067154,-95.14056866
Kansas,Douglas,4448,222,22,2,2020-11-23,38.88503636,-95.2925121
Kansas,Edwards,162,6,0,0,2020-11-23,37.88735543,-99.31263309
Kansas,Elk,47,5,0,0,2020-11-23,37.45338105,-96.24369667
Kansas,Ellis,2212,83,23,0,2020-11-23,38.91458712,-99.31751551
Kansas,Ellsworth,607,68,4,0,2020-11-23,38.69677695,-98.20462799
Kansas,Finney,4488,75,23,0,2020-11-23,38.04340344,-100.7381938
Kansas,Ford,4496,75,13,0,2020-11-23,37.69200114,-99.88825298
Kansas,Franklin,1020,73,15,1,2020-11-23,38.56443815,-95.28644341
Kansas,Geary,838,65,5,0,2020-11-23,38.99871131,-96.7577178
Kansas,Gove,278,6,19,0,2020-11-23,38.91588178,-100.4829321
Kansas,Graham,136,11,2,0,2020-11-23,39.34987223,-99.88332493
Kansas,Grant,665,0,10,0,2020-11-23,37.56227336,-101.3079758
Kansas,Gray,383,0,4,0,2020-11-23,37.73836671,-100.4369088
Kansas,Greeley,83,0,0,0,2020-11-23,38.4808095,-101.8061079
Kansas,Greenwood,197,36,1,0,2020-11-23,37.8774388,-96.23250453
Kansas,Hamilton,141,13,0,0,2020-11-23,37.99978709,-101.7921066
Kansas,Harper,297,22,8,0,2020-11-23,37.19175361,-98.07578384
Kansas,Harvey,1643,90,9,0,2020-11-23,38.04293782,-97.42747573
Kansas,Haskell,243,8,1,0,2020-11-23,37.5620394,-100.8710738
Kansas,Hodgeman,130,6,0,0,2020-11-23,38.08780079,-99.89829881
Kansas,Jackson,629,56,4,0,2020-11-23,39.41673394,-95.79356799
Kansas,Jefferson,647,46,7,1,2020-11-23,39.2347941,-95.38289232
Kansas,Jewell,60,9,1,0,2020-11-23,39.78470589,-98.21820662
Kansas,Johnson,25025,1134,271,0,2020-11-23,38.88548175,-94.82250877
Kansas,Kearny,562,258,8,0,2020-11-23,38.00017981,-101.321681
Kansas,Kingman,324,22,4,0,2020-11-23,37.55909527,-98.13638678
Kansas,Kiowa,103,3,0,0,2020-11-23,37.55848695,-99.2856537
Kansas,Labette,785,51,6,0,2020-11-23,37.19113093,-95.29849679
Kansas,Lane,71,4,0,0,2020-11-23,38.48119447,-100.4660754
Kansas,Leavenworth,3503,95,29,2,2020-11-23,39.20183497,-95.03620809
Kansas,Lincoln,63,11,1,0,2020-11-23,39.04549684,-98.20756994
Kansas,Linn,258,10,1,0,2020-11-23,38.21267844,-94.84254089
Kansas,Logan,214,7,0,0,2020-11-23,38.91735806,-101.148475
Kansas,Lyon,2407,177,46,1,2020-11-23,38.45576156,-96.15275715
Kansas,McPherson,1249,1,9,0,2020-11-23,38.39184858,-97.64769869
Kansas,Marion,388,15,1,0,2020-11-23,38.35855394,-97.0985251
Kansas,Marshall,381,19,0,0,2020-11-23,39.78359669,-96.52278974
Kansas,Meade,285,5,2,0,2020-11-23,37.23859987,-100.364831
Kansas,Miami,923,57,2,0,2020-11-23,38.56383358,-94.83832189
Kansas,Mitchell,198,19,0,0,2020-11-23,39.39331582,-98.20906732
Kansas,Montgomery,1029,60,6,0,2020-11-23,37.19236568,-95.74329258
Kansas,Morris,151,6,1,0,2020-11-23,38.68827511,-96.65128437
Kansas,Morton,137,0,4,0,2020-11-23,37.19141121,-101.79925190000002
Kansas,Nemaha,926,53,6,0,2020-11-23,39.78345387,-96.01392079
Kansas,Neosho,612,20,0,0,2020-11-23,37.55862897,-95.30670046
Kansas,Ness,248,17,10,0,2020-11-23,38.47974157,-99.91547333
Kansas,Norton,1053,13,21,0,2020-11-23,39.78443827,-99.90286639
Kansas,Osage,470,45,6,0,2020-11-23,38.65235984,-95.72707998
Kansas,Osborne,71,5,0,0,2020-11-23,39.3503437,-98.76753828
Kansas,Ottawa,211,19,0,0,2020-11-23,39.13237408,-97.65020313
Kansas,Pawnee,610,19,1,0,2020-11-23,38.18108732,-99.23692334
Kansas,Phillips,373,17,10,0,2020-11-23,39.78465501,-99.34668865
Kansas,Pottawatomie,649,36,2,0,2020-11-23,39.37925655,-96.34564657
Kansas,Pratt,455,18,4,1,2020-11-23,37.64780729,-98.73922153
Kansas,Rawlins,199,39,2,0,2020-11-23,39.78525843,-101.0761617
Kansas,Reno,4356,231,44,1,2020-11-23,37.95230263,-98.08607292
Kansas,Republic,268,24,3,0,2020-11-23,39.82799632,-97.65036709
Kansas,Rice,376,43,1,0,2020-11-23,38.34616184,-98.19992118
Kansas,Riley,3428,271,14,0,2020-11-23,39.28935726,-96.73420026
Kansas,Rooks,339,55,7,0,2020-11-23,39.35022773,-99.32484567
Kansas,Rush,203,22,0,0,2020-11-23,38.52275276,-99.30863983
Kansas,Russell,499,39,12,0,2020-11-23,38.91462787,-98.76254297
Kansas,Saline,2146,144,17,0,2020-11-23,38.78369175,-97.65185177
Kansas,Scott,339,14,3,0,2020-11-23,38.48222076,-100.9066539
Kansas,Sedgwick,25157,1681,149,0,2020-11-23,37.6842718,-97.4608198
Kansas,Seward,2694,0,13,0,2020-11-23,37.19324632,-100.8507201
Kansas,Shawnee,6862,481,115,7,2020-11-23,39.04100763,-95.7557264
Kansas,Sheridan,298,10,0,0,2020-11-23,39.35018161,-100.4418259
Kansas,Sherman,407,13,7,0,2020-11-23,39.35147699,-101.7197624
Kansas,Smith,122,14,1,0,2020-11-23,39.78516566,-98.78566062
Kansas,Stafford,184,7,1,0,2020-11-23,38.03100851,-98.71762001
Kansas,Stanton,132,0,2,0,2020-11-23,37.56304714,-101.7843534
Kansas,Stevens,419,24,3,1,2020-11-23,37.1923008,-101.3118967
Kansas,Sumner,695,37,6,0,2020-11-23,37.23682549,-97.47721621
Kansas,Thomas,659,37,6,0,2020-11-23,39.35107575,-101.0553705
Kansas,Trego,208,16,3,0,2020-11-23,38.91467218,-99.87284448
Kansas,Wabaunsee,293,15,2,1,2020-11-23,38.95471985,-96.20350509
Kansas,Wallace,135,2,0,0,2020-11-23,38.91686134,-101.7638876
Kansas,Washington,286,22,5,0,2020-11-23,39.78420784,-97.0875323
Kansas,Wichita,138,14,2,1,2020-11-23,38.48178252,-101.3471509
Kansas,Wilson,268,26,4,0,2020-11-23,37.55937174,-95.74323255
Kansas,Woodson,57,1,0,0,2020-11-23,37.8865336,-95.74006277
Kansas,Wyandotte,10924,389,178,1,2020-11-23,39.11727348,-94.76378225
Kentucky,Adair,687,1,23,0,2020-11-23,37.10459774,-85.28129668
Kentucky,Allen,671,3,13,0,2020-11-23,36.75197631,-86.19457544
Kentucky,Anderson,451,1,1,0,2020-11-23,38.00671029,-84.99171713
Kentucky,Ballard,133,2,2,0,2020-11-23,37.05842757,-88.99427697
Kentucky,Barren,1846,21,25,0,2020-11-23,36.96469836,-85.93338945
Kentucky,Bath,235,4,1,0,2020-11-23,38.14735938,-83.74588932
Kentucky,Bell,1172,13,18,0,2020-11-23,36.73355174,-83.67766671
Kentucky,Boone,4088,86,28,0,2020-11-23,38.97065142,-84.72615357
Kentucky,Bourbon,496,6,1,0,2020-11-23,38.2054607,-84.21827874
Kentucky,Boyd,1500,21,24,0,2020-11-23,38.36176608,-82.68652187
Kentucky,Boyle,844,12,0,0,2020-11-23,37.62680923,-84.8633779
Kentucky,Bracken,128,6,3,0,2020-11-23,38.69158994,-84.08532444
Kentucky,Breathitt,309,15,3,0,2020-11-23,37.52333168,-83.31959161
Kentucky,Breckinridge,420,2,4,0,2020-11-23,37.77377239,-86.42885017
Kentucky,Bullitt,2575,25,22,0,2020-11-23,37.97162523,-85.68955617
Kentucky,Butler,514,8,16,0,2020-11-23,37.20946153,-86.68748787
Kentucky,Caldwell,507,16,1,0,2020-11-23,37.14749129,-87.86948214
Kentucky,Calloway,1578,24,13,0,2020-11-23,36.62093411,-88.2731593
Kentucky,Campbell,2553,38,20,0,2020-11-23,38.94384345,-84.37875208
Kentucky,Carlisle,184,3,1,0,2020-11-23,36.85372876,-88.96692220000001
Kentucky,Carroll,313,4,6,0,2020-11-23,38.66599534,-85.12601074
Kentucky,Carter,638,12,5,0,2020-11-23,38.31690743,-83.05092385
Kentucky,Casey,468,10,16,0,2020-11-23,37.32533118,-84.92726209
Kentucky,Christian,2725,9,37,0,2020-11-23,36.89267803,-87.49055367
Kentucky,Clark,811,6,12,0,2020-11-23,37.9689263,-84.14615986
Kentucky,Clay,936,1,8,0,2020-11-23,37.16451126,-83.712575
Kentucky,Clinton,360,3,4,0,2020-11-23,36.72581156,-85.13377529
Kentucky,Crittenden,220,0,1,0,2020-11-23,37.35839237,-88.08826090000002
Kentucky,Cumberland,208,1,0,0,2020-11-23,36.78926125,-85.39050034
Kentucky,Daviess,3098,27,42,0,2020-11-23,37.73028906,-87.09019479999998
Kentucky,Edmonson,341,5,12,0,2020-11-23,37.21218923,-86.23955613
Kentucky,Elliott,562,0,0,0,2020-11-23,38.11624059,-83.09771563
Kentucky,Estill,421,5,0,0,2020-11-23,37.69241417,-83.95956369
Kentucky,Fayette,15798,258,105,1,2020-11-23,38.0368225,-84.45576892
Kentucky,Fleming,304,2,0,0,2020-11-23,38.36758311,-83.69657514
Kentucky,Floyd,1071,19,5,0,2020-11-23,37.56213922,-82.74750924
Kentucky,Franklin,1279,23,14,0,2020-11-23,38.2379395,-84.87962551
Kentucky,Fulton,280,4,3,0,2020-11-23,36.55238827,-89.20140068
Kentucky,Gallatin,187,0,9,0,2020-11-23,38.75398691,-84.8558382
Kentucky,Garrard,520,9,4,0,2020-11-23,37.6388668,-84.53289319
Kentucky,Grant,563,6,6,0,2020-11-23,38.64962758,-84.62415957
Kentucky,Graves,1599,26,34,0,2020-11-23,36.72292505,-88.65143315
Kentucky,Grayson,860,17,19,0,2020-11-23,37.46231118,-86.34248968
Kentucky,Green,461,1,10,0,2020-11-23,37.26484328,-85.5540745
Kentucky,Greenup,1181,33,12,0,2020-11-23,38.54332505,-82.9215658
Kentucky,Hancock,281,5,8,0,2020-11-23,37.83766422,-86.78280584
Kentucky,Hardin,3773,7,27,0,2020-11-23,37.6976111,-85.96319251
Kentucky,Harlan,828,10,16,1,2020-11-23,36.85699301,-83.21899516
Kentucky,Harrison,418,8,1,0,2020-11-23,38.44188174,-84.32869741
Kentucky,Hart,696,6,3,0,2020-11-23,37.29943898,-85.88461055
Kentucky,Henderson,1891,19,33,0,2020-11-23,37.79344553,-87.57392021
Kentucky,Henry,455,4,3,0,2020-11-23,38.44942688,-85.11587507
Kentucky,Hickman,142,0,1,0,2020-11-23,36.67948079999999,-88.97875928
Kentucky,Hopkins,1657,12,45,0,2020-11-23,37.30939025,-87.54670406
Kentucky,Jackson,626,4,17,0,2020-11-23,37.41866422,-83.99825483
Kentucky,Jefferson,33598,443,430,0,2020-11-23,38.18664655,-85.65931031
Kentucky,Jessamine,1587,33,29,0,2020-11-23,37.87119786,-84.58252003
Kentucky,Johnson,669,5,3,0,2020-11-23,37.85106355,-82.8264322
Kentucky,Kenton,4839,76,57,0,2020-11-23,38.93950319,-84.53241199
Kentucky,Knott,524,6,9,0,2020-11-23,37.35388197,-82.94981134
Kentucky,Knox,1135,5,10,0,2020-11-23,36.89225732,-83.85403396
Kentucky,Larue,506,0,1,0,2020-11-23,37.54567114,-85.70138352
Kentucky,Laurel,2246,13,11,0,2020-11-23,37.10975748,-84.11321779
Kentucky,Lawrence,349,4,1,0,2020-11-23,38.07136018,-82.72882223
Kentucky,Lee,854,4,13,0,2020-11-23,37.59645942,-83.71513901
Kentucky,Leslie,217,10,1,0,2020-11-23,37.09246661,-83.37999606
Kentucky,Letcher,477,10,2,0,2020-11-23,37.12306748,-82.85346474
Kentucky,Lewis,451,2,19,0,2020-11-23,38.53184419,-83.37735618
Kentucky,Lincoln,577,10,20,0,2020-11-23,37.45475628,-84.6565327
Kentucky,Livingston,248,2,2,0,2020-11-23,37.21137452,-88.34797529
Kentucky,Logan,1149,19,33,0,2020-11-23,36.85949479,-86.877635
Kentucky,Lyon,178,1,5,0,2020-11-23,37.02080035,-88.07886257
Kentucky,McCracken,2377,69,19,2,2020-11-23,37.05350953,-88.70445755
Kentucky,McCreary,356,11,1,0,2020-11-23,36.73874143,-84.48102924
Kentucky,McLean,357,3,13,0,2020-11-23,37.5301951,-87.26803443
Kentucky,Madison,3497,115,18,0,2020-11-23,37.71659336,-84.27220275
Kentucky,Magoffin,393,17,1,0,2020-11-23,37.70820545,-83.0657714
Kentucky,Marion,877,8,12,0,2020-11-23,37.55218078,-85.26898542
Kentucky,Marshall,853,7,11,0,2020-11-23,36.88007070000001,-88.32803576
Kentucky,Martin,365,0,5,0,2020-11-23,37.79990579,-82.51247478
Kentucky,Mason,358,5,2,0,2020-11-23,38.59471935,-83.82151043
Kentucky,Meade,621,2,4,0,2020-11-23,37.96163597,-86.21028219
Kentucky,Menifee,114,1,1,0,2020-11-23,37.94090733,-83.59985712
Kentucky,Mercer,603,12,6,0,2020-11-23,37.81474237,-84.87488475
Kentucky,Metcalfe,355,2,2,0,2020-11-23,36.99459295,-85.63123699
Kentucky,Monroe,664,2,9,0,2020-11-23,36.71225341,-85.71596443
Kentucky,Montgomery,839,22,8,0,2020-11-23,38.03253032,-83.9145241
Kentucky,Morgan,287,11,0,0,2020-11-23,37.92465657,-83.25558245
Kentucky,Muhlenberg,1289,14,19,0,2020-11-23,37.21425819,-87.14632053
Kentucky,Nelson,1937,8,6,0,2020-11-23,37.80335779,-85.4657193
Kentucky,Nicholas,156,4,3,0,2020-11-23,38.33342292,-84.01889177
Kentucky,Ohio,852,2,15,0,2020-11-23,37.47751843,-86.85368087
Kentucky,Oldham,2197,38,30,0,2020-11-23,38.39791089,-85.448222
Kentucky,Owen,173,1,3,0,2020-11-23,38.51679143,-84.82404619
Kentucky,Owsley,191,13,1,0,2020-11-23,37.42823949,-83.68811419
Kentucky,Pendleton,310,9,1,0,2020-11-23,38.69607718,-84.35599463
Kentucky,Perry,875,5,10,0,2020-11-23,37.25023553,-83.22922731
Kentucky,Pike,1647,7,17,0,2020-11-23,37.47088263,-82.39487445
Kentucky,Powell,452,22,0,0,2020-11-23,37.83218794,-83.82553961
Kentucky,Pulaski,1430,18,13,0,2020-11-23,37.10466131,-84.57629079
Kentucky,Robertson,74,5,2,0,2020-11-23,38.51923469,-84.05055616
Kentucky,Rockcastle,470,4,6,0,2020-11-23,37.36642393,-84.31176452
Kentucky,Rowan,676,7,2,0,2020-11-23,38.19484205,-83.42088935
Kentucky,Russell,530,11,7,0,2020-11-23,36.99308373,-85.06070117
Kentucky,Scott,1576,17,20,0,2020-11-23,38.29622293,-84.5816631
Kentucky,Shelby,2060,20,25,0,2020-11-23,38.21476019,-85.194223
Kentucky,Simpson,570,14,8,0,2020-11-23,36.74058474,-86.58047435
Kentucky,Spencer,563,9,1,0,2020-11-23,38.03223971,-85.32749335
Kentucky,Taylor,833,10,7,0,2020-11-23,37.3677562,-85.3329931
Kentucky,Todd,384,2,13,0,2020-11-23,36.8381152,-87.17878374
Kentucky,Trigg,361,0,1,0,2020-11-23,36.80767017,-87.87333656
Kentucky,Trimble,148,2,0,0,2020-11-23,38.61056487,-85.33775972
Kentucky,Union,691,5,6,0,2020-11-23,37.66166713,-87.94300009
Kentucky,Warren,6753,50,61,0,2020-11-23,36.99903045,-86.42672751
Kentucky,Washington,454,5,3,0,2020-11-23,37.75599461,-85.17407732
Kentucky,Wayne,462,6,2,0,2020-11-23,36.80310688,-84.8251971
Kentucky,Webster,526,2,6,1,2020-11-23,37.52168356,-87.67989953
Kentucky,Whitley,1383,21,8,0,2020-11-23,36.75700531,-84.14541217
Kentucky,Wolfe,163,2,1,0,2020-11-23,37.73941626,-83.49303612
Kentucky,Woodford,664,6,0,0,2020-11-23,38.04178222,-84.7417556
Louisiana,Acadia,3761,23,115,0,2020-11-23,30.2950649,-92.41419698
Louisiana,Allen,2067,7,67,0,2020-11-23,30.65385745,-92.82442028
Louisiana,Ascension,5406,18,106,0,2020-11-23,30.20406249,-90.91328409999998
Louisiana,Assumption,984,6,25,0,2020-11-23,29.89946234,-91.06461642
Louisiana,Avoyelles,2018,-1,67,0,2020-11-23,31.07796211,-92.00079449
Louisiana,Beauregard,1320,8,49,0,2020-11-23,30.64836518,-93.34173616
Louisiana,Bienville,740,4,37,0,2020-11-23,32.34569994,-93.05398492
Louisiana,Bossier,5916,16,147,2,2020-11-23,32.67932307,-93.60460152
Louisiana,Caddo,12602,36,440,3,2020-11-23,32.57991587,-93.88375652
Louisiana,Calcasieu,10058,26,241,0,2020-11-23,30.22931235,-93.35400434
Louisiana,Caldwell,613,7,7,0,2020-11-23,32.0902519,-92.11752148
Louisiana,Cameron,274,2,3,0,2020-11-23,29.87592238,-93.19310676
Louisiana,Catahoula,599,2,18,0,2020-11-23,31.66778967,-91.84526385
Louisiana,Claiborne,720,4,29,0,2020-11-23,32.82308512,-92.99526883
Louisiana,Concordia,929,2,25,0,2020-11-23,31.44817835,-91.63814433
Louisiana,De Soto,1194,3,38,1,2020-11-23,32.05457447,-93.74130302
Louisiana,East Baton Rouge,19135,104,496,4,2020-11-23,30.53842039,-91.09777565
Louisiana,East Carroll,713,21,9,0,2020-11-23,32.73926954,-91.23425694
Louisiana,East Feliciana,2076,2,84,0,2020-11-23,30.84425359,-91.04976723
Louisiana,Evangeline,1814,4,44,0,2020-11-23,30.72985248,-92.39915924
Louisiana,Franklin,1680,11,61,3,2020-11-23,32.13675181,-91.67589857
Louisiana,Grant,724,24,32,0,2020-11-23,31.59882456,-92.56124347
Louisiana,Iberia,3524,9,104,0,2020-11-23,29.86803617,-91.75871777
Louisiana,Iberville,1849,9,65,0,2020-11-23,30.25734305,-91.3499598
Louisiana,Jackson,1107,-1,26,0,2020-11-23,32.30251776,-92.55692092
Louisiana,Jefferson,21281,91,628,1,2020-11-23,29.74075478,-90.11115756
Louisiana,Jefferson Davis,1647,0,50,1,2020-11-23,30.26896765,-92.81210004
Louisiana,Lafayette,11464,66,145,0,2020-11-23,30.2049055,-92.06959876
Louisiana,Lafourche,4521,14,136,0,2020-11-23,29.52470226,-90.40976986
Louisiana,LaSalle,838,2,20,0,2020-11-23,31.67884782,-92.15907765
Louisiana,Lincoln,2368,9,55,0,2020-11-23,32.6003154,-92.6659741
Louisiana,Livingston,5584,22,89,1,2020-11-23,30.44143993,-90.73061664
Louisiana,Madison,1029,3,13,0,2020-11-23,32.36918118,-91.23973355
Louisiana,Morehouse,1288,24,30,0,2020-11-23,32.81686191,-91.80421614
Louisiana,Natchitoches,1968,13,42,1,2020-11-23,31.72321584,-93.09816516
Louisiana,Orleans,15174,53,645,1,2020-11-23,30.06971951,-89.92660315
Louisiana,Ouachita,9515,52,203,0,2020-11-23,32.47645559,-92.15704172
Louisiana,Plaquemines,1071,1,19,0,2020-11-23,29.42245447,-89.60322085
Louisiana,Pointe Coupee,1337,4,49,0,2020-11-23,30.71409502,-91.60209535
Louisiana,Rapides,6019,23,187,2,2020-11-23,31.19778499,-92.52997303
Louisiana,Red River,557,7,26,0,2020-11-23,32.09530039,-93.34213308
Louisiana,Richland,1354,13,26,1,2020-11-23,32.41391005,-91.76634876
Louisiana,Sabine,1353,6,19,0,2020-11-23,31.56388699,-93.55433981
Louisiana,St. Bernard,1745,14,34,0,2020-11-23,29.87761636,-89.51887093
Louisiana,St. Charles,2445,22,70,0,2020-11-23,29.90709658,-90.35555967
Louisiana,St. Helena,502,1,4,0,2020-11-23,30.82210324,-90.71013176
Louisiana,St. James,951,4,40,0,2020-11-23,30.02531716,-90.80212061
Louisiana,St. John the Baptist,1903,11,114,0,2020-11-23,30.12597499,-90.4753503
Louisiana,St. Landry,4765,18,146,0,2020-11-23,30.59724262,-92.00135806
Louisiana,St. Martin,2580,-10,70,0,2020-11-23,30.13112107,-91.61403569
Louisiana,St. Mary,2315,12,94,0,2020-11-23,29.69262097,-91.44702164
Louisiana,St. Tammany,9730,58,289,1,2020-11-23,30.40942847,-89.95642711
Louisiana,Tangipahoa,6274,23,139,0,2020-11-23,30.62888673,-90.40664996
Louisiana,Tensas,206,0,3,0,2020-11-23,32.00760749,-91.32915234
Louisiana,Terrebonne,4362,28,134,0,2020-11-23,29.37343766,-90.82626855
Louisiana,Union,1363,1,56,0,2020-11-23,32.83121059,-92.3749373
Louisiana,Vermilion,2456,1,74,1,2020-11-23,29.83517605,-92.30292538
Louisiana,Vernon,1357,2,61,0,2020-11-23,31.10884837,-93.18153838
Louisiana,Washington,2173,7,76,1,2020-11-23,30.85288548,-90.03866652
Louisiana,Webster,1895,6,50,0,2020-11-23,32.70847669,-93.33121835
Louisiana,West Baton Rouge,1262,2,43,0,2020-11-23,30.46058217,-91.30989571
Louisiana,West Carroll,608,17,20,0,2020-11-23,32.78550125,-91.461201
Louisiana,West Feliciana,775,-4,25,0,2020-11-23,30.87882871,-91.4148538
Louisiana,Winn,927,4,25,0,2020-11-23,31.94449367,-92.63789413
Maine,Androscoggin,1390,20,16,0,2020-11-23,44.1664747,-70.20380627
Maine,Aroostook,95,0,1,0,2020-11-23,46.65926321,-68.59841248
Maine,Cumberland,3599,43,71,0,2020-11-23,43.8370751,-70.37226999
Maine,Franklin,196,2,3,0,2020-11-23,44.97330019,-70.44381045
Maine,Hancock,214,1,1,0,2020-11-23,44.59816444,-68.38401854
Maine,Kennebec,696,28,15,0,2020-11-23,44.40759555,-69.76738544
Maine,Knox,194,6,3,0,2020-11-23,44.11486325,-69.10529169
Maine,Lincoln,139,5,2,1,2020-11-23,44.05996956,-69.54227124
Maine,Oxford,292,7,2,0,2020-11-23,44.49952995,-70.75682123
Maine,Penobscot,666,17,7,0,2020-11-23,45.40194593,-68.65020455
Maine,Piscataquis,35,0,0,0,2020-11-23,45.83839062,-69.2860223
Maine,Sagadahoc,136,2,0,0,2020-11-23,43.95415864,-69.85074999
Maine,Somerset,409,7,13,0,2020-11-23,45.51229767,-69.95995554
Maine,Waldo,213,3,16,0,2020-11-23,44.4858305,-69.12061935
Maine,Washington,178,0,0,0,2020-11-23,45.01607142,-67.62813524
Maine,York,2089,49,27,0,2020-11-23,43.47808377,-70.71052375
Maryland,Allegany,2493,72,55,3,2020-11-23,39.62357628,-78.69280486
Maryland,Anne Arundel,15587,116,296,2,2020-11-23,39.00670238,-76.60329337
Maryland,Baltimore,27223,256,706,3,2020-11-23,39.45784712,-76.62911955
Maryland,Calvert,1480,12,32,1,2020-11-23,38.53961642,-76.56820632
Maryland,Caroline,878,9,9,0,2020-11-23,38.87172293,-75.82904158
Maryland,Carroll,3052,32,134,0,2020-11-23,39.56453592,-77.02373735
Maryland,Cecil,1890,33,38,0,2020-11-23,39.56647682,-75.94627411
Maryland,Charles,4065,40,104,0,2020-11-23,38.51092331,-76.98580666
Maryland,Dorchester,968,7,15,0,2020-11-23,38.45413522,-76.02752426
Maryland,Frederick,6198,59,146,0,2020-11-23,39.47296601,-77.39999394
Maryland,Garrett,504,8,4,1,2020-11-23,39.52786077,-79.27355126
Maryland,Harford,5537,76,90,0,2020-11-23,39.55010644,-76.30775940000002
Maryland,Howard,7488,90,135,1,2020-11-23,39.25305293,-76.93126208
Maryland,Kent,410,6,26,0,2020-11-23,39.24976208,-76.04741541
Maryland,Montgomery,31389,213,932,1,2020-11-23,39.13676329,-77.20358245
Maryland,Prince George's,38985,286,907,0,2020-11-23,38.83070039,-76.8496441
Maryland,Queen Anne's,1027,17,27,0,2020-11-23,39.06198912,-76.03530977
Maryland,St. Mary's,1949,14,61,0,2020-11-23,38.30058422,-76.60629279999998
Maryland,Somerset,743,1,8,0,2020-11-23,38.1163542,-75.75118623
Maryland,Talbot,761,12,7,0,2020-11-23,38.76618159,-76.10882561
Maryland,Washington,3651,50,60,1,2020-11-23,39.60835778,-77.82002295
Maryland,Wicomico,3172,24,56,1,2020-11-23,38.37301947,-75.62705831
Maryland,Worcester,1415,-8,36,1,2020-11-23,38.21274277,-75.33200012
Maryland,Baltimore,27223,256,706,3,2020-11-23,39.45784712,-76.62911955
Massachusetts,Barnstable,2691,31,190,0,2020-11-23,41.72980578,-70.28854339
Massachusetts,Berkshire,1277,17,52,0,2020-11-23,42.37428441,-73.20524838
Massachusetts,Bristol,18227,209,830,2,2020-11-23,41.79228404,-71.10872211
Massachusetts,Essex,32012,287,1424,0,2020-11-23,42.6687626,-70.94687179
Massachusetts,Franklin,592,4,75,0,2020-11-23,42.58119713,-72.58602547
Massachusetts,Hampden,14582,178,884,1,2020-11-23,42.13440424,-72.63235561
Massachusetts,Hampshire,2119,14,161,0,2020-11-23,42.33997957,-72.65898478
Massachusetts,Middlesex,42437,418,2391,6,2020-11-23,42.48607732,-71.39049229
Massachusetts,Norfolk,15006,95,1164,4,2020-11-23,42.16073095,-71.20530408
Massachusetts,Plymouth,13832,86,885,2,2020-11-23,41.94070556,-70.80802823
Massachusetts,Suffolk,35124,254,1227,2,2020-11-23,42.3279514,-71.07850442
Massachusetts,Worcester,22865,195,1239,2,2020-11-23,42.35026951,-71.90493363
Michigan,Alcona,141,14,3,0,2020-11-23,44.6846864,-83.59507875
Michigan,Alger,210,5,2,0,2020-11-23,46.41292944,-86.60260122
Michigan,Allegan,3505,157,21,1,2020-11-23,42.59147037,-85.89102866
Michigan,Alpena,495,43,16,0,2020-11-23,45.03477666,-83.62212411
Michigan,Antrim,345,21,5,0,2020-11-23,44.99690221,-85.15503082
Michigan,Arenac,355,46,11,0,2020-11-23,44.0636262,-83.89277559
Michigan,Baraga,405,18,6,0,2020-11-23,46.6720582,-88.36363591
Michigan,Barry,1812,105,12,0,2020-11-23,42.59513984,-85.30834519
Michigan,Bay,3852,218,83,2,2020-11-23,43.70639106,-83.98731479
Michigan,Benzie,321,26,5,1,2020-11-23,44.63899297,-86.01608482
Michigan,Berrien,5887,323,106,0,2020-11-23,41.95447397,-86.41313079999998
Michigan,Branch,2027,76,27,0,2020-11-23,41.91600556,-85.05929476
Michigan,Calhoun,5476,167,111,0,2020-11-23,42.24633834,-85.00493569
Michigan,Cass,1996,70,28,0,2020-11-23,41.91522292,-85.99405727
Michigan,Charlevoix,482,23,6,0,2020-11-23,45.37790017,-85.19614053
Michigan,Cheboygan,425,36,16,0,2020-11-23,45.44787015,-84.50122149
Michigan,Chippewa,672,23,4,2,2020-11-23,46.29552653,-84.54353449
Michigan,Clare,656,32,22,0,2020-11-23,43.98794227,-84.84819859999998
Michigan,Clinton,2495,99,20,1,2020-11-23,42.94400871,-84.60145248
Michigan,Crawford,296,12,5,0,2020-11-23,44.68255561,-84.61006219
Michigan,Delta,2318,32,57,1,2020-11-23,45.90484910000001,-86.9080745
Michigan,Dickinson,1574,47,30,0,2020-11-23,46.00999672,-87.86961634
Michigan,Eaton,2702,138,30,1,2020-11-23,42.59599185,-84.83740035
Michigan,Emmet,854,19,28,1,2020-11-23,45.52625509,-84.89083249
Michigan,Genesee,13031,514,402,3,2020-11-23,43.02244215,-83.70589709
Michigan,Gladwin,689,46,9,1,2020-11-23,43.98901072,-84.38774817
Michigan,Gogebic,722,20,21,1,2020-11-23,46.40862701,-89.69377193
Michigan,Grand Traverse,1680,94,18,0,2020-11-23,44.69565625,-85.55585247
Michigan,Gratiot,1370,26,28,1,2020-11-23,43.29265605,-84.60505416
Michigan,Hillsdale,1438,90,34,0,2020-11-23,41.88753639,-84.59312019
Michigan,Houghton,1435,19,12,1,2020-11-23,46.89988536,-88.68495385
Michigan,Huron,638,46,13,0,2020-11-23,43.83353985,-83.04078453
Michigan,Ingham,7993,260,98,1,2020-11-23,42.59716886,-84.37472069
Michigan,Ionia,2001,119,12,0,2020-11-23,42.94502238,-85.07413319
Michigan,Iosco,615,24,20,0,2020-11-23,44.35486835,-83.63484895
Michigan,Iron,688,14,33,1,2020-11-23,46.20974132,-88.53136251
Michigan,Isabella,2204,90,18,0,2020-11-23,43.64060976,-84.84664923
Michigan,Jackson,4310,197,88,0,2020-11-23,42.24807035,-84.42258681
Michigan,Kalamazoo,8566,310,158,1,2020-11-23,42.24542231,-85.53038622
Michigan,Kalkaska,305,12,5,1,2020-11-23,44.68512729,-85.09085699
Michigan,Kent,29585,1251,301,9,2020-11-23,43.03197711,-85.54934642
Michigan,Keweenaw,65,3,1,0,2020-11-23,47.63197653,-88.41434263
Michigan,Lake,178,13,4,1,2020-11-23,43.99050893,-85.802173
Michigan,Lapeer,2065,111,48,0,2020-11-23,43.09052506,-83.22153148
Michigan,Leelanau,332,13,3,1,2020-11-23,44.94430054,-85.80150326
Michigan,Lenawee,2207,104,22,0,2020-11-23,41.89475156,-84.06603727
Michigan,Livingston,4734,200,42,0,2020-11-23,42.60302282,-83.91297209
Michigan,Luce,155,2,0,0,2020-11-23,46.47227431,-85.54471223
Michigan,Mackinac,249,3,0,0,2020-11-23,46.07028979,-85.04980537
Michigan,Macomb,32870,1042,1217,4,2020-11-23,42.69158356,-82.92752801
Michigan,Manistee,331,30,5,0,2020-11-23,44.33352407,-86.05626916
Michigan,Marquette,2636,96,25,0,2020-11-23,46.4338914,-87.64043701
Michigan,Mason,534,30,7,1,2020-11-23,43.99509218,-86.24988902
Michigan,Mecosta,1087,57,7,0,2020-11-23,43.64064262,-85.32463223
Michigan,Menominee,1205,19,13,1,2020-11-23,45.58038692,-87.55370409
Michigan,Midland,2663,99,24,1,2020-11-23,43.64330771,-84.38804374
Michigan,Missaukee,251,13,3,1,2020-11-23,44.33772443,-85.09256478
Michigan,Monroe,4504,153,61,1,2020-11-23,41.92734151,-83.53749864
Michigan,Montcalm,1665,127,22,1,2020-11-23,43.31082541,-85.15252824
Michigan,Montmorency,125,10,2,0,2020-11-23,45.0275929,-84.12696227
Michigan,Muskegon,6529,285,148,3,2020-11-23,43.29123859,-86.15176712
Michigan,Newaygo,1410,102,16,1,2020-11-23,43.554374,-85.80070107
Michigan,Oakland,41470,1089,1311,1,2020-11-23,42.66090111,-83.38595416
Michigan,Oceana,1091,52,13,0,2020-11-23,43.64124435,-86.26726673
Michigan,Ogemaw,414,27,11,1,2020-11-23,44.33481032,-84.12725175
Michigan,Ontonagon,267,10,12,1,2020-11-23,46.665226200000006,-89.31390481
Michigan,Osceola,456,39,3,0,2020-11-23,43.98992088,-85.32566756
Michigan,Oscoda,125,7,3,1,2020-11-23,44.68192279,-84.12939244
Michigan,Otsego,670,40,16,0,2020-11-23,45.02085831,-84.59898295
Michigan,Ottawa,12229,530,124,0,2020-11-23,42.95996803,-85.9969107
Michigan,Presque Isle,215,19,3,0,2020-11-23,45.34018577,-83.91498656
Michigan,Roscommon,522,44,7,0,2020-11-23,44.33473082,-84.61067651
Michigan,Saginaw,7663,303,208,4,2020-11-23,43.33433923,-84.05131209999998
Michigan,St. Clair,3842,222,78,0,2020-11-23,42.92655373,-82.67937954
Michigan,St. Joseph,2335,69,31,0,2020-11-23,41.91441767,-85.52797979
Michigan,Sanilac,606,58,12,0,2020-11-23,43.42406072,-82.82055898
Michigan,Schoolcraft,167,4,2,0,2020-11-23,46.19235734,-86.19972234
Michigan,Shiawassee,1692,66,39,1,2020-11-23,42.95392800000001,-84.14585902
Michigan,Tuscola,1490,64,48,2,2020-11-23,43.46606813,-83.41897025
Michigan,Van Buren,2501,149,32,0,2020-11-23,42.25190229,-86.01939087
Michigan,Washtenaw,8999,326,130,2,2020-11-23,42.253105,-83.83853204
Michigan,Wayne,58350,1260,3159,5,2020-11-23,42.28098405,-83.281255
Michigan,Wexford,526,55,13,1,2020-11-23,44.33853602,-85.57712739
Minnesota,Aitkin,689,42,23,1,2020-11-23,46.60962049,-93.4116826
Minnesota,Anoka,19724,513,213,0,2020-11-23,45.27476015,-93.24604565
Minnesota,Becker,1755,79,9,0,2020-11-23,46.93479392,-95.67158144
Minnesota,Beltrami,1846,75,15,0,2020-11-23,47.97373527,-94.93732139
Minnesota,Benton,2619,56,40,2,2020-11-23,45.69804958,-93.99514135
Minnesota,Big Stone,277,6,1,0,2020-11-23,45.42712824,-96.41403739
Minnesota,Blue Earth,3735,65,11,0,2020-11-23,44.03554215,-94.06699781
Minnesota,Brown,1175,49,10,0,2020-11-23,44.24205652,-94.72562874
Minnesota,Carlton,1536,53,10,0,2020-11-23,46.59180601,-92.67601019
Minnesota,Carver,4097,124,12,0,2020-11-23,44.82017001,-93.8009918
Minnesota,Cass,1201,48,8,0,2020-11-23,46.95043611,-94.32603968
Minnesota,Chippewa,769,26,7,0,2020-11-23,45.02343421,-95.56403693
Minnesota,Chisago,2839,62,8,0,2020-11-23,45.5021011,-92.90861945
Minnesota,Clay,4451,92,55,1,2020-11-23,46.89289518,-96.48761922
Minnesota,Clearwater,435,20,6,0,2020-11-23,47.57992111,-95.37790562
Minnesota,Cook,58,1,0,0,2020-11-23,47.90504893,-90.52629546
Minnesota,Cottonwood,706,26,0,0,2020-11-23,44.00715262,-95.18138802
Minnesota,Crow Wing,3161,94,30,1,2020-11-23,46.48096553,-94.06755609
Minnesota,Dakota,19215,477,176,0,2020-11-23,44.67172617,-93.06299363
Minnesota,Dodge,785,8,0,0,2020-11-23,44.02238415,-92.86244324
Minnesota,Douglas,2198,79,29,0,2020-11-23,45.93348491,-95.45335469
Minnesota,Faribault,475,10,0,0,2020-11-23,43.67381499,-93.94787458
Minnesota,Fillmore,605,14,0,0,2020-11-23,43.67394126,-92.08980382
Minnesota,Freeborn,1393,31,5,0,2020-11-23,43.67385583,-93.34884422
Minnesota,Goodhue,1776,45,26,0,2020-11-23,44.40849741,-92.7234195
Minnesota,Grant,234,9,6,0,2020-11-23,45.93424769,-96.01139609
Minnesota,Hennepin,59003,1077,1089,5,2020-11-23,45.00761521,-93.47694895
Minnesota,Houston,615,14,2,0,2020-11-23,43.67129565,-91.49143057
Minnesota,Hubbard,970,42,22,0,2020-11-23,47.10778564,-94.91693868
Minnesota,Isanti,1650,59,15,0,2020-11-23,45.56181234,-93.29487636
Minnesota,Itasca,1689,37,24,1,2020-11-23,47.51009045,-93.63092229
Minnesota,Jackson,409,11,1,0,2020-11-23,43.67423373,-95.15398258
Minnesota,Kanabec,529,32,11,0,2020-11-23,45.9459309,-93.29275192
Minnesota,Kandiyohi,3482,106,15,2,2020-11-23,45.1526059,-95.00586446
Minnesota,Kittson,185,7,6,0,2020-11-23,48.77754106,-96.78317184
Minnesota,Koochiching,332,5,5,0,2020-11-23,48.24539665,-93.78352843
Minnesota,Lac qui Parle,320,8,3,0,2020-11-23,44.9973857,-96.17488219
Minnesota,Lake,358,12,4,1,2020-11-23,47.64270764,-91.44557998
Minnesota,Lake of the Woods,87,5,1,0,2020-11-23,48.77217001,-94.90274472
Minnesota,Le Sueur,1321,32,9,0,2020-11-23,44.37136597,-93.72844721
Minnesota,Lincoln,314,6,1,0,2020-11-23,44.41311883,-96.26688165
Minnesota,Lyon,1937,39,11,1,2020-11-23,44.41327865,-95.83806103
Minnesota,McLeod,1887,79,9,0,2020-11-23,44.82367677,-94.27287017
Minnesota,Mahnomen,249,9,4,0,2020-11-23,47.32557075,-95.80921485
Minnesota,Marshall,427,23,7,0,2020-11-23,48.35825983,-96.37017407
Minnesota,Martin,982,12,20,0,2020-11-23,43.67429718,-94.55099908
Minnesota,Meeker,1079,68,7,0,2020-11-23,45.12328869,-94.52839455
Minnesota,Mille Lacs,1328,38,30,0,2020-11-23,45.93705297,-93.63236823
Minnesota,Morrison,2116,41,21,0,2020-11-23,46.01265363,-94.27341528
Minnesota,Mower,2367,39,22,0,2020-11-23,43.67142874,-92.75234549
Minnesota,Murray,528,11,3,0,2020-11-23,44.02216709,-95.76328482
Minnesota,Nicollet,1465,20,23,0,2020-11-23,44.35291112,-94.24710352
Minnesota,Nobles,2960,22,28,0,2020-11-23,43.67434621,-95.75329576
Minnesota,Norman,309,9,6,0,2020-11-23,47.32628443,-96.45620947
Minnesota,Olmsted,6101,54,30,0,2020-11-23,44.00374114,-92.40209944
Minnesota,Otter Tail,2666,152,15,0,2020-11-23,46.40846929,-95.70835255
Minnesota,Pennington,535,28,6,0,2020-11-23,48.06642577,-96.0370814
Minnesota,Pine,1192,30,6,1,2020-11-23,46.12105238,-92.74070188
Minnesota,Pipestone,670,14,18,0,2020-11-23,44.02301619,-96.25841142
Minnesota,Polk,2286,64,21,0,2020-11-23,47.77372465,-96.40134647
Minnesota,Pope,482,20,0,0,2020-11-23,45.58606667,-95.44451209
Minnesota,Ramsey,24988,460,472,2,2020-11-23,45.01625271,-93.09872295
Minnesota,Red Lake,190,7,3,0,2020-11-23,47.87197525,-96.09561104
Minnesota,Redwood,780,29,18,0,2020-11-23,44.40555844,-95.25207021
Minnesota,Renville,708,20,18,0,2020-11-23,44.72836381,-94.94553734
Minnesota,Rice,3614,111,31,0,2020-11-23,44.3543376,-93.29658715
Minnesota,Rock,643,18,9,0,2020-11-23,43.67482683,-96.25296832
Minnesota,Roseau,992,48,3,0,2020-11-23,48.77501878,-95.81079919
Minnesota,St. Louis,7408,286,97,0,2020-11-23,47.6048407,-92.46879855
Minnesota,Scott,7538,182,54,0,2020-11-23,44.6490231,-93.53340251
Minnesota,Sherburne,5125,130,39,1,2020-11-23,45.44447208,-93.77617511
Minnesota,Sibley,709,25,4,0,2020-11-23,44.5796592,-94.23164924
Minnesota,Stearns,12266,263,89,0,2020-11-23,45.55192576,-94.61078221
Minnesota,Steele,1675,36,6,0,2020-11-23,44.02240351,-93.22627088
Minnesota,Stevens,444,10,2,0,2020-11-23,45.58613007,-96.00163705
Minnesota,Swift,497,14,6,1,2020-11-23,45.2829032,-95.68264092
Minnesota,Todd,1653,39,12,0,2020-11-23,46.06996226,-94.89785296
Minnesota,Traverse,133,14,0,0,2020-11-23,45.77298854,-96.47062949
Minnesota,Wabasha,912,16,1,0,2020-11-23,44.28424356,-92.23121312
Minnesota,Wadena,700,30,6,0,2020-11-23,46.58589171,-94.96968506
Minnesota,Waseca,1297,10,10,0,2020-11-23,44.02211116,-93.58720034
Minnesota,Washington,12538,187,106,2,2020-11-23,45.03864533,-92.88429635
Minnesota,Watonwan,775,15,4,0,2020-11-23,43.97823903,-94.61413846
Minnesota,Wilkin,327,10,5,0,2020-11-23,46.35721532,-96.4684375
Minnesota,Winona,2461,52,28,0,2020-11-23,43.98772283,-91.78081305
Minnesota,Wright,6634,173,36,1,2020-11-23,45.17297924,-93.96234781
Minnesota,Yellow Medicine,566,13,11,1,2020-11-23,44.71710183,-95.86842453
Mississippi,Adams,1359,18,48,0,2020-11-23,31.47669768,-91.35326037
Mississippi,Alcorn,1437,10,24,0,2020-11-23,34.88084463,-88.57996173
Mississippi,Amite,508,1,14,0,2020-11-23,31.17467303,-90.80501621
Mississippi,Attala,1062,1,33,0,2020-11-23,33.08658803,-89.57838564
Mississippi,Benton,482,0,17,0,2020-11-23,34.81681228,-89.18945516
Mississippi,Bolivar,2378,3,83,0,2020-11-23,33.79696941,-90.87372121
Mississippi,Calhoun,712,0,13,0,2020-11-23,33.93683395,-89.33686647
Mississippi,Carroll,705,4,14,0,2020-11-23,33.44834567,-89.91994479
Mississippi,Chickasaw,1023,2,32,0,2020-11-23,33.91983202,-88.9481545
Mississippi,Choctaw,305,0,7,0,2020-11-23,33.34598242,-89.24809382
Mississippi,Claiborne,574,0,16,0,2020-11-23,31.97061673,-90.90702196
Mississippi,Clarke,882,1,53,0,2020-11-23,32.04158545,-88.68896219999998
Mississippi,Clay,867,5,26,0,2020-11-23,33.65358105,-88.77784255
Mississippi,Coahoma,1473,6,42,0,2020-11-23,34.22772299,-90.60415045
Mississippi,Copiah,1588,0,40,0,2020-11-23,31.86977774,-90.44565118
Mississippi,Covington,1172,8,34,0,2020-11-23,31.63225413,-89.55389939
Mississippi,DeSoto,9569,42,99,0,2020-11-23,34.87625235,-89.99091418
Mississippi,Forrest,3671,65,85,0,2020-11-23,31.18961454,-89.25832496
Mississippi,Franklin,318,3,5,0,2020-11-23,31.47786634,-90.89672989
Mississippi,George,1216,1,23,0,2020-11-23,30.86259065,-88.64436789
Mississippi,Greene,584,2,22,0,2020-11-23,31.21444233,-88.63922281
Mississippi,Grenada,1363,5,44,0,2020-11-23,33.77036166,-89.80245083
Mississippi,Hancock,1141,8,37,0,2020-11-23,30.41830223,-89.48851033
Mississippi,Harrison,6825,24,105,0,2020-11-23,30.51359752,-89.12467576
Mississippi,Hinds,9541,21,193,0,2020-11-23,32.2656285,-90.44435448
Mississippi,Holmes,1244,2,61,0,2020-11-23,33.12345854,-90.08923538
Mississippi,Humphreys,525,2,18,0,2020-11-23,33.12825718,-90.52252707
Mississippi,Issaquena,111,2,4,0,2020-11-23,32.72531359,-90.97392828
Mississippi,Itawamba,1455,11,33,0,2020-11-23,34.27993475,-88.3606733
Mississippi,Jackson,6068,25,116,0,2020-11-23,30.54020656,-88.64184064
Mississippi,Jasper,811,7,21,0,2020-11-23,32.01922104,-89.11786866
Mississippi,Jefferson,340,5,11,0,2020-11-23,31.73397872,-91.03764977
Mississippi,Jefferson Davis,541,3,17,0,2020-11-23,31.56884708,-89.82670990000003
Mississippi,Jones,3446,30,87,0,2020-11-23,31.62257767,-89.16896899999998
Mississippi,Kemper,408,2,15,0,2020-11-23,32.75462946,-88.64105766
Mississippi,Lafayette,3133,13,47,0,2020-11-23,34.35687874,-89.48490961
Mississippi,Lamar,2818,80,49,0,2020-11-23,31.20572971,-89.5077704
Mississippi,Lauderdale,3343,3,142,0,2020-11-23,32.40419769,-88.66229662
Mississippi,Lawrence,699,1,14,0,2020-11-23,31.55147224,-90.10841127
Mississippi,Leake,1316,0,43,0,2020-11-23,32.7536828,-89.52402044
Mississippi,Lee,4802,32,94,0,2020-11-23,34.291877500000005,-88.68149954
Mississippi,Leflore,2007,4,89,0,2020-11-23,33.55545125,-90.29900733
Mississippi,Lincoln,1839,3,64,0,2020-11-23,31.53288662,-90.45391915
Mississippi,Lowndes,2283,8,62,0,2020-11-23,33.47386518,-88.44191529999998
Mississippi,Madison,4602,7,102,0,2020-11-23,32.63389156,-90.03513564
Mississippi,Marion,1107,17,46,0,2020-11-23,31.23132643,-89.8209217
Mississippi,Marshall,2072,7,47,0,2020-11-23,34.76216286,-89.50299462
Mississippi,Monroe,1895,7,77,0,2020-11-23,33.89236763,-88.4808438
Mississippi,Montgomery,719,0,25,0,2020-11-23,33.49419589,-89.61729103
Mississippi,Neshoba,2171,1,113,0,2020-11-23,32.75339664,-89.11726492
Mississippi,Newton,1028,0,29,0,2020-11-23,32.40021118,-89.11843336
Mississippi,Noxubee,690,1,17,0,2020-11-23,33.11009499,-88.56949061
Mississippi,Oktibbeha,2377,3,60,0,2020-11-23,33.42491685,-88.87905132
Mississippi,Panola,2110,7,47,0,2020-11-23,34.36398677,-89.95064249
Mississippi,Pearl River,1429,9,67,0,2020-11-23,30.77090935,-89.58677275
Mississippi,Perry,652,13,25,0,2020-11-23,31.17161885,-88.99281835
Mississippi,Pike,1600,1,58,0,2020-11-23,31.17507789,-90.40392572
Mississippi,Pontotoc,1932,7,27,0,2020-11-23,34.226046000000004,-89.03636807
Mississippi,Prentiss,1395,11,26,0,2020-11-23,34.61810501,-88.51986294
Mississippi,Quitman,478,2,6,0,2020-11-23,34.25157572,-90.28908
Mississippi,Rankin,5237,18,96,0,2020-11-23,32.26469147,-89.94537876
Mississippi,Scott,1499,5,29,0,2020-11-23,32.406704100000006,-89.53789439
Mississippi,Sharkey,306,0,17,0,2020-11-23,32.88149103,-90.8159538
Mississippi,Simpson,1435,4,53,0,2020-11-23,31.91282117,-89.91716179
Mississippi,Smith,686,0,16,0,2020-11-23,32.01744532,-89.50644846
Mississippi,Stone,723,13,14,0,2020-11-23,30.79187949,-89.11547539
Mississippi,Sunflower,1895,8,54,0,2020-11-23,33.60192578,-90.58882684
Mississippi,Tallahatchie,947,0,27,0,2020-11-23,33.95339918,-90.1729398
Mississippi,Tate,1633,3,49,0,2020-11-23,34.65133709,-89.94485778
Mississippi,Tippah,1209,5,30,0,2020-11-23,34.76872156,-88.90988194
Mississippi,Tishomingo,1060,5,42,0,2020-11-23,34.74023475,-88.23917219
Mississippi,Tunica,595,0,19,0,2020-11-23,34.64967704,-90.37481167
Mississippi,Union,1601,11,25,0,2020-11-23,34.49162015,-89.00776006
Mississippi,Walthall,743,6,28,0,2020-11-23,31.14971548,-90.10446654
Mississippi,Warren,1721,4,57,0,2020-11-23,32.35810271,-90.83352619
Mississippi,Washington,3088,45,106,0,2020-11-23,33.28392041,-90.94196237
Mississippi,Wayne,1157,2,22,0,2020-11-23,31.64135687,-88.69573913
Mississippi,Webster,416,0,14,0,2020-11-23,33.61300486,-89.28392912
Mississippi,Wilkinson,384,0,22,0,2020-11-23,31.16078225,-91.31018819
Mississippi,Winston,1158,0,24,0,2020-11-23,33.08747908,-89.03391385
Mississippi,Yalobusha,679,3,26,0,2020-11-23,34.02824175,-89.70762049999998
Mississippi,Yazoo,1506,11,38,0,2020-11-23,32.77890365,-90.39656148
Missouri,Adair,1017,10,1,0,2020-11-23,40.19058551,-92.60078167
Missouri,Andrew,735,8,9,0,2020-11-23,39.98492163,-94.80163024
Missouri,Atchison,194,4,1,0,2020-11-23,40.43238737,-95.42970639
Missouri,Audrain,982,28,11,0,2020-11-23,39.215877,-91.84242683
Missouri,Barry,1377,10,22,0,2020-11-23,36.70978521,-93.82919888
Missouri,Barton,601,0,4,0,2020-11-23,37.50207671,-94.34757022
Missouri,Bates,495,21,8,0,2020-11-23,38.25271289,-94.34113157
Missouri,Benton,731,3,8,0,2020-11-23,38.29503305,-93.28756116
Missouri,Bollinger,766,4,7,0,2020-11-23,37.32449052,-90.02725304
Missouri,Boone,9720,69,17,0,2020-11-23,38.99186229,-92.30723575
Missouri,Buchanan,4308,59,53,0,2020-11-23,39.65816401,-94.80138942
Missouri,Butler,1967,11,8,0,2020-11-23,36.71462476,-90.40421163
Missouri,Caldwell,358,10,1,0,2020-11-23,39.65620858,-93.98308093
Missouri,Callaway,2597,33,7,0,2020-11-23,38.83674754,-91.92186505
Missouri,Camden,2329,28,44,0,2020-11-23,38.02199522,-92.76083747
Missouri,Cape Girardeau,4642,44,59,0,2020-11-23,37.38489388,-89.6843587
Missouri,Carroll,391,15,5,0,2020-11-23,39.42762566,-93.50626255
Missouri,Carter,276,0,4,0,2020-11-23,36.94160441,-90.96051322
Missouri,Cass,3446,55,36,0,2020-11-23,38.64789422,-94.353399
Missouri,Cedar,428,7,4,0,2020-11-23,37.72391475,-93.85445441
Missouri,Chariton,221,2,0,0,2020-11-23,39.51499357,-92.9629191
Missouri,Christian,3526,37,22,0,2020-11-23,36.9711783,-93.18537118
Missouri,Clark,282,12,2,0,2020-11-23,40.41040752,-91.73661677
Missouri,Clay,4340,26,62,1,2020-11-23,39.31132056,-94.41850862
Missouri,Clinton,829,5,42,0,2020-11-23,39.6013098,-94.40465394
Missouri,Cole,5711,91,38,0,2020-11-23,38.50455671,-92.27860244
Missouri,Cooper,1109,13,6,0,2020-11-23,38.844478,-92.80896081
Missouri,Crawford,1112,15,11,0,2020-11-23,37.97663738,-91.30528104
Missouri,Dade,277,3,5,0,2020-11-23,37.431814,-93.8503345
Missouri,Dallas,572,4,5,0,2020-11-23,37.6811355,-93.02127031
Missouri,Daviess,315,6,8,0,2020-11-23,39.96145298,-93.98519678
Missouri,DeKalb,539,28,9,0,2020-11-23,39.89201062,-94.40476508
Missouri,Dent,471,13,4,0,2020-11-23,37.60663134,-91.50790473
Missouri,Douglas,388,5,15,0,2020-11-23,36.9325593,-92.49905109
Missouri,Dunklin,1595,9,13,0,2020-11-23,36.27167174,-90.09122243
Missouri,Franklin,4468,89,59,0,2020-11-23,38.41127108,-91.07522826
Missouri,Gasconade,421,12,24,0,2020-11-23,38.43947277,-91.50847147
Missouri,Gentry,389,4,11,0,2020-11-23,40.21097916,-94.40944419
Missouri,Greene,12997,149,169,0,2020-11-23,37.2575872,-93.34230916
Missouri,Grundy,479,-1,13,0,2020-11-23,40.11406587,-93.56509276
Missouri,Harrison,373,10,1,0,2020-11-23,40.35570088,-93.99222144
Missouri,Henry,998,17,9,0,2020-11-23,38.38482826,-93.79293734
Missouri,Hickory,350,3,4,0,2020-11-23,37.94163617,-93.3203037
Missouri,Holt,246,6,3,0,2020-11-23,40.09799248,-95.2163888
Missouri,Howard,449,4,2,0,2020-11-23,39.1435761,-92.69756691
Missouri,Howell,1518,5,26,0,2020-11-23,36.77383887,-91.88683935
Missouri,Iron,219,1,0,0,2020-11-23,37.55487945,-90.7735296
Missouri,Jackson,15920,225,171,0,2020-11-23,39.01002188,-94.34724536
Missouri,Jasper,7842,42,104,0,2020-11-23,37.20351921,-94.34050458
Missouri,Jefferson,9929,195,96,0,2020-11-23,38.25926778,-90.53870896
Missouri,Johnson,2335,15,12,0,2020-11-23,38.74719601,-93.80691168
Missouri,Knox,130,5,1,0,2020-11-23,40.12699751,-92.14780832
Missouri,Laclede,1693,23,29,0,2020-11-23,37.65896829,-92.5888493
Missouri,Lafayette,1389,20,29,0,2020-11-23,39.06986886,-93.78076396
Missouri,Lawrence,1813,26,33,0,2020-11-23,37.10626634,-93.83293097
Missouri,Lewis,416,1,2,0,2020-11-23,40.09673161,-91.72070156
Missouri,Lincoln,2217,57,8,0,2020-11-23,39.05345619,-90.95588181
Missouri,Linn,292,4,10,0,2020-11-23,39.87001769,-93.10704106
Missouri,Livingston,743,3,11,0,2020-11-23,39.78110272,-93.54645978
Missouri,McDonald,1365,7,15,0,2020-11-23,36.62869595,-94.34867205
Missouri,Macon,609,17,2,0,2020-11-23,39.83049768,-92.56453089
Missouri,Madison,800,8,7,0,2020-11-23,37.47865134,-90.3467143
Missouri,Maries,342,5,3,1,2020-11-23,38.16193985,-91.92249662
Missouri,Marion,1625,17,15,0,2020-11-23,39.80601912,-91.62203062
Missouri,Mercer,79,1,0,0,2020-11-23,40.42212303,-93.5682959
Missouri,Miller,1417,14,23,0,2020-11-23,38.21450288,-92.42610898
Missouri,Mississippi,775,69,6,0,2020-11-23,36.82516239,-89.29505753
Missouri,Moniteau,1152,15,15,0,2020-11-23,38.63571781,-92.57976951
Missouri,Monroe,343,1,3,0,2020-11-23,39.49593978,-92.00043978
Missouri,Montgomery,304,3,5,0,2020-11-23,38.94022054,-91.47000721
Missouri,Morgan,1012,17,9,0,2020-11-23,38.4181765,-92.88791859
Missouri,New Madrid,1256,11,23,0,2020-11-23,36.59666326,-89.66070007
Missouri,Newton,2852,14,37,0,2020-11-23,36.90519407,-94.3394104
Missouri,Nodaway,1858,14,11,0,2020-11-23,40.36079813,-94.88133008
Missouri,Oregon,352,4,0,0,2020-11-23,36.68710164,-91.4033755
Missouri,Osage,876,9,3,0,2020-11-23,38.46036182,-91.8613635
Missouri,Ozark,277,2,2,0,2020-11-23,36.64916339,-92.44459066
Missouri,Pemiscot,1021,3,16,0,2020-11-23,36.2130572,-89.78742322
Missouri,Perry,1455,19,8,0,2020-11-23,37.70660776,-89.82741088
Missouri,Pettis,2583,12,29,0,2020-11-23,38.72798918,-93.28471706
Missouri,Phelps,1586,38,38,0,2020-11-23,37.87736118,-91.79351727
Missouri,Pike,819,10,8,0,2020-11-23,39.34310674,-91.16980779
Missouri,Platte,1528,8,14,0,2020-11-23,39.38154439,-94.77068479
Missouri,Polk,1310,4,11,0,2020-11-23,37.6162296,-93.39828174
Missouri,Pulaski,1496,23,15,0,2020-11-23,37.82462075,-92.20783203
Missouri,Putnam,125,9,1,0,2020-11-23,40.47942497,-93.02042674
Missouri,Ralls,419,12,1,0,2020-11-23,39.52817427,-91.51838643
