State,County,Total Cases,New Cases,Total Deaths,New Deaths,Date,Latitude,Longitude
Alabama,Autauga,3570,60,43,0,2020-12-17,32.53952745,-86.64408227
Alabama,Baldwin,11364,152,145,0,2020-12-17,30.72774991,-87.72207058
Alabama,Barbour,1309,13,30,0,2020-12-17,31.868263,-85.3871286
Alabama,Bibb,1548,28,42,0,2020-12-17,32.99642064,-87.12511459999997
Alabama,Blount,4036,86,52,2,2020-12-17,33.98210918,-86.56790593
Alabama,Bullock,742,5,20,0,2020-12-17,32.10030533,-85.71265535
Alabama,Butler,1368,25,44,0,2020-12-17,31.75300095,-86.68057478
Alabama,Calhoun,8290,218,136,1,2020-12-17,33.77483727,-85.82630386
Alabama,Chambers,2076,12,58,1,2020-12-17,32.91360079,-85.39072749
Alabama,Cherokee,1241,23,24,0,2020-12-17,34.17805983,-85.60638968
Alabama,Chilton,2631,27,47,1,2020-12-17,32.85044126,-86.7173256
Alabama,Choctaw,459,2,20,0,2020-12-17,32.02227341,-88.26564429999998
Alabama,Clarke,2137,27,24,0,2020-12-17,31.68099859,-87.83548597
Alabama,Clay,1034,17,29,0,2020-12-17,33.26984193,-85.85836077
Alabama,Cleburne,923,19,15,0,2020-12-17,33.67679204,-85.52005899
Alabama,Coffee,3066,49,29,3,2020-12-17,31.39932826,-85.98901039
Alabama,Colbert,3988,45,55,2,2020-12-17,34.69847452,-87.80168544
Alabama,Conecuh,793,6,15,0,2020-12-17,31.43401703,-86.99320044
Alabama,Coosa,445,1,5,1,2020-12-17,32.93690146,-86.24847739
Alabama,Covington,2633,21,38,0,2020-12-17,31.2477854,-86.45050893
Alabama,Crenshaw,803,0,32,0,2020-12-17,31.72941803,-86.31593104
Alabama,Cullman,6064,129,64,0,2020-12-17,34.13020303,-86.86888037
Alabama,Dale,2897,53,59,0,2020-12-17,31.43037123,-85.61095742
Alabama,Dallas,2555,20,36,2,2020-12-17,32.32688101,-87.10866709999998
Alabama,DeKalb,6188,120,51,1,2020-12-17,34.45946862,-85.80782906
Alabama,Autauga,3647,77,44,1,2020-12-18,32.53952745,-86.64408227
Alabama,Baldwin,11556,192,146,1,2020-12-18,30.72774991,-87.72207058
Alabama,Barbour,1318,9,30,0,2020-12-18,31.868263,-85.3871286
Alabama,Bibb,1577,29,42,0,2020-12-18,32.99642064,-87.12511459999997
Alabama,Blount,4118,82,52,0,2020-12-18,33.98210918,-86.56790593
Alabama,Bullock,747,5,20,0,2020-12-18,32.10030533,-85.71265535
Alabama,Butler,1384,16,45,1,2020-12-18,31.75300095,-86.68057478
Alabama,Calhoun,8459,169,137,1,2020-12-18,33.77483727,-85.82630386
Alabama,Chambers,2090,14,58,0,2020-12-18,32.91360079,-85.39072749
Alabama,Cherokee,1265,24,23,-1,2020-12-18,34.17805983,-85.60638968
Alabama,Chilton,2649,18,47,0,2020-12-18,32.85044126,-86.7173256
Alabama,Choctaw,470,11,20,0,2020-12-18,32.02227341,-88.26564429999998
Alabama,Clarke,2154,17,24,0,2020-12-18,31.68099859,-87.83548597
Alabama,Clay,1041,7,29,0,2020-12-18,33.26984193,-85.85836077
Alabama,Cleburne,941,18,15,0,2020-12-18,33.67679204,-85.52005899
Alabama,Coffee,3126,60,29,0,2020-12-18,31.39932826,-85.98901039
Alabama,Colbert,4034,46,56,1,2020-12-18,34.69847452,-87.80168544
Alabama,Conecuh,798,5,15,0,2020-12-18,31.43401703,-86.99320044
Alabama,Coosa,451,6,6,1,2020-12-18,32.93690146,-86.24847739
Alabama,Covington,2683,50,38,0,2020-12-18,31.2477854,-86.45050893
Alabama,Crenshaw,820,17,33,1,2020-12-18,31.72941803,-86.31593104
Alabama,Cullman,6161,97,67,3,2020-12-18,34.13020303,-86.86888037
Alabama,Dale,2954,57,59,0,2020-12-18,31.43037123,-85.61095742
Alabama,Dallas,2577,22,36,0,2020-12-18,32.32688101,-87.10866709999998
Alabama,DeKalb,6289,101,51,0,2020-12-18,34.45946862,-85.80782906
Alabama,Elmore,5357,118,78,0,2020-12-18,32.59785413,-86.14415284
Alabama,Escambia,2366,33,33,0,2020-12-18,31.1256789,-87.15918694
Alabama,Etowah,8690,248,82,0,2020-12-18,34.04567266,-86.04051873
Alabama,Fayette,1271,25,18,0,2020-12-18,33.72076938,-87.73886638
Alabama,Franklin,2978,25,36,1,2020-12-18,34.44235334,-87.84289505
Alabama,Geneva,1471,18,16,0,2020-12-18,31.09389027,-85.83572839
Alabama,Greene,574,9,20,0,2020-12-18,32.85504247,-87.95684022
Alabama,Hale,1236,15,33,0,2020-12-18,32.76039258,-87.63284988
Alabama,Henry,1061,24,8,0,2020-12-18,31.51148016,-85.24267944
Alabama,Houston,6455,145,51,0,2020-12-18,31.15197924,-85.29939599
Alabama,Jackson,4595,51,29,1,2020-12-18,34.78144169,-85.99750489
Alabama,Jefferson,44274,956,586,15,2020-12-18,33.55554728,-86.89506300000002
Alabama,Lamar,925,13,12,1,2020-12-18,33.77995024,-88.09668032
Alabama,Lauderdale,5428,82,64,1,2020-12-18,34.90171875,-87.65624729
Alabama,Lawrence,1708,36,39,2,2020-12-18,34.52041498,-87.31069453
Alabama,Lee,9188,133,73,0,2020-12-18,32.60154883,-85.35132246
Alabama,Limestone,5821,153,51,1,2020-12-18,34.81185586,-86.98310072
Alabama,Lowndes,889,9,32,0,2020-12-18,32.1597283,-86.65158371
Alabama,Macon,891,9,27,0,2020-12-18,32.38759944,-85.69267724
Alabama,Madison,18684,500,172,2,2020-12-18,34.76327133,-86.55069633
Alabama,Marengo,1579,13,26,0,2020-12-18,32.24767634,-87.78796182
Alabama,Marion,1813,34,42,0,2020-12-18,34.13697363,-87.88704173
Alabama,Marshall,8233,92,69,0,2020-12-18,34.36975964,-86.30486727
Alabama,Mobile,23078,249,392,0,2020-12-18,30.78472347,-88.20842409
Alabama,Monroe,997,20,10,0,2020-12-18,31.56729412,-87.36995001
Alabama,Montgomery,14532,212,266,0,2020-12-18,32.2206831,-86.20969272
Alabama,Morgan,9138,171,73,1,2020-12-18,34.45500589,-86.85475946
Alabama,Perry,776,7,9,0,2020-12-18,32.64048341,-87.29770589
Alabama,Pickens,1531,30,24,0,2020-12-18,33.28094866,-88.08818103
Alabama,Pike,1803,17,22,1,2020-12-18,31.80396383,-85.9408295
Alabama,Randolph,1163,9,29,0,2020-12-18,33.29526734,-85.45708831
Alabama,Russell,2561,22,6,0,2020-12-18,32.28725256,-85.18415324
Alabama,St. Clair,5648,81,63,0,2020-12-18,33.71902176,-86.31029372
Alabama,Shelby,13586,220,93,0,2020-12-18,33.26879845,-86.66232561
Alabama,Sumter,733,32,24,1,2020-12-18,32.59117397,-88.19916205
Alabama,Talladega,4582,36,68,1,2020-12-18,33.37823223,-86.16886178
Alabama,Tallapoosa,2141,10,96,0,2020-12-18,32.86698258,-85.79833053
Alabama,Tuscaloosa,16378,213,205,0,2020-12-18,33.28726072,-87.52556818
Alabama,Walker,4648,80,130,5,2020-12-18,33.80270512,-87.30027177
Alabama,Washington,1073,21,23,0,2020-12-18,31.4092794,-88.20689944
Alabama,Wilcox,805,6,19,0,2020-12-18,31.98773215,-87.30891118
Alabama,Winston,1714,22,25,0,2020-12-18,34.15030532,-87.37325922
Alaska,Aleutians East,40,0,0,0,2020-12-18,55.32222414,-161.9722021
Alaska,Bristol Bay,0,0,0,0,2020-12-18,58.74513976,-156.701064
Alaska,Denali,60,2,0,0,2020-12-18,63.67264044,-150.0076108
Alaska,Fairbanks North Star,4570,93,19,0,2020-12-18,64.80726247,-146.5692662
Alaska,Haines,22,2,0,0,2020-12-18,59.09893571,-135.4679843
Alaska,Kenai Peninsula,3425,60,15,0,2020-12-18,60.24429722,-151.53888840000005
Alaska,Ketchikan Gateway,227,1,0,0,2020-12-18,55.57445008,-130.975561
Alaska,Kodiak Island,792,18,1,0,2020-12-18,57.65529415,-153.7493579
Alaska,Matanuska-Susitna,5778,64,11,0,2020-12-18,62.31305045,-149.5741743
Alaska,North Slope,739,16,2,0,2020-12-18,69.31479216,-153.4836093
Alaska,Northwest Arctic,388,0,0,0,2020-12-18,67.04919196,-159.7503946
Arizona,Apache,6731,58,215,2,2020-12-18,35.39465006,-109.4892383
Arizona,Cochise,5746,124,106,5,2020-12-18,31.87934684,-109.7516088
Arizona,Coconino,9744,149,195,1,2020-12-18,35.83883429,-111.7707178
Arizona,Gila,3886,60,117,2,2020-12-18,33.80190085,-110.8132779
Arizona,Graham,2740,34,42,1,2020-12-18,32.93166885,-109.8882178
Arizona,Greenlee,347,5,3,0,2020-12-18,33.21498827,-109.2405279
Arizona,La Paz,1139,25,26,1,2020-12-18,33.72854224,-113.9810029
Arizona,Maricopa,274026,4282,4610,68,2020-12-18,33.34835867,-112.4918154
Arizona,Mohave,9536,283,299,8,2020-12-18,35.70471703,-113.7577902
Arizona,Navajo,10116,86,296,1,2020-12-18,35.3997715,-110.3218983
Arizona,Pima,57250,1449,875,22,2020-12-18,32.0971334,-111.7890033
Arizona,Pinal,23143,217,324,7,2020-12-18,32.90525627,-111.3449483
Arizona,Santa Cruz,5228,70,86,1,2020-12-18,31.52508998,-110.8479088
Arizona,Yavapai,8936,240,170,16,2020-12-18,34.59933926,-112.5538588
Arizona,Yuma,24103,553,455,7,2020-12-18,32.76895712,-113.90666740000002
Arkansas,Arkansas,1158,15,26,0,2020-12-18,34.29145151,-91.37277296
Arkansas,Ashley,1131,11,18,0,2020-12-18,33.19153461,-91.7698471
Arkansas,Baxter,1794,32,43,1,2020-12-18,36.28784385,-92.33782872
Arkansas,Benton,15247,237,222,3,2020-12-18,36.33644656,-94.25680817
Arkansas,Boone,2298,25,54,0,2020-12-18,36.3084504,-93.09374925
Arkansas,Bradley,772,16,9,0,2020-12-18,33.46755808,-92.15980837
Arkansas,Calhoun,191,4,1,0,2020-12-18,33.55598792,-92.49974403
Arkansas,Carroll,1871,17,24,0,2020-12-18,36.34038560000001,-93.54270261
Arkansas,Chicot,1344,10,29,0,2020-12-18,33.26458973,-91.29539209
Arkansas,Clark,1179,29,16,0,2020-12-18,34.04613432,-93.17484713
Arkansas,Clay,1189,11,26,0,2020-12-18,36.36826212,-90.4148172
Arkansas,Cleburne,998,19,28,0,2020-12-18,35.53864922,-92.02640019
Arkansas,Cleveland,502,6,16,0,2020-12-18,33.89723187,-92.18537045
Arkansas,Columbia,1393,16,38,1,2020-12-18,33.21230701,-93.22642793
Arkansas,Conway,1033,39,10,0,2020-12-18,35.26205537,-92.70506566
Arkansas,Craighead,8940,117,117,3,2020-12-18,35.83018283,-90.63235729
Arkansas,Crawford,3921,63,50,0,2020-12-18,35.58928601,-94.2446814
Arkansas,Crittenden,3909,34,65,0,2020-12-18,35.21247318,-90.30839406
Arkansas,Cross,1172,23,32,0,2020-12-18,35.29631396,-90.77185818
Arkansas,Dallas,412,7,8,0,2020-12-18,33.97042763,-92.65167437
Arkansas,Desha,822,18,10,0,2020-12-18,33.83011025,-91.25500948
Arkansas,Drew,1248,5,9,0,2020-12-18,33.59035001,-91.71777921
Arkansas,Faulkner,6422,103,71,0,2020-12-18,35.14719007,-92.33717519
Arkansas,Franklin,981,14,22,0,2020-12-18,35.51202821,-93.89299569
Arkansas,Fulton,740,25,19,1,2020-12-18,36.38177105,-91.81729127
Arkansas,Garland,4930,97,134,2,2020-12-18,34.57692074,-93.14921604
Arkansas,Grant,838,18,10,0,2020-12-18,34.29017991,-92.42320562
Arkansas,Greene,3978,35,48,0,2020-12-18,36.11735460000001,-90.55832668
Arkansas,Hempstead,1091,21,9,0,2020-12-18,33.73325583,-93.66935133
Arkansas,Hot Spring,3295,18,51,1,2020-12-18,34.31709259,-92.95396325
Arkansas,Howard,1005,28,17,1,2020-12-18,34.09007427,-93.9934871
Arkansas,Independence,2459,21,81,1,2020-12-18,35.74242707,-91.57001641
Arkansas,Izard,1128,11,8,0,2020-12-18,36.09604046,-91.90847954
Arkansas,Jackson,2556,27,15,0,2020-12-18,35.59802983,-91.21494602
Arkansas,Jefferson,6023,74,122,0,2020-12-18,34.26767081,-91.92619839
Arkansas,Johnson,1584,29,17,1,2020-12-18,35.56759135,-93.46036368
Arkansas,Lafayette,306,5,4,0,2020-12-18,33.24116713,-93.60677071
Arkansas,Lawrence,1386,16,33,0,2020-12-18,36.04188196,-91.10867198
Arkansas,Lee,1354,-3,21,1,2020-12-18,34.78498904,-90.78383866
Arkansas,Lincoln,2712,8,21,1,2020-12-18,33.95317155,-91.74002806
Arkansas,Little River,720,4,37,0,2020-12-18,33.70375665,-94.23468591
Arkansas,Logan,1238,14,10,0,2020-12-18,35.21413234,-93.71951016
Arkansas,Lonoke,3531,59,71,2,2020-12-18,34.75392199,-91.88742357
Arkansas,Madison,894,25,10,0,2020-12-18,36.01038185,-93.72524943
Arkansas,Marion,547,9,12,0,2020-12-18,36.26844485,-92.68451899
Arkansas,Miller,2441,18,24,0,2020-12-18,33.31403423,-93.89285258
Arkansas,Mississippi,3992,29,90,0,2020-12-18,35.76271485,-90.05194370000002
Arkansas,Monroe,399,6,5,0,2020-12-18,34.6815935,-91.20540287
Arkansas,Montgomery,431,6,16,2,2020-12-18,34.53704874,-93.65824478
Arkansas,Nevada,541,7,19,0,2020-12-18,33.66340119,-93.30632432
Arkansas,Newton,516,6,24,0,2020-12-18,35.91947491,-93.21612969
Arkansas,Ouachita,1159,31,22,0,2020-12-18,33.58839816,-92.87795984
Arkansas,Perry,350,13,5,0,2020-12-18,34.9459153,-92.94372564
Arkansas,Phillips,1126,13,18,0,2020-12-18,34.43268455,-90.84800154
Arkansas,Pike,547,14,7,0,2020-12-18,34.16250414,-93.65789349
Arkansas,Poinsett,2102,29,52,0,2020-12-18,35.57433534,-90.66268713
Arkansas,Polk,1098,13,22,0,2020-12-18,34.48254879,-94.22728802
Arkansas,Pope,4657,110,50,0,2020-12-18,35.44871474,-93.03212219
Arkansas,Prairie,442,7,12,0,2020-12-18,34.83624419,-91.55162157
Arkansas,Pulaski,21209,375,336,2,2020-12-18,34.77054088,-92.31355101
Arkansas,Randolph,1278,22,37,0,2020-12-18,36.3415714,-91.02455531
Arkansas,St. Francis,2513,29,19,1,2020-12-18,35.02201976,-90.74828138
Arkansas,Saline,6583,98,82,0,2020-12-18,34.64916145,-92.67583224
Arkansas,Scott,491,4,6,0,2020-12-18,34.85588887,-94.0632176
Arkansas,Searcy,437,7,7,0,2020-12-18,35.9109364,-92.69936482
Arkansas,Sebastian,8475,93,139,1,2020-12-18,35.19605503,-94.27162713
Arkansas,Sevier,1940,19,20,0,2020-12-18,33.99780401,-94.2424869
Arkansas,Sharp,953,6,29,0,2020-12-18,36.16258158,-91.47819342
Arkansas,Stone,652,15,26,1,2020-12-18,35.86251946,-92.15684085
Arkansas,Union,1994,45,65,0,2020-12-18,33.16887091,-92.59746952
Arkansas,Van Buren,634,35,6,0,2020-12-18,35.58095779,-92.51295036
Arkansas,Washington,19088,245,203,1,2020-12-18,35.976844,-94.21800746
Arkansas,White,3932,97,65,0,2020-12-18,35.25688493,-91.74908296
Arkansas,Woodruff,291,6,1,0,2020-12-18,35.18902527,-91.2439489
Arkansas,Yell,2094,40,38,0,2020-12-18,35.00292371,-93.41171338
California,Alameda,41548,797,574,0,2020-12-18,37.64629437,-121.8929271
California,Alpine,64,0,0,0,2020-12-18,38.59678594,-119.8223594
California,Amador,1788,40,21,1,2020-12-18,38.44583082,-120.65696
California,Butte,5765,97,75,1,2020-12-18,39.66727762,-121.6005252
California,Calaveras,848,27,22,0,2020-12-18,38.20537103,-120.552913
California,Colusa,1053,15,8,0,2020-12-18,39.17881957,-122.2331726
California,Contra Costa,33072,546,290,0,2020-12-18,37.91923498,-121.9289527
California,Del Norte,605,18,2,0,2020-12-18,41.74228275,-123.8974063
California,El Dorado,4412,93,8,0,2020-12-18,38.77965956,-120.5233166
California,Fresno,49918,745,557,0,2020-12-18,36.75733899,-119.6466953
California,Glenn,1254,18,12,0,2020-12-18,39.59875897,-122.3938452
California,Humboldt,1387,13,15,0,2020-12-18,40.69923009,-123.876044
California,Imperial,20208,205,394,0,2020-12-18,33.0393082,-115.3669042
California,Inyo,468,16,19,0,2020-12-18,36.51112084,-117.41119779999998
California,Kern,55801,1120,476,6,2020-12-18,35.34329425,-118.7277796
California,Kings,14073,315,101,0,2020-12-18,36.07409056,-119.8159973
California,Lake,1375,11,21,0,2020-12-18,39.10124298,-122.7536244
California,Lassen,3732,47,7,0,2020-12-18,40.67311306,-120.59350990000002
California,Los Angeles,596721,16396,8757,93,2020-12-18,34.30828379,-118.2282411
California,Madera,8574,133,111,0,2020-12-18,37.21513971,-119.76655890000002
California,Marin,8804,53,136,0,2020-12-18,38.07122463,-122.7210631
California,Mariposa,188,3,4,0,2020-12-18,37.57978556,-119.9073334
California,Mendocino,2134,26,25,1,2020-12-18,39.4381191,-123.3911313
California,Merced,15648,205,207,0,2020-12-18,37.18922369,-120.7209035
California,Modoc,267,2,0,0,2020-12-18,41.58965602,-120.7244817
California,Mono,748,4,3,0,2020-12-18,37.93899289,-118.8872409
California,Monterey,21951,844,167,0,2020-12-18,36.21862405,-121.2413397
California,Napa,4612,68,24,0,2020-12-18,38.50735751,-122.332839
California,Nevada,2173,24,38,4,2020-12-18,39.30394768,-120.7627281
California,Orange,118367,3107,1734,3,2020-12-18,33.70147516,-117.76459979999998
California,Placer,10776,222,103,5,2020-12-18,39.06167234,-120.7240569
California,Plumas,397,12,1,0,2020-12-18,40.00355989,-120.8395236
California,Riverside,141062,5311,1744,36,2020-12-18,33.74314981,-115.9933578
California,Sacramento,53189,1007,727,16,2020-12-18,38.45106826,-121.3425374
California,San Benito,2760,73,23,0,2020-12-18,36.60308176,-121.069975
California,San Bernardino,151113,6658,1323,19,2020-12-18,34.84060306,-116.1774685
California,San Diego,120463,3611,1253,14,2020-12-18,33.03484597,-116.7365326
California,San Joaquin,35894,884,556,7,2020-12-18,37.93433732,-121.2730061
California,San Luis Obispo,8365,113,56,2,2020-12-18,35.38822029,-120.4039028
California,San Mateo,20089,444,198,15,2020-12-18,37.4228808,-122.32755459999998
California,Santa Barbara,14207,241,145,0,2020-12-18,34.65329488,-120.0188492
California,Santa Clara,53885,1471,583,17,2020-12-18,37.23104908,-121.6970462
California,Santa Cruz,6687,151,64,0,2020-12-18,37.05580291,-122.0066524
California,Shasta,7121,121,66,1,2020-12-18,40.76391419,-122.0396884
California,Sierra,32,0,0,0,2020-12-18,39.57713498,-120.52007009999998
California,Siskiyou,1001,8,8,0,2020-12-18,41.59198861,-122.5407434
California,Solano,15008,295,93,0,2020-12-18,38.26827353,-121.9357113
California,Sonoma,16024,256,172,6,2020-12-18,38.52746429,-122.8862506
California,Stanislaus,29040,373,509,10,2020-12-18,37.55862499,-120.9970722
California,Sutter,5369,79,42,3,2020-12-18,39.03417539,-121.6945899
California,Tehama,2627,70,31,0,2020-12-18,40.12570935,-122.2370171
California,Trinity,245,5,2,0,2020-12-18,40.64917670000001,-123.114713
California,Tulare,27852,352,346,7,2020-12-18,36.22026558,-118.8020203
California,Tuolumne,2076,82,19,0,2020-12-18,38.02644018,-119.9525093
California,Ventura,29404,838,207,3,2020-12-18,34.44465746,-119.0910613
California,Yolo,6800,151,104,5,2020-12-18,38.68278902,-121.9018288
California,Yuba,3212,90,14,0,2020-12-18,39.26255932,-121.3535644
Colorado,Adams,36782,386,453,2,2020-12-18,39.87432092,-104.3362578
Colorado,Alamosa,868,8,21,-1,2020-12-18,37.57250606,-105.7885451
Colorado,Arapahoe,34651,424,508,-5,2020-12-18,39.64977461,-104.3353617
Colorado,Archuleta,426,3,0,0,2020-12-18,37.19474156,-107.0476867
Colorado,Baca,162,0,0,0,2020-12-18,37.31940883,-102.5603223
Colorado,Bent,846,46,10,3,2020-12-18,37.95474293,-103.0720195
Colorado,Boulder,13508,148,157,-1,2020-12-18,40.09313619,-105.3546767
Colorado,Chaffee,898,17,21,1,2020-12-18,38.74745778,-106.19265729999998
Colorado,Cheyenne,86,1,3,0,2020-12-18,38.82777431,-102.6032558
Colorado,Clear Creek,241,4,2,0,2020-12-18,39.68864463,-105.6463118
Colorado,Conejos,282,10,3,0,2020-12-18,37.201606,-106.19174879999998
Colorado,Costilla,147,1,2,0,2020-12-18,37.27732493,-105.4276548
Colorado,Crowley,1565,67,12,2,2020-12-18,38.32608609,-103.7844965
Colorado,Custer,142,8,0,0,2020-12-18,38.10883162,-105.3683478
Colorado,Delta,1230,30,20,1,2020-12-18,38.86246243,-107.8631342
Colorado,Dolores,47,2,0,0,2020-12-18,37.75208676,-108.5211585
Colorado,Douglas,14180,145,161,8,2020-12-18,39.33133796,-104.930001
Colorado,Eagle,3030,48,12,0,2020-12-18,39.62754308,-106.6933637
Colorado,Elbert,857,8,6,0,2020-12-18,39.28656773,-104.1358721
Colorado,El Paso,37225,473,467,2,2020-12-18,38.83240149,-104.5251411
Colorado,Fremont,3952,49,13,1,2020-12-18,38.47362326,-105.4399667
Colorado,Garfield,3349,107,24,-1,2020-12-18,39.59921777,-107.902708
Colorado,Gilpin,112,6,1,0,2020-12-18,39.85646523,-105.5252597
Colorado,Grand,576,9,4,-1,2020-12-18,40.10603347,-106.1178042
Colorado,Gunnison,583,14,5,-2,2020-12-18,38.66611652,-107.0320729
Colorado,Hinsdale,12,0,0,0,2020-12-18,37.82247444,-107.3004345
Colorado,Huerfano,247,3,12,0,2020-12-18,37.68473101,-104.9612585
Colorado,Jackson,29,0,0,0,2020-12-18,40.66593870000001,-106.3408905
Colorado,Jefferson,27074,243,581,-12,2020-12-18,39.58635604,-105.2517692
Colorado,Kiowa,61,3,1,0,2020-12-18,38.43260896,-102.7392145
Colorado,Kit Carson,410,5,8,0,2020-12-18,39.30497777,-102.6022199
Colorado,Lake,385,2,0,0,2020-12-18,39.20278823,-106.3555697
Colorado,La Plata,1988,38,21,2,2020-12-18,37.28632032,-107.8429014
Colorado,Larimer,13782,143,109,4,2020-12-18,40.66671597,-105.4625784
Colorado,Las Animas,402,3,3,0,2020-12-18,37.3153406,-104.0376458
Colorado,Lincoln,744,2,2,1,2020-12-18,38.98749519,-103.5136649
Colorado,Logan,3002,36,51,1,2020-12-18,40.7249637,-103.110817
Colorado,Mesa,8101,173,117,2,2020-12-18,39.01787888,-108.469799
Colorado,Mineral,38,0,1,0,2020-12-18,37.66954283,-106.9281698
Colorado,Moffat,483,5,18,0,2020-12-18,40.61810999,-108.2070876
Colorado,Montezuma,1088,28,14,0,2020-12-18,37.33859579,-108.5958857
Colorado,Montrose,1773,27,27,1,2020-12-18,38.40214114,-108.26390220000002
Colorado,Morgan,1980,18,65,0,2020-12-18,40.26279810000001,-103.8093302
Colorado,Otero,1456,29,25,3,2020-12-18,37.9014485,-103.7173385
Colorado,Ouray,140,1,3,0,2020-12-18,38.14717457,-107.7675136
Colorado,Park,339,4,4,0,2020-12-18,39.120926,-105.7182065
Colorado,Phillips,218,2,4,0,2020-12-18,40.59414277,-102.3577703
Colorado,Pitkin,779,48,2,0,2020-12-18,39.21720112,-106.9310027
Colorado,Prowers,912,8,19,0,2020-12-18,37.95544985,-102.3926052
Colorado,Pueblo,12150,160,256,7,2020-12-18,38.17359144,-104.5127437
Colorado,Rio Blanco,247,2,2,0,2020-12-18,39.97913541,-108.2179009
Colorado,Rio Grande,342,26,5,0,2020-12-18,37.5836865,-106.3847838
Colorado,Routt,945,4,18,0,2020-12-18,40.48596505,-106.9905548
Colorado,Saguache,245,4,4,0,2020-12-18,38.08054629,-106.282466
Colorado,San Juan,25,0,0,0,2020-12-18,37.76248981,-107.67632890000002
Colorado,San Miguel,337,20,0,0,2020-12-18,38.00450883,-108.4020725
Colorado,Sedgwick,118,0,2,0,2020-12-18,40.87595412,-102.3519227
Colorado,Summit,1915,25,4,0,2020-12-18,39.63803232,-106.1150762
Colorado,Teller,906,18,7,0,2020-12-18,38.88133511,-105.1614893
Colorado,Washington,327,1,10,0,2020-12-18,39.97015535,-103.202587
Colorado,Weld,18088,142,255,7,2020-12-18,40.55499405,-104.3929621
Colorado,Yuma,488,4,6,1,2020-12-18,40.00346839,-102.4258673
Connecticut,Fairfield,50614,578,1628,9,2020-12-18,41.26809896,-73.3881171
Connecticut,Hartford,40611,824,1733,5,2020-12-18,41.80283011,-72.73103891
Connecticut,Litchfield,6515,130,205,3,2020-12-18,41.7937534,-73.2451475
Connecticut,Middlesex,5367,104,228,2,2020-12-18,41.45949668,-72.53714864
Connecticut,New Haven,41723,577,1425,4,2020-12-18,41.4080325,-72.93620426
Connecticut,New London,8940,224,211,4,2020-12-18,41.48896435,-72.10430976
Connecticut,Tolland,4197,73,100,2,2020-12-18,41.85853803,-72.3308481
Connecticut,Windham,4153,155,51,0,2020-12-18,41.82972709,-71.98182316
Delaware,Kent,7676,77,151,4,2020-12-18,39.08646628,-75.56884914
Delaware,New Castle,28235,160,421,3,2020-12-18,39.57992638,-75.64054974
Delaware,Sussex,13079,103,282,2,2020-12-18,38.66143781,-75.39031349
Florida,Alachua,14585,117,112,2,2020-12-18,29.67866525,-82.35928158
Florida,Baker,2256,10,36,0,2020-12-18,30.33060121,-82.28467476
Florida,Bay,10443,148,190,0,2020-12-18,30.26548745,-85.62122584
Florida,Bradford,1691,17,22,0,2020-12-18,29.95079741,-82.16611613
Florida,Brevard,18729,218,494,4,2020-12-18,28.29409504,-80.73091022
Florida,Broward,125338,1347,1763,3,2020-12-18,26.15184651,-80.48725556
Florida,Calhoun,1058,7,26,0,2020-12-18,30.40666734,-85.19394153
Florida,Charlotte,6384,71,212,0,2020-12-18,26.90131002,-81.92949121
Florida,Citrus,5877,103,218,-5,2020-12-18,28.84804315,-82.47614748
Florida,Clay,9679,117,171,2,2020-12-18,29.98319144,-81.85609986
Florida,Collier,20629,147,315,1,2020-12-18,26.11091986,-81.34687065
Florida,Columbia,5376,56,108,-1,2020-12-18,30.22509788,-82.62160164
Florida,DeSoto,2707,13,50,2,2020-12-18,27.18677893,-81.80941373
Florida,Dixie,1032,8,11,0,2020-12-18,29.60631086,-83.15724673
Florida,Duval,53275,601,692,0,2020-12-18,30.33225875,-81.66976468
Florida,Escambia,19762,287,341,3,2020-12-18,30.67652764,-87.37284571
Florida,Flagler,3215,36,46,-1,2020-12-18,29.45933576,-81.31508595
Florida,Franklin,854,1,4,0,2020-12-18,29.83791238,-84.82731662
Florida,Gadsden,3607,30,58,0,2020-12-18,30.57796289,-84.61915825
Florida,Gilchrist,901,13,20,0,2020-12-18,29.72856978,-82.79880657
Florida,Glades,734,2,11,0,2020-12-18,26.95635849,-81.18996211
Florida,Gulf,1186,7,25,0,2020-12-18,29.93543004,-85.24270990000002
Florida,Hamilton,1105,6,12,0,2020-12-18,30.49673973,-82.94998918
Florida,Hardee,1948,7,20,0,2020-12-18,27.49293939,-81.80956574
Florida,Hendry,2949,20,46,0,2020-12-18,26.55386945,-81.16469006
Florida,Hernando,6374,107,254,4,2020-12-18,28.55364461,-82.42700204
Florida,Highlands,4494,24,188,2,2020-12-18,27.34254618,-81.34071957
Florida,Hillsborough,68739,938,1021,6,2020-12-18,27.9276559,-82.32013172
Florida,Holmes,1416,5,19,0,2020-12-18,30.86747479,-85.81319222
Florida,Indian River,5831,106,151,1,2020-12-18,27.69308961,-80.60556721
Florida,Jackson,4306,38,107,-1,2020-12-18,30.7954597,-85.21500423
Florida,Jefferson,872,8,14,0,2020-12-18,30.43669112,-83.89442308
Florida,Lafayette,1402,1,20,0,2020-12-18,29.98484137,-83.18166636
Florida,Lake,13157,191,283,7,2020-12-18,28.76202069,-81.7125123
Florida,Lee,36145,386,630,4,2020-12-18,26.58410348,-81.88399313
Florida,Leon,17524,159,166,-2,2020-12-18,30.45955727,-84.27491114
Florida,Levy,1656,8,18,0,2020-12-18,29.31829741,-82.74007147
Florida,Liberty,666,2,14,0,2020-12-18,30.23766008,-84.8829258
Florida,Madison,1455,7,30,0,2020-12-18,30.44396917,-83.47398594
Florida,Manatee,19879,267,401,1,2020-12-18,27.47196942,-82.31831044
Florida,Marion,15647,214,431,1,2020-12-18,29.21227113,-82.05803627
Florida,Martin,7165,93,190,2,2020-12-18,27.0772071,-80.43109784
Florida,Miami-Dade,269716,2461,4034,12,2020-12-18,25.6112362,-80.55170587
Florida,Monroe,3969,34,32,0,2020-12-18,25.20904673,-81.07812416
Florida,Nassau,3980,61,64,0,2020-12-18,30.61037141,-81.80297522
Florida,Okaloosa,11260,114,202,4,2020-12-18,30.69143028,-86.59267105
Florida,Okeechobee,2231,13,49,0,2020-12-18,27.386336199999995,-80.88944347
Florida,Orange,67577,791,703,6,2020-12-18,28.51367621,-81.31799498
Florida,Osceola,22593,240,270,-2,2020-12-18,28.06312234,-81.14882926
Florida,Palm Beach,75572,783,1816,12,2020-12-18,26.64676272,-80.46536002
Florida,Pasco,19017,284,335,1,2020-12-18,28.30810945,-82.40227529
Florida,Pinellas,39846,509,995,5,2020-12-18,27.93130349,-82.72239666
Florida,Polk,32809,377,745,6,2020-12-18,27.95027105,-81.69732947
Florida,Putnam,3437,51,63,1,2020-12-18,29.60779729,-81.74230285
Florida,St. Johns,11025,157,108,0,2020-12-18,29.90096506,-81.43589967
Florida,St. Lucie,12653,178,380,0,2020-12-18,27.37763908,-80.47106649
Florida,Santa Rosa,9463,193,115,1,2020-12-18,30.693414500000006,-87.02458128
Florida,Sarasota,16537,148,465,11,2020-12-18,27.18546175,-82.33174248
Florida,Seminole,16097,159,302,1,2020-12-18,28.7158582,-81.24060348
Florida,Sumter,4313,92,109,0,2020-12-18,28.70181754,-82.0794267
Florida,Suwannee,3641,27,93,-1,2020-12-18,30.19746066,-82.99099670000003
Florida,Taylor,1810,13,24,0,2020-12-18,30.04848048,-83.60445406
Florida,Union,1343,1,65,0,2020-12-18,30.04412971,-82.37497443
Florida,Volusia,19569,235,400,2,2020-12-18,29.05858895,-81.18263252
Florida,Wakulla,1893,41,20,0,2020-12-18,30.16548905,-84.39895211
Florida,Walton,4390,70,41,0,2020-12-18,30.64204028,-86.16935664
Florida,Washington,1757,13,31,2,2020-12-18,30.61359259,-85.66002461
Georgia,Appling,1490,13,42,0,2020-12-18,31.74847232,-82.28909114
Georgia,Atkinson,682,5,9,0,2020-12-18,31.29633502,-82.87545866
Georgia,Bacon,866,9,25,1,2020-12-18,31.55456473,-82.45936528
Georgia,Baker,142,1,6,0,2020-12-18,31.32669878,-84.44218806
Georgia,Baldwin,2914,15,73,0,2020-12-18,33.06882326,-83.24701748
Georgia,Banks,1068,26,18,1,2020-12-18,34.35607081,-83.49644388
Georgia,Barrow,4463,81,61,0,2020-12-18,33.99148694,-83.71436292
Georgia,Bartow,6703,104,112,0,2020-12-18,34.23732119,-84.83887523
Georgia,Ben Hill,1306,26,41,0,2020-12-18,31.76095874,-83.22145359
Georgia,Berrien,930,21,30,0,2020-12-18,31.27590016,-83.22529920000002
Georgia,Bibb,8918,82,253,3,2020-12-18,32.80904227,-83.70489165
Georgia,Bleckley,828,18,33,0,2020-12-18,32.43829035,-83.33035166
Georgia,Brantley,920,6,19,0,2020-12-18,31.19576557,-81.97743999
Georgia,Brooks,881,9,30,0,2020-12-18,30.83922642,-83.58303423
Georgia,Bryan,1720,14,19,0,2020-12-18,32.00979311,-81.44002948
Georgia,Bulloch,4067,22,56,0,2020-12-18,32.39577406,-81.74811421
Georgia,Burke,1430,11,17,0,2020-12-18,33.05917989,-81.99928721
Georgia,Butts,1422,18,47,0,2020-12-18,33.283094500000004,-83.95435040000002
Georgia,Calhoun,352,0,11,0,2020-12-18,31.53169785,-84.62725131
Georgia,Camden,2192,22,21,0,2020-12-18,30.92951916,-81.66601818
Georgia,Candler,636,3,36,0,2020-12-18,32.40209349,-82.07702563
Georgia,Carroll,6866,94,110,2,2020-12-18,33.58138199,-85.07976677
Georgia,Catoosa,2879,68,35,0,2020-12-18,34.89872298,-85.13757014
Georgia,Charlton,920,12,19,0,2020-12-18,30.78371028,-82.13951596
Georgia,Chatham,12317,137,228,2,2020-12-18,32.00043026,-81.12489526
Georgia,Chattahoochee,2168,5,3,0,2020-12-18,32.34341231,-84.78809239
Georgia,Chattooga,1556,20,41,0,2020-12-18,34.47197698,-85.34535662
Georgia,Cherokee,13562,251,124,1,2020-12-18,34.24393976,-84.47431861
Georgia,Clarke,9224,93,60,0,2020-12-18,33.95436462,-83.37124007
Georgia,Clay,166,3,3,0,2020-12-18,31.62221166,-84.97713865
Georgia,Clayton,12761,140,217,2,2020-12-18,33.54187245,-84.35594188
Georgia,Clinch,560,0,14,0,2020-12-18,30.91395822,-82.70432472
Georgia,Cobb,37583,598,546,2,2020-12-18,33.94243204,-84.5761255
Georgia,Coffee,3608,30,82,0,2020-12-18,31.54892966,-82.85492059999999
Georgia,Colquitt,2890,21,51,0,2020-12-18,31.18810588,-83.7677946
Georgia,Columbia,8347,200,93,0,2020-12-18,33.54534185,-82.263524
Georgia,Cook,1080,23,22,0,2020-12-18,31.16068491,-83.42947229
Georgia,Coweta,7036,99,77,0,2020-12-18,33.35334302,-84.76129976
Georgia,Crawford,343,16,8,0,2020-12-18,32.71391813,-83.98061238
Georgia,Crisp,1210,27,37,1,2020-12-18,31.92289565,-83.76811843
Georgia,Dade,682,11,8,0,2020-12-18,34.854916700000004,-85.50490424
Georgia,Dawson,1486,33,12,0,2020-12-18,34.44244079,-84.16964071
Georgia,Decatur,1831,26,48,0,2020-12-18,30.87967778,-84.57619536
Georgia,DeKalb,33361,364,501,1,2020-12-18,33.76944049,-84.22396017
Georgia,Dodge,1224,17,59,1,2020-12-18,32.17265114,-83.16948926
Georgia,Dooly,595,4,24,0,2020-12-18,32.15630737,-83.79746561
Georgia,Dougherty,4331,41,207,0,2020-12-18,31.53328528,-84.21722377
Georgia,Douglas,7158,71,103,0,2020-12-18,33.70291126,-84.77026156
Georgia,Early,753,3,40,0,2020-12-18,31.32155345,-84.90255207
Georgia,Echols,333,4,3,0,2020-12-18,30.71101099,-82.89687287
Georgia,Effingham,2427,33,34,0,2020-12-18,32.36616021,-81.34280942
Georgia,Elbert,1455,24,34,0,2020-12-18,34.11302332,-82.83936148
Georgia,Emanuel,1582,17,50,0,2020-12-18,32.59221302,-82.30239915
Georgia,Evans,602,6,13,0,2020-12-18,32.15328841,-81.8870105
Georgia,Fannin,1239,13,41,1,2020-12-18,34.86430205,-84.316964
Georgia,Fayette,4096,50,69,0,2020-12-18,33.41357794,-84.49089434
Georgia,Floyd,6781,95,110,1,2020-12-18,34.26268279,-85.21577392
Georgia,Forsyth,8983,154,73,2,2020-12-18,34.22604035,-84.12315129999998
Georgia,Franklin,1538,26,25,0,2020-12-18,34.37525597,-83.23159927
Georgia,Fulton,49716,644,764,4,2020-12-18,33.79216944,-84.46319413
Georgia,Gilmer,1561,21,34,0,2020-12-18,34.69316688,-84.45802506
Georgia,Glascock,138,0,3,0,2020-12-18,33.22879932,-82.61297636
Georgia,Glynn,4773,42,130,0,2020-12-18,31.23279254,-81.53811412
Georgia,Gordon,4268,63,60,0,2020-12-18,34.50487351,-84.87296253
Georgia,Grady,1150,19,32,0,2020-12-18,30.87454847,-84.23418364
Georgia,Greene,908,21,28,0,2020-12-18,33.5769205,-83.17139104
Georgia,Gwinnett,49541,600,572,2,2020-12-18,33.96044201,-84.02137802
Georgia,Habersham,3096,66,84,-1,2020-12-18,34.63331566,-83.53094677
Georgia,Hall,15963,322,213,0,2020-12-18,34.32207823,-83.81896936
Georgia,Hancock,564,2,47,0,2020-12-18,33.2721566,-82.99766919
Georgia,Haralson,1649,38,37,0,2020-12-18,33.79602175,-85.21005667
Georgia,Harris,1231,11,28,0,2020-12-18,32.73709786,-84.90538572
Georgia,Hart,1254,34,31,0,2020-12-18,34.34626973,-82.96567682
Georgia,Heard,519,3,9,0,2020-12-18,33.29686567,-85.12886832
Georgia,Henry,11251,215,149,1,2020-12-18,33.4533428,-84.14814659999998
Georgia,Houston,6424,157,115,0,2020-12-18,32.45802497,-83.66879087
Georgia,Irwin,553,9,16,0,2020-12-18,31.60213036,-83.27501387
Georgia,Jackson,4618,94,66,0,2020-12-18,34.13794553,-83.56814788
Georgia,Jasper,686,17,7,0,2020-12-18,33.31535543,-83.68844964
Georgia,Jeff Davis,1094,3,34,0,2020-12-18,31.80405727,-82.63724870000001
Georgia,Jefferson,1173,7,40,0,2020-12-18,33.05867328,-82.41609057
Georgia,Jenkins,520,1,34,0,2020-12-18,32.79248718,-81.96040187
Georgia,Johnson,608,18,32,0,2020-12-18,32.70211082,-82.66166794
Georgia,Jones,964,18,24,0,2020-12-18,33.02512137,-83.56019163
Georgia,Lamar,941,25,29,0,2020-12-18,33.07841647,-84.14263877
Georgia,Lanier,458,8,10,0,2020-12-18,31.038285700000007,-83.06472457
Georgia,Laurens,3127,59,120,-1,2020-12-18,32.46325233,-82.92221316
Georgia,Lee,1274,15,33,0,2020-12-18,31.779330600000005,-84.14324253
Georgia,Liberty,1776,26,31,0,2020-12-18,31.82588896,-81.49251135
Georgia,Lincoln,386,8,11,0,2020-12-18,33.79201475,-82.45024131
Georgia,Long,418,18,5,0,2020-12-18,31.75218791,-81.74952375
Georgia,Lowndes,7572,76,131,0,2020-12-18,30.83568832,-83.27056716
Georgia,Lumpkin,1635,20,20,0,2020-12-18,34.57286511,-84.00425681
Georgia,McDuffie,1158,16,24,0,2020-12-18,33.47851918,-82.48252774
Georgia,McIntosh,461,3,9,0,2020-12-18,31.49683595,-81.40163426
Georgia,Macon,405,0,16,0,2020-12-18,32.35207048,-84.04234127
Georgia,Madison,1566,12,22,0,2020-12-18,34.12920917,-83.21218732
Georgia,Marion,282,5,10,0,2020-12-18,32.3483402,-84.52733571
Georgia,Meriwether,947,16,19,0,2020-12-18,33.04163534,-84.68859732
Georgia,Miller,463,6,3,0,2020-12-18,31.16568912,-84.73151117
Georgia,Mitchell,1182,16,52,0,2020-12-18,31.22483255,-84.19381821
Georgia,Monroe,1325,21,61,0,2020-12-18,33.014289,-83.92097166
Georgia,Montgomery,478,8,10,0,2020-12-18,32.17201038,-82.53527476
Georgia,Morgan,1001,17,8,0,2020-12-18,33.59232073,-83.49129491
Georgia,Murray,2470,52,37,0,2020-12-18,34.78897608,-84.74993177
Georgia,Muscogee,8485,72,203,1,2020-12-18,32.50931999,-84.87142262
Georgia,Newton,5040,95,115,1,2020-12-18,33.55514538,-83.84547140000002
Georgia,Oconee,1781,46,37,0,2020-12-18,33.83749973,-83.43679568
Georgia,Oglethorpe,733,22,14,0,2020-12-18,33.878629600000004,-83.08278123
Georgia,Paulding,6949,133,98,0,2020-12-18,33.91969522,-84.86848792
Georgia,Peach,1300,12,30,0,2020-12-18,32.56934316,-83.82937
Georgia,Pickens,1463,25,18,0,2020-12-18,34.46589159,-84.46406611
Georgia,Pierce,1393,13,32,0,2020-12-18,31.35928155,-82.21598442
Georgia,Pike,1038,30,17,0,2020-12-18,33.09310242,-84.38790389
Georgia,Polk,2946,30,42,1,2020-12-18,34.00267074,-85.18677781
Georgia,Pulaski,523,4,30,0,2020-12-18,32.23334561,-83.47549959999998
Georgia,Putnam,1181,15,30,0,2020-12-18,33.32056115,-83.37552891
Georgia,Quitman,92,1,1,0,2020-12-18,31.86728114,-85.01773177
Georgia,Rabun,895,44,15,0,2020-12-18,34.88389445,-83.40304637
Georgia,Randolph,388,3,31,0,2020-12-18,31.76622818,-84.75732369
Georgia,Richmond,12911,182,242,0,2020-12-18,33.35777107,-82.07026432
Georgia,Rockdale,3459,46,72,2,2020-12-18,33.65145002,-84.02202167
Georgia,Schley,206,4,2,0,2020-12-18,32.2654021,-84.31258912
Georgia,Screven,528,2,15,0,2020-12-18,32.74976524,-81.60779441
Georgia,Seminole,622,13,12,0,2020-12-18,30.93464824,-84.86823924
Georgia,Spalding,3004,46,91,0,2020-12-18,33.26310031,-84.28013991
Georgia,Stephens,1959,51,50,0,2020-12-18,34.55151201,-83.29405315
Georgia,Stewart,657,0,17,0,2020-12-18,32.07996777,-84.83208037
Georgia,Sumter,1536,21,73,0,2020-12-18,32.03650571,-84.19821492
Georgia,Talbot,262,1,9,0,2020-12-18,32.69642758,-84.53351366
Georgia,Taliaferro,48,0,0,0,2020-12-18,33.56543317,-82.88136816
Georgia,Tattnall,1314,21,35,0,2020-12-18,32.04785085,-82.05539188
Georgia,Taylor,473,3,13,0,2020-12-18,32.55792548,-84.25077141
Georgia,Telfair,722,11,35,0,2020-12-18,31.92829517,-82.93491155
Georgia,Terrell,518,5,34,0,2020-12-18,31.77527543,-84.44069698
Georgia,Thomas,2403,46,83,0,2020-12-18,30.86392347,-83.91847289
Georgia,Tift,3101,38,79,0,2020-12-18,31.45743864,-83.5236119
Georgia,Toombs,1938,15,70,0,2020-12-18,32.12059861,-82.32957247
Georgia,Towns,691,10,35,1,2020-12-18,34.91369188,-83.74107459999998
Georgia,Treutlen,421,7,16,0,2020-12-18,32.40422134,-82.56904553
Georgia,Troup,4536,46,127,0,2020-12-18,33.03349196,-85.02812115
Georgia,Turner,557,5,25,0,2020-12-18,31.71612656,-83.62069378
Georgia,Twiggs,327,12,19,0,2020-12-18,32.67435595,-83.43078662
Georgia,Union,1264,19,41,1,2020-12-18,34.82995757,-83.98967069
Georgia,Upson,1798,41,81,0,2020-12-18,32.87920671,-84.30024826
Georgia,Walker,3497,73,56,0,2020-12-18,34.73376362,-85.30165174
Georgia,Walton,4405,78,88,2,2020-12-18,33.78017694,-83.73552314
Georgia,Ware,2900,18,81,0,2020-12-18,31.05449097,-82.42224148
Georgia,Warren,251,4,8,0,2020-12-18,33.41146451,-82.67795848
Georgia,Washington,1258,6,40,0,2020-12-18,32.96711864,-82.79357039
Georgia,Wayne,1869,26,49,0,2020-12-18,31.5521809,-81.91894878
Georgia,Webster,70,1,2,0,2020-12-18,32.04066113,-84.54742852
Georgia,Wheeler,442,4,19,0,2020-12-18,32.12009104,-82.72574721
Georgia,White,1760,46,33,0,2020-12-18,34.64624278,-83.74905525
Georgia,Whitfield,10265,217,109,0,2020-12-18,34.80987459,-84.96093476
Georgia,Wilcox,500,15,31,0,2020-12-18,31.97496928,-83.43438555
Georgia,Wilkes,554,15,10,0,2020-12-18,33.78290391,-82.74286107
Georgia,Wilkinson,537,6,18,0,2020-12-18,32.80291082,-83.17140684
Georgia,Worth,941,19,40,0,2020-12-18,31.55162306,-83.85090513
Idaho,Ada,33610,487,311,4,2020-12-18,43.4526575,-116.24155159999998
Idaho,Adams,173,9,3,0,2020-12-18,44.89333571,-116.4545247
Idaho,Bannock,5845,24,51,1,2020-12-18,42.67002716,-112.2233311
Idaho,Bear Lake,237,0,2,0,2020-12-18,42.28269683,-111.32892379999998
Idaho,Benewah,365,13,4,0,2020-12-18,47.21754179,-116.6586851
Idaho,Bingham,3399,21,38,2,2020-12-18,43.21672879999999,-112.3978437
Idaho,Blaine,1516,5,10,0,2020-12-18,43.4085812,-113.9752658
Idaho,Boise,224,8,2,0,2020-12-18,43.98829931,-115.7309284
Idaho,Bonner,1563,40,12,1,2020-12-18,48.29996017,-116.6017932
Idaho,Bonneville,9574,51,102,4,2020-12-18,43.38713372,-111.6161537
Idaho,Boundary,473,14,6,0,2020-12-18,48.76684761,-116.4630179
Idaho,Butte,146,-1,0,0,2020-12-18,43.72592209,-113.1735463
Idaho,Camas,56,0,0,0,2020-12-18,43.46665742,-114.8065892
Idaho,Canyon,19082,189,196,1,2020-12-18,43.61970148,-116.7095499
Idaho,Caribou,482,0,11,0,2020-12-18,42.77149116,-111.5597683
Idaho,Cassia,2433,9,19,-1,2020-12-18,42.28347888,-113.6012409
Idaho,Clark,53,0,0,0,2020-12-18,44.28496071,-112.3505704
Idaho,Clearwater,777,5,5,0,2020-12-18,46.67459924,-115.6622393
Idaho,Custer,190,1,2,0,2020-12-18,44.24186819,-114.2855494
Idaho,Elmore,1161,20,9,1,2020-12-18,43.3507101,-115.4701578
Idaho,Franklin,855,6,8,0,2020-12-18,42.18332217,-111.8149666
Idaho,Fremont,843,3,12,0,2020-12-18,44.22800938,-111.4809943
Idaho,Gem,1326,18,17,1,2020-12-18,44.06482372,-116.398376
Idaho,Gooding,1099,1,16,0,2020-12-18,42.96927962,-114.8108306
Idaho,Idaho,922,9,15,0,2020-12-18,45.84721541,-115.4634436
Idaho,Jefferson,1917,10,14,1,2020-12-18,43.82078483,-112.3131749
Idaho,Jerome,2132,5,15,0,2020-12-18,42.68891267,-114.2655033
Idaho,Kootenai,10937,186,102,0,2020-12-18,47.67282258,-116.7020872
Idaho,Latah,2051,19,3,0,2020-12-18,46.81587887,-116.7113698
Idaho,Lemhi,451,1,9,0,2020-12-18,44.9438088,-113.9309747
Idaho,Lewis,317,1,5,0,2020-12-18,46.23315327,-116.434146
Idaho,Lincoln,423,2,8,0,2020-12-18,43.0012336,-114.1358773
Idaho,Madison,5019,14,10,0,2020-12-18,43.78141028,-111.65384740000002
Idaho,Minidoka,1935,20,22,0,2020-12-18,42.85518524,-113.6357257
Idaho,Nez Perce,2846,34,41,0,2020-12-18,46.32638236,-116.7500975
Idaho,Oneida,231,1,1,1,2020-12-18,42.19494279999999,-112.5407838
Idaho,Owyhee,838,7,18,0,2020-12-18,42.58016894,-116.1693871
Idaho,Payette,1926,22,22,1,2020-12-18,44.00545243,-116.7647695
Idaho,Power,523,2,4,0,2020-12-18,42.69254894,-112.83957420000002
Idaho,Shoshone,733,26,23,0,2020-12-18,47.35364087,-115.8916749
Idaho,Teton,651,6,2,0,2020-12-18,43.75303583,-111.2056773
Idaho,Twin Falls,7600,29,109,-1,2020-12-18,42.35440512,-114.6685381
Idaho,Valley,365,7,2,0,2020-12-18,44.76728382,-115.5676773
Idaho,Washington,917,17,14,0,2020-12-18,44.45275475,-116.7847688
Illinois,Adams,5711,41,68,1,2020-12-18,39.98815591,-91.18786813
Illinois,Alexander,319,1,5,0,2020-12-18,37.18049267,-89.32910838
Illinois,Bond,1402,12,15,0,2020-12-18,38.88829622,-89.43534887
Illinois,Boone,4700,23,63,6,2020-12-18,42.32359279,-88.82345779
Illinois,Brown,403,8,8,0,2020-12-18,39.96209138,-90.75068024
Illinois,Bureau,2585,10,63,0,2020-12-18,41.40385234,-89.5283051
Illinois,Calhoun,349,-1,1,0,2020-12-18,39.16840183,-90.66330078
Illinois,Carroll,1253,8,29,0,2020-12-18,42.06823429,-89.93395545
Illinois,Cass,1398,3,27,1,2020-12-18,39.96991073,-90.24734436
Illinois,Champaign,12802,108,78,0,2020-12-18,40.13919438,-88.20046615
Illinois,Christian,2381,24,56,0,2020-12-18,39.54581621,-89.27780482
Illinois,Clark,1053,8,22,0,2020-12-18,39.33425789,-87.78705622
Illinois,Clay,1130,9,33,2,2020-12-18,38.75388572,-88.48914513
Illinois,Clinton,4117,47,77,0,2020-12-18,38.60704876,-89.42385254
Illinois,Coles,3936,27,67,0,2020-12-18,39.51949084,-88.22358557
Illinois,Cook,366020,2759,7654,80,2020-12-18,41.84144849,-87.81658794
Illinois,Crawford,1433,9,25,0,2020-12-18,39.0032229,-87.75954624
Illinois,Cumberland,853,6,24,1,2020-12-18,39.27432424,-88.2401158
Illinois,DeKalb,6155,66,66,2,2020-12-18,41.89373302,-88.76958483
Illinois,De Witt,802,8,23,0,2020-12-18,40.17514519,-88.90959682
Illinois,Douglas,1680,22,23,1,2020-12-18,39.76768052,-88.21854195
Illinois,DuPage,56881,369,935,7,2020-12-18,41.85116968,-88.08642662
Illinois,Edgar,1219,22,33,3,2020-12-18,39.6809186,-87.74759563
Illinois,Edwards,341,3,6,1,2020-12-18,38.41353228,-88.05720863
Illinois,Effingham,3563,30,49,1,2020-12-18,39.05935711,-88.58969584
Illinois,Fayette,2480,17,45,1,2020-12-18,39.00072038,-89.02452658
Illinois,Ford,1082,26,37,4,2020-12-18,40.59706922,-88.22350769
Illinois,Franklin,2847,41,42,0,2020-12-18,37.99189086,-88.92567818
Illinois,Fulton,2030,33,24,1,2020-12-18,40.47289135,-90.20862357
Illinois,Gallatin,268,6,4,0,2020-12-18,37.76430935,-88.22953869
Illinois,Greene,1053,6,40,1,2020-12-18,39.35907414,-90.388865
Illinois,Grundy,3552,30,38,1,2020-12-18,41.28569601,-88.41905692
Illinois,Hamilton,523,11,8,0,2020-12-18,38.08163641,-88.53883373
Illinois,Hancock,1183,11,25,4,2020-12-18,40.40423981,-91.16313899
Illinois,Hardin,188,3,5,0,2020-12-18,37.51810645,-88.26873022
Illinois,Henderson,368,1,5,0,2020-12-18,40.81908672,-90.92491462
Illinois,Henry,3391,9,46,3,2020-12-18,41.3533994,-90.13296166
Illinois,Iroquois,2152,18,44,2,2020-12-18,40.74717633,-87.82466784
Illinois,Jackson,3334,21,50,0,2020-12-18,37.78595185,-89.38232563
Illinois,Jasper,829,7,14,1,2020-12-18,39.01054275,-88.15437049
Illinois,Jefferson,2555,38,72,3,2020-12-18,38.29980057,-88.9240025
Illinois,Jersey,1740,17,33,1,2020-12-18,39.08869046,-90.35393073
Illinois,Jo Daviess,1304,28,24,0,2020-12-18,42.36542373,-90.21094405
Illinois,Johnson,897,6,13,0,2020-12-18,37.45939802,-88.88165419
Illinois,Kane,38407,327,559,4,2020-12-18,41.93842729,-88.42861412
Illinois,Kankakee,10117,39,145,3,2020-12-18,41.13746989,-87.86205334
Illinois,Kendall,7755,60,68,1,2020-12-18,41.59081014,-88.42869583
Illinois,Knox,3634,35,107,1,2020-12-18,40.93148779,-90.21330340000002
Illinois,Lake,44858,325,747,12,2020-12-18,42.3224907,-88.00367925
Illinois,LaSalle,7727,48,192,3,2020-12-18,41.34426129999999,-88.88633881
Illinois,Lawrence,1558,47,23,1,2020-12-18,38.71987914,-87.72884035
Illinois,Lee,2481,31,61,1,2020-12-18,41.74583951,-89.29977132
Illinois,Livingston,2860,20,55,3,2020-12-18,40.89188292,-88.55784752
Illinois,Logan,2499,29,42,3,2020-12-18,40.12581572,-89.36638784
Illinois,McDonough,1849,9,46,0,2020-12-18,40.45674722,-90.67775541
Illinois,McHenry,17380,194,192,2,2020-12-18,42.32451172,-88.45248227
Illinois,McLean,10580,110,90,2,2020-12-18,40.48996987,-88.84621113
Illinois,Macon,7536,34,160,0,2020-12-18,39.86064913,-88.96342505
Illinois,Macoupin,2952,37,56,1,2020-12-18,39.26119767,-89.92424028
Illinois,Madison,18933,226,350,4,2020-12-18,38.83042506,-89.90422563
Illinois,Marion,3209,27,96,3,2020-12-18,38.64963204,-88.91899208
Illinois,Marshall,532,5,8,0,2020-12-18,41.0327901,-89.34510444
Illinois,Mason,896,5,34,0,2020-12-18,40.23917274,-89.91824452
Illinois,Massac,800,8,21,0,2020-12-18,37.22078441,-88.71036614
Illinois,Menard,659,4,6,0,2020-12-18,40.02742725,-89.80246001
Illinois,Mercer,996,6,23,0,2020-12-18,41.20596782,-90.74290052
Illinois,Monroe,2729,32,56,0,2020-12-18,38.27594376,-90.17761038
Illinois,Montgomery,1587,32,21,0,2020-12-18,39.23198845,-89.47809254
Illinois,Morgan,2777,14,71,2,2020-12-18,39.71654544,-90.20255104
Illinois,Moultrie,1141,13,19,2,2020-12-18,39.64187451,-88.62099969
Illinois,Ogle,3691,32,58,2,2020-12-18,42.04165196,-89.32184679
Illinois,Peoria,11934,121,172,3,2020-12-18,40.78702156,-89.76078901
Illinois,Perry,1554,16,46,0,2020-12-18,38.08510853,-89.36856219
Illinois,Piatt,948,11,6,0,2020-12-18,40.01360584,-88.59319339
Illinois,Pike,1242,10,35,0,2020-12-18,39.62265059,-90.8877017
Illinois,Pope,161,2,1,0,2020-12-18,37.41391284,-88.56152109
Illinois,Pulaski,520,5,2,0,2020-12-18,37.22631423,-89.13085001
Illinois,Putnam,296,0,0,0,2020-12-18,41.2013541,-89.2869272
Illinois,Randolph,2938,27,33,0,2020-12-18,38.05095369,-89.82512254
Illinois,Richland,1145,22,27,1,2020-12-18,38.71240969,-88.08475366
Illinois,Rock Island,10255,76,216,5,2020-12-18,41.46613806,-90.57042164
Illinois,St. Clair,17212,126,321,2,2020-12-18,38.46996033,-89.93063427
Illinois,Saline,1495,23,34,0,2020-12-18,37.75332999,-88.54119706
Illinois,Sangamon,12422,79,162,5,2020-12-18,39.75836914,-89.65872023
Illinois,Schuyler,499,0,8,1,2020-12-18,40.1571798,-90.61114163
Illinois,Scott,289,0,1,0,2020-12-18,39.6429169,-90.47814431
Illinois,Shelby,1668,9,33,1,2020-12-18,39.39133527,-88.80611122
Illinois,Stark,409,2,14,1,2020-12-18,41.09309773,-89.79745866
Illinois,Stephenson,3013,24,52,1,2020-12-18,42.35129217,-89.662598
Illinois,Tazewell,9118,99,158,4,2020-12-18,40.50716185,-89.51404662
Illinois,Union,1490,13,30,1,2020-12-18,37.47119609,-89.25548938
Illinois,Vermilion,5489,270,79,0,2020-12-18,40.18417171,-87.73384359
Illinois,Wabash,924,10,10,0,2020-12-18,38.44272901,-87.84922065
Illinois,Warren,1376,13,30,2,2020-12-18,40.84925021,-90.6147432
Illinois,Washington,1061,16,14,0,2020-12-18,38.35309213,-89.40982703
Illinois,Wayne,1199,29,39,1,2020-12-18,38.42955355,-88.42586459
Illinois,White,954,21,18,1,2020-12-18,38.08706198,-88.17657461
Illinois,Whiteside,4429,51,152,1,2020-12-18,41.75509713,-89.91556058
Illinois,Will,48272,373,705,7,2020-12-18,41.44619267,-87.97862712
Illinois,Williamson,4679,52,105,1,2020-12-18,37.73033511,-88.92994027
Illinois,Winnebago,22663,175,335,2,2020-12-18,42.33641854,-89.16085327
Illinois,Woodford,2454,26,43,3,2020-12-18,40.78579374,-89.20973757
Indiana,Adams,2390,28,28,0,2020-12-18,40.7457653,-84.93671406
Indiana,Allen,25241,182,421,0,2020-12-18,41.09194313,-85.06800636
Indiana,Bartholomew,4876,73,77,1,2020-12-18,39.20744865,-85.89558181
Indiana,Benton,676,20,3,0,2020-12-18,40.60626947,-87.31093999
Indiana,Blackford,806,4,21,0,2020-12-18,40.47388153,-85.32499702
Indiana,Boone,3798,61,57,0,2020-12-18,40.0509304,-86.46841646
Indiana,Brown,594,20,8,0,2020-12-18,39.19605589,-86.22868909
Indiana,Carroll,1121,14,14,0,2020-12-18,40.580783200000006,-86.56198812
Indiana,Cass,3832,39,36,0,2020-12-18,40.76135835,-86.34830753
Indiana,Clark,7246,85,100,0,2020-12-18,38.48015445,-85.70510334
Indiana,Clay,1669,10,29,0,2020-12-18,39.39561833,-87.11723506
Indiana,Clinton,2789,33,30,0,2020-12-18,40.30319754,-86.47277257
Indiana,Crawford,511,5,6,0,2020-12-18,38.28814402,-86.44518825
Indiana,Daviess,2077,14,62,0,2020-12-18,38.70186039,-87.07185406
Indiana,Dearborn,3304,52,38,0,2020-12-18,39.14647946,-84.97333539
Indiana,Decatur,1889,39,60,2,2020-12-18,39.30712658,-85.50087166
Indiana,DeKalb,2668,20,47,0,2020-12-18,41.39804622,-84.99906934
Indiana,Delaware,6892,47,121,0,2020-12-18,40.22787247,-85.39732772
Indiana,Dubois,3777,74,36,1,2020-12-18,38.36597551,-86.87924170000002
Indiana,Elkhart,21440,148,291,4,2020-12-18,41.59761169,-85.85875695
Indiana,Fayette,1963,15,42,0,2020-12-18,39.63684962,-85.17797541
Indiana,Floyd,4450,44,85,0,2020-12-18,38.32117957,-85.90385377
Indiana,Fountain,1316,20,19,0,2020-12-18,40.12361933,-87.24217689
Indiana,Franklin,1057,22,28,0,2020-12-18,39.4142482,-85.06062647
Indiana,Fulton,1253,19,23,1,2020-12-18,41.0469907,-86.26252745
Indiana,Gibson,2690,19,49,1,2020-12-18,38.30393723,-87.58054938
Indiana,Grant,4341,85,80,0,2020-12-18,40.51587228,-85.65468702
Indiana,Greene,1654,32,55,0,2020-12-18,39.03630547,-86.96223202
Indiana,Hamilton,20584,400,231,1,2020-12-18,40.07306535,-86.05244729
Indiana,Hancock,4407,76,76,1,2020-12-18,39.82304555,-85.77566351
Indiana,Harrison,2211,54,29,0,2020-12-18,38.19467379,-86.10948271
Indiana,Hendricks,9674,144,189,2,2020-12-18,39.76719009,-86.51037283
Indiana,Henry,3602,48,47,1,2020-12-18,39.93029017,-85.39625719
Indiana,Howard,5797,141,101,9,2020-12-18,40.48527731,-86.11351892
Indiana,Huntington,2069,10,21,2,2020-12-18,40.82907273,-85.48822092
Indiana,Jackson,3413,49,41,0,2020-12-18,38.90915820000001,-86.03851889
Indiana,Jasper,2189,31,26,1,2020-12-18,41.02078733,-87.11553319
Indiana,Jay,1414,7,20,0,2020-12-18,40.43781032,-85.00576229
Indiana,Jefferson,1839,11,26,2,2020-12-18,38.78576239,-85.43633383
Indiana,Jennings,1513,23,25,0,2020-12-18,38.99588883,-85.62710784
Indiana,Johnson,10274,162,204,1,2020-12-18,39.48994426,-86.10149107
Indiana,Knox,2655,27,34,0,2020-12-18,38.68861576,-87.4194665
Indiana,Kosciusko,6205,22,63,0,2020-12-18,41.24521668,-85.86312322
Indiana,LaGrange,1886,14,42,0,2020-12-18,41.64232188,-85.42674232
Indiana,Lake,36329,359,545,7,2020-12-18,41.41874274,-87.38277575
Indiana,LaPorte,6555,114,120,2,2020-12-18,41.54366008,-86.74072188
Indiana,Lawrence,2772,44,57,1,2020-12-18,38.84112637,-86.48361629
Indiana,Madison,7729,108,154,3,2020-12-18,40.16143691,-85.71964711
Indiana,Marion,62368,992,1025,7,2020-12-18,39.78163624,-86.13826325
Indiana,Marshall,4170,49,62,0,2020-12-18,41.32467367,-86.26185087
Indiana,Martin,501,2,11,0,2020-12-18,38.7099921,-86.80373186
Indiana,Miami,2422,26,23,0,2020-12-18,40.76940965,-86.04525048
Indiana,Monroe,7346,110,79,0,2020-12-18,39.16130004,-86.52414358
Indiana,Montgomery,2447,25,38,1,2020-12-18,40.04034823,-86.89335024
Indiana,Morgan,3692,85,66,3,2020-12-18,39.47899078,-86.44573375
Indiana,Newton,768,7,18,0,2020-12-18,40.95610449,-87.39635768
Indiana,Noble,3590,41,52,0,2020-12-18,41.39672484,-85.41966713
Indiana,Ohio,323,16,7,0,2020-12-18,38.955305,-84.96515993
Indiana,Orange,1024,12,29,1,2020-12-18,38.54118920000001,-86.49523093
Indiana,Owen,1106,17,18,1,2020-12-18,39.31145587,-86.83900724
Indiana,Parke,1057,11,7,0,2020-12-18,39.77202286,-87.20375833
Indiana,Perry,1061,18,21,0,2020-12-18,38.07809328,-86.63741946
Indiana,Pike,772,12,23,0,2020-12-18,38.40112197,-87.23574907
Indiana,Porter,11371,170,122,1,2020-12-18,41.45986947,-87.06848888
Indiana,Posey,1642,23,24,0,2020-12-18,38.02097333,-87.86480429
Indiana,Pulaski,727,27,29,1,2020-12-18,41.04166107,-86.69890683
Indiana,Putnam,2102,59,34,0,2020-12-18,39.66437981,-86.84517605
Indiana,Randolph,1714,19,30,0,2020-12-18,40.15734772,-85.01139319
Indiana,Ripley,2161,29,36,2,2020-12-18,39.10235626,-85.26212744
Indiana,Rush,972,29,10,0,2020-12-18,39.62002287,-85.4655599
Indiana,St. Joseph,22478,171,299,2,2020-12-18,41.61756781,-86.29040834
Indiana,Scott,1706,19,33,0,2020-12-18,38.68672078,-85.74627859
Indiana,Shelby,2955,30,68,0,2020-12-18,39.52305623,-85.79158570000001
Indiana,Spencer,1226,22,10,0,2020-12-18,38.01519732,-87.0079644
Indiana,Starke,1388,30,34,1,2020-12-18,41.27890281,-86.64686895
Indiana,Steuben,2223,36,16,0,2020-12-18,41.64423868,-85.00101094
Indiana,Sullivan,1476,9,22,0,2020-12-18,39.08952258,-87.41414469
Indiana,Switzerland,415,10,5,0,2020-12-18,38.82767338,-85.03022429
Indiana,Tippecanoe,13239,159,64,11,2020-12-18,40.38872739,-86.89413959
Indiana,Tipton,928,27,29,0,2020-12-18,40.31123252,-86.05234925
Indiana,Union,406,10,2,0,2020-12-18,39.62550777,-84.92497066
Indiana,Vanderburgh,13449,197,174,2,2020-12-18,38.02658833,-87.58763124
Indiana,Vermillion,1040,21,24,1,2020-12-18,39.8523352,-87.46160542
Indiana,Vigo,8277,101,132,3,2020-12-18,39.42944561,-87.39169027
Indiana,Wabash,2399,14,36,0,2020-12-18,40.84704239,-85.79328272
Indiana,Warren,438,7,7,0,2020-12-18,40.34728141,-87.35602659
Indiana,Warrick,4518,78,84,2,2020-12-18,38.08922676,-87.2716085
Indiana,Washington,1220,23,12,0,2020-12-18,38.60219804,-86.1049363
Indiana,Wayne,4664,38,127,2,2020-12-18,39.8633444,-85.01044989
Indiana,Wells,1765,26,43,0,2020-12-18,40.72934187,-85.22132966
Indiana,White,1985,51,25,0,2020-12-18,40.74911165,-86.86492015
Indiana,Whitley,2171,23,17,0,2020-12-18,41.13863784,-85.50791236
Iowa,Adair,538,12,16,0,2020-12-18,41.33075609,-94.47105874
Iowa,Adams,224,5,2,0,2020-12-18,41.02903567,-94.69932645
Iowa,Allamakee,1067,11,18,0,2020-12-18,43.28383218,-91.37860922
Iowa,Appanoose,898,10,34,0,2020-12-18,40.74324454,-92.86865906
Iowa,Audubon,342,2,7,0,2020-12-18,41.6844628,-94.90581859
Iowa,Benton,1917,16,34,0,2020-12-18,42.08011739,-92.06463573
Iowa,Black Hawk,12114,110,200,0,2020-12-18,42.4704581,-92.30524729
Iowa,Boone,1707,25,14,0,2020-12-18,42.03657094,-93.9313999
Iowa,Bremer,2169,14,40,0,2020-12-18,42.77461496,-92.31795937
Iowa,Buchanan,1360,11,15,0,2020-12-18,42.4709188,-91.83510825
Iowa,Buena Vista,3502,37,21,0,2020-12-18,42.73545875,-95.15100162
Iowa,Butler,1178,6,15,0,2020-12-18,42.73172833,-92.79015971
Iowa,Calhoun,1153,4,9,0,2020-12-18,42.38521079,-94.64046046
Iowa,Carroll,2237,9,27,0,2020-12-18,42.03617207,-94.86032705
Iowa,Cass,972,13,38,0,2020-12-18,41.33149454,-94.92792482
Iowa,Cedar,1297,18,17,0,2020-12-18,41.77233777,-91.13246684
Iowa,Cerro Gordo,4127,42,55,0,2020-12-18,43.08177563,-93.2612239
Iowa,Cherokee,1130,11,18,0,2020-12-18,42.73538914,-95.62389402
Iowa,Chickasaw,988,9,10,0,2020-12-18,43.06001295,-92.31773347
Iowa,Clarke,578,7,6,0,2020-12-18,41.02868181,-93.78499767
Iowa,Clay,1467,12,10,0,2020-12-18,43.08247182,-95.15096481
Iowa,Clayton,1289,4,31,0,2020-12-18,42.84443388,-91.34133693
Iowa,Clinton,3896,33,52,0,2020-12-18,41.89981633,-90.53275096
Iowa,Crawford,1996,15,16,0,2020-12-18,42.03718237,-95.3819718
Iowa,Dallas,7414,73,60,0,2020-12-18,41.68560356,-94.04127625
Iowa,Davis,597,12,15,0,2020-12-18,40.74773536,-92.41005468
Iowa,Decatur,392,4,3,0,2020-12-18,40.73742757,-93.78645949
Iowa,Delaware,1572,7,27,0,2020-12-18,42.47104597,-91.3664492
Iowa,Des Moines,3344,21,29,0,2020-12-18,40.92012606,-91.18326592
Iowa,Dickinson,1626,15,13,0,2020-12-18,43.37787725,-95.1510206
Iowa,Dubuque,10193,45,129,0,2020-12-18,42.46815349,-90.88181925
Iowa,Emmet,909,9,23,0,2020-12-18,43.37782951,-94.67858943
Iowa,Fayette,1226,15,14,0,2020-12-18,42.86271799,-91.8441231
Iowa,Floyd,1227,8,28,0,2020-12-18,43.06000529999999,-92.78940097
Iowa,Franklin,840,13,17,0,2020-12-18,42.73270384,-93.26256925
Iowa,Fremont,438,5,5,0,2020-12-18,40.74542720000001,-95.60129045
Iowa,Greene,611,8,6,0,2020-12-18,42.03614551,-94.39658081
Iowa,Grundy,994,21,14,0,2020-12-18,42.40183723,-92.78829551
Iowa,Guthrie,875,8,22,0,2020-12-18,41.68378965,-94.50111014
Iowa,Hamilton,1376,23,21,0,2020-12-18,42.38382428,-93.70197703
Iowa,Hancock,1088,20,22,0,2020-12-18,43.08178477,-93.73454884
Iowa,Hardin,1376,21,22,0,2020-12-18,42.38353877,-93.23654611
Iowa,Harrison,1306,9,50,0,2020-12-18,41.68330137,-95.81558439
Iowa,Henry,2383,19,20,0,2020-12-18,40.98767962,-91.54436349
Iowa,Howard,654,9,15,0,2020-12-18,43.35671042,-92.31702714
Iowa,Humboldt,895,7,17,0,2020-12-18,42.7764426,-94.20722537
Iowa,Ida,659,10,19,0,2020-12-18,42.38696136,-95.51355387
Iowa,Iowa,1090,11,19,0,2020-12-18,41.68630265,-92.0643373
Iowa,Jackson,1706,9,25,0,2020-12-18,42.17178824,-90.57354837
Iowa,Jasper,2647,30,50,0,2020-12-18,41.68576082,-93.05567785
Iowa,Jefferson,879,9,18,0,2020-12-18,41.03192394,-91.94849466
Iowa,Johnson,10529,53,45,0,2020-12-18,41.67169354,-91.58754744
Iowa,Jones,2509,7,35,0,2020-12-18,42.12118609,-91.13139641
Iowa,Keokuk,750,7,18,0,2020-12-18,41.33649833,-92.1785067
Iowa,Kossuth,1423,13,24,0,2020-12-18,43.20405458,-94.20691791
Iowa,Lee,2673,28,23,0,2020-12-18,40.64181461,-91.48183025
Iowa,Linn,15842,157,228,0,2020-12-18,42.07923082,-91.59809485
Iowa,Louisa,992,9,23,0,2020-12-18,41.21842119,-91.26102611
Iowa,Lucas,454,13,6,0,2020-12-18,41.02958964,-93.32780803
Iowa,Lyon,1178,2,21,0,2020-12-18,43.38107862,-96.20926845
Iowa,Madison,872,18,8,0,2020-12-18,41.33081904,-94.01554631
Iowa,Mahaska,1566,51,32,0,2020-12-18,41.33521503,-92.64083907
Iowa,Marion,2459,46,34,0,2020-12-18,41.33445101,-93.09934783
Iowa,Marshall,3862,49,53,0,2020-12-18,42.03586837,-92.9990819
Iowa,Mills,1226,3,12,0,2020-12-18,41.03299766,-95.61920963
Iowa,Mitchell,945,18,20,0,2020-12-18,43.35638371,-92.78887719
Iowa,Monona,521,6,13,0,2020-12-18,42.05220391,-95.95743843
Iowa,Monroe,548,15,16,0,2020-12-18,41.02988815,-92.8690667
Iowa,Montgomery,666,8,13,0,2020-12-18,41.03018714,-95.15642896
Iowa,Muscatine,3384,24,69,0,2020-12-18,41.48370744,-91.1121697
Iowa,O'Brien,1500,9,48,0,2020-12-18,43.08310673,-95.62474482
Iowa,Osceola,599,1,5,0,2020-12-18,43.37824276,-95.62422844
Iowa,Page,1311,4,11,0,2020-12-18,40.7393172,-95.1497813
Iowa,Palo Alto,776,4,2,0,2020-12-18,43.08193849,-94.67824621
Iowa,Plymouth,3208,30,44,0,2020-12-18,42.737633,-96.21366621
Iowa,Pocahontas,668,6,6,0,2020-12-18,42.73420133,-94.67862564
Iowa,Polk,38897,379,385,0,2020-12-18,41.68679484,-93.57767461
Iowa,Pottawattamie,7730,89,83,0,2020-12-18,41.33640314,-95.53907776
Iowa,Poweshiek,1133,10,21,0,2020-12-18,41.68625425,-92.53155731
Iowa,Ringgold,334,1,6,0,2020-12-18,40.73518949,-94.24368535
Iowa,Sac,994,7,10,0,2020-12-18,42.38624071,-95.10547892
Iowa,Scott,13337,140,128,0,2020-12-18,41.63935978,-90.61959493
Iowa,Shelby,881,2,23,0,2020-12-18,41.6850066,-95.31015553
Iowa,Sioux,4166,28,40,0,2020-12-18,43.08221074,-96.1767568
Iowa,Story,7642,74,24,0,2020-12-18,42.03621213,-93.46499005
Iowa,Tama,1679,16,55,0,2020-12-18,42.07991767,-92.53266945
Iowa,Taylor,513,5,8,0,2020-12-18,40.73710579,-94.69778563
Iowa,Union,963,-3,13,0,2020-12-18,41.0277278,-94.24234847
Iowa,Van Buren,429,4,11,0,2020-12-18,40.75326764,-91.95017958
Iowa,Wapello,2941,36,89,0,2020-12-18,41.03064984,-92.40954728
Iowa,Warren,3442,39,26,0,2020-12-18,41.33559454,-93.56007641
Iowa,Washington,1720,30,26,0,2020-12-18,41.33577126,-91.71725711
Iowa,Wayne,346,6,21,0,2020-12-18,40.73969028,-93.32752197
Iowa,Webster,4208,49,53,0,2020-12-18,42.42853483,-94.17987389
Iowa,Winnebago,1060,6,27,0,2020-12-18,43.37751174,-93.73407298
Iowa,Winneshiek,1269,16,16,0,2020-12-18,43.29094334,-91.84422722
Iowa,Woodbury,11743,114,153,0,2020-12-18,42.38979414,-96.0459439
Iowa,Worth,463,7,2,0,2020-12-18,43.37750768,-93.26087602
Iowa,Wright,1454,11,13,0,2020-12-18,42.73305373,-93.73515113
Kansas,Allen,542,29,8,1,2020-12-18,37.88582951,-95.30030847
Kansas,Anderson,469,11,2,0,2020-12-18,38.21413251,-95.29272815
Kansas,Atchison,1144,45,10,0,2020-12-18,39.53185661,-95.30870026
Kansas,Barber,253,4,2,0,2020-12-18,37.2288586,-98.68460053
Kansas,Barton,2037,72,19,0,2020-12-18,38.47889676,-98.75636726
Kansas,Bourbon,799,37,8,5,2020-12-18,37.85508555,-94.84865997
Kansas,Brown,955,26,18,1,2020-12-18,39.82652589,-95.56421698
Kansas,Butler,4646,166,18,0,2020-12-18,37.78134351,-96.83878537
Kansas,Chase,215,0,3,0,2020-12-18,38.30292938,-96.59563862
Kansas,Chautauqua,127,6,3,0,2020-12-18,37.14994405,-96.2454192
Kansas,Cherokee,1509,28,12,0,2020-12-18,37.16928494,-94.8462897
Kansas,Cheyenne,253,10,10,0,2020-12-18,39.78580976,-101.7318201
Kansas,Clark,180,4,5,0,2020-12-18,37.23577007,-99.81883015
Kansas,Clay,572,19,17,0,2020-12-18,39.34948772,-97.16518128
Kansas,Cloud,802,12,19,0,2020-12-18,39.48028352,-97.64925343
Kansas,Coffey,449,34,10,0,2020-12-18,38.2365018,-95.73379515
Kansas,Comanche,134,10,4,2,2020-12-18,37.19114520000001,-99.27113247
Kansas,Cowley,2202,73,37,4,2020-12-18,37.23781842,-96.83776647
Kansas,Crawford,3048,107,26,2,2020-12-18,37.50675523,-94.85245778
Kansas,Decatur,228,5,1,0,2020-12-18,39.78468441,-100.4594081
Kansas,Dickinson,1042,38,14,0,2020-12-18,38.86600962,-97.15532383
Kansas,Doniphan,632,25,5,0,2020-12-18,39.79067154,-95.14056866
Kansas,Douglas,5859,62,31,0,2020-12-18,38.88503636,-95.2925121
Kansas,Edwards,227,5,8,0,2020-12-18,37.88735543,-99.31263309
Kansas,Elk,87,3,0,0,2020-12-18,37.45338105,-96.24369667
Kansas,Ellis,3066,131,31,1,2020-12-18,38.91458712,-99.31751551
Kansas,Ellsworth,983,29,4,0,2020-12-18,38.69677695,-98.20462799
Kansas,Finney,5312,17,34,0,2020-12-18,38.04340344,-100.7381938
Kansas,Ford,4989,41,43,2,2020-12-18,37.69200114,-99.88825298
Kansas,Franklin,1486,33,17,0,2020-12-18,38.56443815,-95.28644341
Kansas,Geary,1528,51,9,1,2020-12-18,38.99871131,-96.7577178
Kansas,Gove,325,9,20,0,2020-12-18,38.91588178,-100.4829321
Kansas,Graham,196,6,3,1,2020-12-18,39.34987223,-99.88332493
Kansas,Grant,889,9,14,0,2020-12-18,37.56227336,-101.3079758
Kansas,Gray,508,56,7,3,2020-12-18,37.73836671,-100.4369088
Kansas,Greeley,90,1,1,0,2020-12-18,38.4808095,-101.8061079
Kansas,Greenwood,373,0,2,0,2020-12-18,37.8774388,-96.23250453
Kansas,Hamilton,177,2,0,0,2020-12-18,37.99978709,-101.7921066
Kansas,Harper,391,13,15,0,2020-12-18,37.19175361,-98.07578384
Kansas,Harvey,2316,90,23,0,2020-12-18,38.04293782,-97.42747573
Kansas,Haskell,345,12,1,0,2020-12-18,37.5620394,-100.8710738
Kansas,Hodgeman,157,2,4,0,2020-12-18,38.08780079,-99.89829881
Kansas,Jackson,962,46,10,0,2020-12-18,39.41673394,-95.79356799
Kansas,Jefferson,1017,55,9,0,2020-12-18,39.2347941,-95.38289232
Kansas,Jewell,133,0,2,0,2020-12-18,39.78470589,-98.21820662
Kansas,Johnson,35086,1122,383,2,2020-12-18,38.88548175,-94.82250877
Kansas,Kearny,465,7,8,0,2020-12-18,38.00017981,-101.321681
Kansas,Kingman,519,28,7,2,2020-12-18,37.55909527,-98.13638678
Kansas,Kiowa,133,2,1,0,2020-12-18,37.55848695,-99.2856537
Kansas,Labette,1501,94,7,0,2020-12-18,37.19113093,-95.29849679
Kansas,Lane,113,0,3,0,2020-12-18,38.48119447,-100.4660754
Kansas,Leavenworth,4698,145,36,0,2020-12-18,39.20183497,-95.03620809
Kansas,Lincoln,172,19,1,0,2020-12-18,39.04549684,-98.20756994
Kansas,Linn,438,17,3,1,2020-12-18,38.21267844,-94.84254089
Kansas,Logan,265,1,5,0,2020-12-18,38.91735806,-101.148475
Kansas,Lyon,3168,88,55,0,2020-12-18,38.45576156,-96.15275715
Kansas,McPherson,2187,221,22,8,2020-12-18,38.39184858,-97.64769869
Kansas,Marion,590,8,5,4,2020-12-18,38.35855394,-97.0985251
Kansas,Marshall,781,29,21,3,2020-12-18,39.78359669,-96.52278974
Kansas,Meade,365,4,4,0,2020-12-18,37.23859987,-100.364831
Kansas,Miami,1514,58,7,0,2020-12-18,38.56383358,-94.83832189
Kansas,Mitchell,353,12,2,0,2020-12-18,39.39331582,-98.20906732
Kansas,Montgomery,1782,111,20,2,2020-12-18,37.19236568,-95.74329258
Kansas,Morris,339,0,9,0,2020-12-18,38.68827511,-96.65128437
Kansas,Morton,195,0,8,0,2020-12-18,37.19141121,-101.79925190000002
Kansas,Nemaha,1285,24,43,0,2020-12-18,39.78345387,-96.01392079
Kansas,Neosho,1006,0,9,0,2020-12-18,37.55862897,-95.30670046
Kansas,Ness,323,23,14,1,2020-12-18,38.47974157,-99.91547333
Kansas,Norton,1151,5,24,0,2020-12-18,39.78443827,-99.90286639
Kansas,Osage,729,49,6,0,2020-12-18,38.65235984,-95.72707998
Kansas,Osborne,163,9,1,0,2020-12-18,39.3503437,-98.76753828
Kansas,Ottawa,371,20,8,0,2020-12-18,39.13237408,-97.65020313
Kansas,Pawnee,888,16,5,0,2020-12-18,38.18108732,-99.23692334
Kansas,Phillips,549,13,12,0,2020-12-18,39.78465501,-99.34668865
Kansas,Pottawatomie,908,42,3,0,2020-12-18,39.37925655,-96.34564657
Kansas,Pratt,638,17,17,0,2020-12-18,37.64780729,-98.73922153
Kansas,Rawlins,285,0,3,0,2020-12-18,39.78525843,-101.0761617
Kansas,Reno,6538,161,84,3,2020-12-18,37.95230263,-98.08607292
Kansas,Republic,509,0,9,0,2020-12-18,39.82799632,-97.65036709
Kansas,Rice,685,36,3,1,2020-12-18,38.34616184,-98.19992118
Kansas,Riley,4494,98,19,0,2020-12-18,39.28935726,-96.73420026
Kansas,Rooks,446,0,9,0,2020-12-18,39.35022773,-99.32484567
Kansas,Rush,323,6,5,0,2020-12-18,38.52275276,-99.30863983
Kansas,Russell,683,0,17,0,2020-12-18,38.91462787,-98.76254297
Kansas,Saline,3718,197,46,0,2020-12-18,38.78369175,-97.65185177
Kansas,Scott,535,7,9,0,2020-12-18,38.48222076,-100.9066539
Kansas,Sedgwick,35106,858,236,0,2020-12-18,37.6842718,-97.4608198
Kansas,Seward,3417,24,16,1,2020-12-18,37.19324632,-100.8507201
Kansas,Shawnee,10393,267,190,3,2020-12-18,39.04100763,-95.7557264
Kansas,Sheridan,360,8,7,0,2020-12-18,39.35018161,-100.4418259
Kansas,Sherman,527,5,7,0,2020-12-18,39.35147699,-101.7197624
Kansas,Smith,190,3,1,0,2020-12-18,39.78516566,-98.78566062
Kansas,Stafford,256,7,7,2,2020-12-18,38.03100851,-98.71762001
Kansas,Stanton,157,2,5,3,2020-12-18,37.56304714,-101.7843534
Kansas,Stevens,489,1,5,0,2020-12-18,37.1923008,-101.3118967
Kansas,Sumner,1176,33,12,0,2020-12-18,37.23682549,-97.47721621
Kansas,Thomas,863,3,6,0,2020-12-18,39.35107575,-101.0553705
Kansas,Trego,275,2,6,0,2020-12-18,38.91467218,-99.87284448
Kansas,Wabaunsee,369,13,7,5,2020-12-18,38.95471985,-96.20350509
Kansas,Wallace,158,0,1,0,2020-12-18,38.91686134,-101.7638876
Kansas,Washington,388,13,8,0,2020-12-18,39.78420784,-97.0875323
Kansas,Wichita,178,2,5,1,2020-12-18,38.48178252,-101.3471509
Kansas,Wilson,537,17,5,0,2020-12-18,37.55937174,-95.74323255
Kansas,Woodson,96,2,2,0,2020-12-18,37.8865336,-95.74006277
Kansas,Wyandotte,14105,271,189,2,2020-12-18,39.11727348,-94.76378225
Kentucky,Adair,1103,17,36,0,2020-12-18,37.10459774,-85.28129668
Kentucky,Allen,977,10,15,0,2020-12-18,36.75197631,-86.19457544
Kentucky,Anderson,790,12,1,0,2020-12-18,38.00671029,-84.99171713
Kentucky,Ballard,206,3,2,0,2020-12-18,37.05842757,-88.99427697
Kentucky,Barren,2351,13,34,0,2020-12-18,36.96469836,-85.93338945
Kentucky,Bath,438,37,2,0,2020-12-18,38.14735938,-83.74588932
Kentucky,Bell,1607,21,22,0,2020-12-18,36.73355174,-83.67766671
Kentucky,Boone,6619,85,35,0,2020-12-18,38.97065142,-84.72615357
Kentucky,Bourbon,770,33,1,0,2020-12-18,38.2054607,-84.21827874
Kentucky,Boyd,2702,31,30,1,2020-12-18,38.36176608,-82.68652187
Kentucky,Boyle,1638,29,0,0,2020-12-18,37.62680923,-84.8633779
Kentucky,Bracken,242,6,3,0,2020-12-18,38.69158994,-84.08532444
Kentucky,Breathitt,501,9,3,0,2020-12-18,37.52333168,-83.31959161
Kentucky,Breckinridge,561,6,4,0,2020-12-18,37.77377239,-86.42885017
Kentucky,Bullitt,3745,41,27,0,2020-12-18,37.97162523,-85.68955617
Kentucky,Butler,717,11,16,0,2020-12-18,37.20946153,-86.68748787
Kentucky,Caldwell,825,3,13,0,2020-12-18,37.14749129,-87.86948214
Kentucky,Calloway,2111,6,19,0,2020-12-18,36.62093411,-88.2731593
Kentucky,Campbell,3938,42,22,0,2020-12-18,38.94384345,-84.37875208
Kentucky,Carlisle,268,3,1,0,2020-12-18,36.85372876,-88.96692220000001
Kentucky,Carroll,493,19,7,0,2020-12-18,38.66599534,-85.12601074
Kentucky,Carter,1123,27,5,0,2020-12-18,38.31690743,-83.05092385
Kentucky,Casey,736,14,20,0,2020-12-18,37.32533118,-84.92726209
Kentucky,Christian,3679,29,48,2,2020-12-18,36.89267803,-87.49055367
Kentucky,Clark,1296,30,14,1,2020-12-18,37.9689263,-84.14615986
Kentucky,Clay,1325,31,8,0,2020-12-18,37.16451126,-83.712575
Kentucky,Clinton,665,24,12,0,2020-12-18,36.72581156,-85.13377529
Kentucky,Crittenden,312,1,3,0,2020-12-18,37.35839237,-88.08826090000002
Kentucky,Cumberland,353,10,2,0,2020-12-18,36.78926125,-85.39050034
Kentucky,Daviess,4996,76,61,0,2020-12-18,37.73028906,-87.09019479999998
Kentucky,Edmonson,496,7,13,0,2020-12-18,37.21218923,-86.23955613
Kentucky,Elliott,743,8,1,0,2020-12-18,38.11624059,-83.09771563
Kentucky,Estill,590,3,0,0,2020-12-18,37.69241417,-83.95956369
Kentucky,Fayette,21489,185,132,1,2020-12-18,38.0368225,-84.45576892
Kentucky,Fleming,584,6,1,0,2020-12-18,38.36758311,-83.69657514
Kentucky,Floyd,1631,28,9,0,2020-12-18,37.56213922,-82.74750924
Kentucky,Franklin,1921,34,17,0,2020-12-18,38.2379395,-84.87962551
Kentucky,Fulton,338,2,4,0,2020-12-18,36.55238827,-89.20140068
Kentucky,Gallatin,407,5,9,0,2020-12-18,38.75398691,-84.8558382
Kentucky,Garrard,848,9,4,0,2020-12-18,37.6388668,-84.53289319
Kentucky,Grant,1069,30,6,0,2020-12-18,38.64962758,-84.62415957
Kentucky,Graves,2314,14,43,1,2020-12-18,36.72292505,-88.65143315
Kentucky,Grayson,1163,13,27,0,2020-12-18,37.46231118,-86.34248968
Kentucky,Green,667,19,10,0,2020-12-18,37.26484328,-85.5540745
Kentucky,Greenup,1967,43,18,1,2020-12-18,38.54332505,-82.9215658
Kentucky,Hancock,384,8,9,0,2020-12-18,37.83766422,-86.78280584
Kentucky,Hardin,5453,44,39,1,2020-12-18,37.6976111,-85.96319251
Kentucky,Harlan,1333,9,16,0,2020-12-18,36.85699301,-83.21899516
Kentucky,Harrison,638,7,1,0,2020-12-18,38.44188174,-84.32869741
Kentucky,Hart,1150,22,5,0,2020-12-18,37.29943898,-85.88461055
Kentucky,Henderson,2613,45,40,0,2020-12-18,37.79344553,-87.57392021
Kentucky,Henry,708,12,3,0,2020-12-18,38.44942688,-85.11587507
Kentucky,Hickman,215,2,3,0,2020-12-18,36.67948079999999,-88.97875928
Kentucky,Hopkins,2357,34,65,2,2020-12-18,37.30939025,-87.54670406
Kentucky,Jackson,771,4,18,0,2020-12-18,37.41866422,-83.99825483
Kentucky,Jefferson,46556,447,501,6,2020-12-18,38.18664655,-85.65931031
Kentucky,Jessamine,2403,24,41,0,2020-12-18,37.87119786,-84.58252003
Kentucky,Johnson,1016,0,13,1,2020-12-18,37.85106355,-82.8264322
Kentucky,Kenton,7549,151,65,1,2020-12-18,38.93950319,-84.53241199
Kentucky,Knott,676,4,11,0,2020-12-18,37.35388197,-82.94981134
Kentucky,Knox,1549,26,10,0,2020-12-18,36.89225732,-83.85403396
Kentucky,Larue,741,8,3,1,2020-12-18,37.54567114,-85.70138352
Kentucky,Laurel,3176,49,12,0,2020-12-18,37.10975748,-84.11321779
Kentucky,Lawrence,601,9,4,0,2020-12-18,38.07136018,-82.72882223
Kentucky,Lee,1014,2,18,1,2020-12-18,37.59645942,-83.71513901
Kentucky,Leslie,403,8,1,0,2020-12-18,37.09246661,-83.37999606
Kentucky,Letcher,814,27,3,1,2020-12-18,37.12306748,-82.85346474
Kentucky,Lewis,665,12,22,0,2020-12-18,38.53184419,-83.37735618
Kentucky,Lincoln,1236,29,21,0,2020-12-18,37.45475628,-84.6565327
Kentucky,Livingston,428,2,4,0,2020-12-18,37.21137452,-88.34797529
Kentucky,Logan,1528,19,37,0,2020-12-18,36.85949479,-86.877635
Kentucky,Lyon,269,1,5,0,2020-12-18,37.02080035,-88.07886257
Kentucky,McCracken,3910,29,36,2,2020-12-18,37.05350953,-88.70445755
Kentucky,McCreary,844,37,1,0,2020-12-18,36.73874143,-84.48102924
Kentucky,McLean,497,2,20,0,2020-12-18,37.5301951,-87.26803443
Kentucky,Madison,5238,32,26,1,2020-12-18,37.71659336,-84.27220275
Kentucky,Magoffin,670,0,1,0,2020-12-18,37.70820545,-83.0657714
Kentucky,Marion,1417,18,16,0,2020-12-18,37.55218078,-85.26898542
Kentucky,Marshall,1303,28,19,1,2020-12-18,36.88007070000001,-88.32803576
Kentucky,Martin,593,7,10,0,2020-12-18,37.79990579,-82.51247478
Kentucky,Mason,810,21,11,1,2020-12-18,38.59471935,-83.82151043
Kentucky,Meade,972,11,4,0,2020-12-18,37.96163597,-86.21028219
Kentucky,Menifee,153,0,1,0,2020-12-18,37.94090733,-83.59985712
Kentucky,Mercer,1166,25,6,0,2020-12-18,37.81474237,-84.87488475
Kentucky,Metcalfe,550,5,7,0,2020-12-18,36.99459295,-85.63123699
Kentucky,Monroe,868,3,19,0,2020-12-18,36.71225341,-85.71596443
Kentucky,Montgomery,1256,19,12,0,2020-12-18,38.03253032,-83.9145241
Kentucky,Morgan,452,2,0,0,2020-12-18,37.92465657,-83.25558245
Kentucky,Muhlenberg,1719,17,24,0,2020-12-18,37.21425819,-87.14632053
Kentucky,Nelson,2621,23,17,0,2020-12-18,37.80335779,-85.4657193
Kentucky,Nicholas,222,5,3,0,2020-12-18,38.33342292,-84.01889177
Kentucky,Ohio,1358,14,22,0,2020-12-18,37.47751843,-86.85368087
Kentucky,Oldham,3328,78,47,0,2020-12-18,38.39791089,-85.448222
Kentucky,Owen,336,4,3,0,2020-12-18,38.51679143,-84.82404619
Kentucky,Owsley,267,1,4,0,2020-12-18,37.42823949,-83.68811419
Kentucky,Pendleton,553,10,1,0,2020-12-18,38.69607718,-84.35599463
Kentucky,Perry,1429,14,11,0,2020-12-18,37.25023553,-83.22922731
Kentucky,Pike,2489,64,30,0,2020-12-18,37.47088263,-82.39487445
Kentucky,Powell,625,12,0,0,2020-12-18,37.83218794,-83.82553961
Kentucky,Pulaski,3090,149,22,0,2020-12-18,37.10466131,-84.57629079
Kentucky,Robertson,123,11,5,0,2020-12-18,38.51923469,-84.05055616
Kentucky,Rockcastle,745,9,7,0,2020-12-18,37.36642393,-84.31176452
Kentucky,Rowan,1067,7,2,0,2020-12-18,38.19484205,-83.42088935
Kentucky,Russell,951,37,14,0,2020-12-18,36.99308373,-85.06070117
Kentucky,Scott,2239,21,22,0,2020-12-18,38.29622293,-84.5816631
Kentucky,Shelby,2720,13,27,0,2020-12-18,38.21476019,-85.194223
Kentucky,Simpson,1046,17,9,0,2020-12-18,36.74058474,-86.58047435
Kentucky,Spencer,906,5,3,0,2020-12-18,38.03223971,-85.32749335
Kentucky,Taylor,1545,44,11,1,2020-12-18,37.3677562,-85.3329931
Kentucky,Todd,572,5,14,0,2020-12-18,36.8381152,-87.17878374
Kentucky,Trigg,554,0,2,0,2020-12-18,36.80767017,-87.87333656
Kentucky,Trimble,340,3,0,0,2020-12-18,38.61056487,-85.33775972
Kentucky,Union,862,12,9,1,2020-12-18,37.66166713,-87.94300009
Kentucky,Warren,9007,108,83,0,2020-12-18,36.99903045,-86.42672751
Kentucky,Washington,791,10,8,0,2020-12-18,37.75599461,-85.17407732
Kentucky,Wayne,1019,73,5,0,2020-12-18,36.80310688,-84.8251971
Kentucky,Webster,672,8,9,0,2020-12-18,37.52168356,-87.67989953
Kentucky,Whitley,2346,61,9,0,2020-12-18,36.75700531,-84.14541217
Kentucky,Wolfe,266,1,1,0,2020-12-18,37.73941626,-83.49303612
Kentucky,Woodford,1122,4,1,0,2020-12-18,38.04178222,-84.7417556
Louisiana,Acadia,4682,40,132,1,2020-12-18,30.2950649,-92.41419698
Louisiana,Allen,2333,14,71,0,2020-12-18,30.65385745,-92.82442028
Louisiana,Ascension,7048,57,113,0,2020-12-18,30.20406249,-90.91328409999998
Louisiana,Assumption,1197,11,26,0,2020-12-18,29.89946234,-91.06461642
Louisiana,Avoyelles,2443,18,81,3,2020-12-18,31.07796211,-92.00079449
Louisiana,Beauregard,1687,48,50,0,2020-12-18,30.64836518,-93.34173616
Louisiana,Bienville,1072,15,40,0,2020-12-18,32.34569994,-93.05398492
Louisiana,Bossier,7801,89,170,0,2020-12-18,32.67932307,-93.60460152
Louisiana,Caddo,15909,141,476,0,2020-12-18,32.57991587,-93.88375652
Louisiana,Calcasieu,12400,156,270,2,2020-12-18,30.22931235,-93.35400434
Louisiana,Caldwell,828,13,18,0,2020-12-18,32.0902519,-92.11752148
Louisiana,Cameron,345,-3,4,0,2020-12-18,29.87592238,-93.19310676
Louisiana,Catahoula,753,10,20,1,2020-12-18,31.66778967,-91.84526385
Louisiana,Claiborne,901,9,32,0,2020-12-18,32.82308512,-92.99526883
Louisiana,Concordia,1296,32,33,0,2020-12-18,31.44817835,-91.63814433
Louisiana,De Soto,1578,20,44,0,2020-12-18,32.05457447,-93.74130302
Louisiana,East Baton Rouge,23427,238,552,0,2020-12-18,30.53842039,-91.09777565
Louisiana,East Carroll,912,3,14,0,2020-12-18,32.73926954,-91.23425694
Louisiana,East Feliciana,2353,22,89,0,2020-12-18,30.84425359,-91.04976723
Louisiana,Evangeline,2407,35,54,1,2020-12-18,30.72985248,-92.39915924
Louisiana,Franklin,1913,10,72,0,2020-12-18,32.13675181,-91.67589857
Louisiana,Grant,1249,12,36,1,2020-12-18,31.59882456,-92.56124347
Louisiana,Iberia,4366,45,114,0,2020-12-18,29.86803617,-91.75871777
Louisiana,Iberville,2434,27,68,0,2020-12-18,30.25734305,-91.3499598
Louisiana,Jackson,1302,6,36,0,2020-12-18,32.30251776,-92.55692092
Louisiana,Jefferson,28045,304,644,0,2020-12-18,29.74075478,-90.11115756
Louisiana,Jefferson Davis,2068,20,60,2,2020-12-18,30.26896765,-92.81210004
Louisiana,Lafayette,15040,202,173,0,2020-12-18,30.2049055,-92.06959876
Louisiana,Lafourche,5638,51,158,0,2020-12-18,29.52470226,-90.40976986
Louisiana,LaSalle,1081,5,24,0,2020-12-18,31.67884782,-92.15907765
Louisiana,Lincoln,3070,33,66,0,2020-12-18,32.6003154,-92.6659741
Louisiana,Livingston,7829,111,113,1,2020-12-18,30.44143993,-90.73061664
Louisiana,Madison,1203,4,16,0,2020-12-18,32.36918118,-91.23973355
Louisiana,Morehouse,1878,36,40,0,2020-12-18,32.81686191,-91.80421614
Louisiana,Natchitoches,2548,30,55,0,2020-12-18,31.72321584,-93.09816516
Louisiana,Orleans,18682,184,664,2,2020-12-18,30.06971951,-89.92660315
Louisiana,Ouachita,12444,170,246,5,2020-12-18,32.47645559,-92.15704172
Louisiana,Plaquemines,1528,24,20,0,2020-12-18,29.42245447,-89.60322085
Louisiana,Pointe Coupee,1752,26,53,0,2020-12-18,30.71409502,-91.60209535
Louisiana,Rapides,7396,48,204,0,2020-12-18,31.19778499,-92.52997303
Louisiana,Red River,628,7,28,0,2020-12-18,32.09530039,-93.34213308
Louisiana,Richland,1602,11,36,1,2020-12-18,32.41391005,-91.76634876
Louisiana,Sabine,1881,18,38,0,2020-12-18,31.56388699,-93.55433981
Louisiana,St. Bernard,2101,16,38,0,2020-12-18,29.87761636,-89.51887093
Louisiana,St. Charles,3224,67,72,0,2020-12-18,29.90709658,-90.35555967
Louisiana,St. Helena,637,4,4,0,2020-12-18,30.82210324,-90.71013176
Louisiana,St. James,1196,20,41,0,2020-12-18,30.02531716,-90.80212061
Louisiana,St. John the Baptist,2346,22,116,0,2020-12-18,30.12597499,-90.4753503
Louisiana,St. Landry,6036,79,187,1,2020-12-18,30.59724262,-92.00135806
Louisiana,St. Martin,3367,37,78,0,2020-12-18,30.13112107,-91.61403569
Louisiana,St. Mary,2724,34,99,0,2020-12-18,29.69262097,-91.44702164
Louisiana,St. Tammany,13258,152,318,2,2020-12-18,30.40942847,-89.95642711
Louisiana,Tangipahoa,8246,83,155,2,2020-12-18,30.62888673,-90.40664996
Louisiana,Tensas,253,3,3,0,2020-12-18,32.00760749,-91.32915234
Louisiana,Terrebonne,5350,51,143,0,2020-12-18,29.37343766,-90.82626855
Louisiana,Union,1629,14,62,0,2020-12-18,32.83121059,-92.3749373
Louisiana,Vermilion,3116,26,82,0,2020-12-18,29.83517605,-92.30292538
Louisiana,Vernon,1832,33,71,1,2020-12-18,31.10884837,-93.18153838
Louisiana,Washington,2809,37,82,0,2020-12-18,30.85288548,-90.03866652
Louisiana,Webster,2459,19,62,1,2020-12-18,32.70847669,-93.33121835
Louisiana,West Baton Rouge,1641,22,47,1,2020-12-18,30.46058217,-91.30989571
Louisiana,West Carroll,813,13,27,0,2020-12-18,32.78550125,-91.461201
Louisiana,West Feliciana,889,10,25,0,2020-12-18,30.87882871,-91.4148538
Louisiana,Winn,1161,9,29,2,2020-12-18,31.94449367,-92.63789413
Maine,Androscoggin,2104,29,39,0,2020-12-18,44.1664747,-70.20380627
Maine,Aroostook,382,24,3,0,2020-12-18,46.65926321,-68.59841248
Maine,Cumberland,5545,112,82,0,2020-12-18,43.8370751,-70.37226999
Maine,Franklin,372,7,4,0,2020-12-18,44.97330019,-70.44381045
Maine,Hancock,469,14,9,0,2020-12-18,44.59816444,-68.38401854
Maine,Kennebec,1359,29,24,4,2020-12-18,44.40759555,-69.76738544
Maine,Knox,291,8,4,0,2020-12-18,44.11486325,-69.10529169
Maine,Lincoln,226,13,2,0,2020-12-18,44.05996956,-69.54227124
Maine,Oxford,813,48,12,0,2020-12-18,44.49952995,-70.75682123
Maine,Penobscot,1483,39,15,0,2020-12-18,45.40194593,-68.65020455
Maine,Piscataquis,86,3,1,0,2020-12-18,45.83839062,-69.2860223
Maine,Sagadahoc,272,16,0,0,2020-12-18,43.95415864,-69.85074999
Maine,Somerset,610,12,20,0,2020-12-18,45.51229767,-69.95995554
Maine,Waldo,324,5,17,0,2020-12-18,44.4858305,-69.12061935
Maine,Washington,276,12,2,0,2020-12-18,45.01607142,-67.62813524
Maine,York,3711,64,47,1,2020-12-18,43.47808377,-70.71052375
Maryland,Allegany,4983,64,134,6,2020-12-18,39.62357628,-78.69280486
Maryland,Anne Arundel,21223,282,324,3,2020-12-18,39.00670238,-76.60329337
Maryland,Baltimore,35283,281,854,4,2020-12-18,39.45784712,-76.62911955
Maryland,Calvert,1968,29,43,0,2020-12-18,38.53961642,-76.56820632
Maryland,Caroline,1195,5,10,0,2020-12-18,38.87172293,-75.82904158
Maryland,Carroll,4468,58,154,1,2020-12-18,39.56453592,-77.02373735
Maryland,Cecil,3024,40,64,1,2020-12-18,39.56647682,-75.94627411
Maryland,Charles,5383,61,116,1,2020-12-18,38.51092331,-76.98580666
Maryland,Dorchester,1212,18,17,0,2020-12-18,38.45413522,-76.02752426
Maryland,Frederick,9380,139,168,3,2020-12-18,39.47296601,-77.39999394
Maryland,Garrett,1258,14,30,0,2020-12-18,39.52786077,-79.27355126
Maryland,Harford,7590,76,130,1,2020-12-18,39.55010644,-76.30775940000002
Maryland,Howard,10027,115,169,3,2020-12-18,39.25305293,-76.93126208
Maryland,Kent,613,19,26,0,2020-12-18,39.24976208,-76.04741541
Maryland,Montgomery,41172,425,1057,4,2020-12-18,39.13676329,-77.20358245
Maryland,Prince George's,49565,497,1018,7,2020-12-18,38.83070039,-76.8496441
Maryland,Queen Anne's,1406,20,27,0,2020-12-18,39.06198912,-76.03530977
Maryland,St. Mary's,2867,40,78,1,2020-12-18,38.30058422,-76.60629279999998
Maryland,Somerset,1549,29,15,0,2020-12-18,38.1163542,-75.75118623
Maryland,Talbot,999,13,7,0,2020-12-18,38.76618159,-76.10882561
Maryland,Washington,6457,107,111,3,2020-12-18,39.60835778,-77.82002295
Maryland,Wicomico,4095,41,70,1,2020-12-18,38.37301947,-75.62705831
Maryland,Worcester,1816,29,42,0,2020-12-18,38.21274277,-75.33200012
Maryland,Baltimore,35283,281,854,4,2020-12-18,39.45784712,-76.62911955
Massachusetts,Barnstable,4324,84,213,1,2020-12-18,41.72980578,-70.28854339
Massachusetts,Berkshire,2379,19,116,2,2020-12-18,42.37428441,-73.20524838
Massachusetts,Bristol,28515,513,989,10,2020-12-18,41.79228404,-71.10872211
Massachusetts,Essex,49616,847,1569,4,2020-12-18,42.6687626,-70.94687179
Massachusetts,Franklin,1094,19,82,1,2020-12-18,42.58119713,-72.58602547
Massachusetts,Hampden,22232,460,991,5,2020-12-18,42.13440424,-72.63235561
Massachusetts,Hampshire,3148,58,179,2,2020-12-18,42.33997957,-72.65898478
Massachusetts,Middlesex,63998,1277,2573,10,2020-12-18,42.48607732,-71.39049229
Massachusetts,Norfolk,22536,521,1237,4,2020-12-18,42.16073095,-71.20530408
Massachusetts,Plymouth,20152,421,951,5,2020-12-18,41.94070556,-70.80802823
Massachusetts,Suffolk,47701,688,1310,0,2020-12-18,42.3279514,-71.07850442
Massachusetts,Worcester,35313,694,1392,8,2020-12-18,42.35026951,-71.90493363
Michigan,Alcona,321,11,12,0,2020-12-18,44.6846864,-83.59507875
Michigan,Alger,275,5,2,0,2020-12-18,46.41292944,-86.60260122
Michigan,Allegan,5298,54,50,1,2020-12-18,42.59147037,-85.89102866
Michigan,Alpena,1034,16,22,1,2020-12-18,45.03477666,-83.62212411
Michigan,Antrim,575,4,9,0,2020-12-18,44.99690221,-85.15503082
Michigan,Arenac,569,6,24,0,2020-12-18,44.0636262,-83.89277559
Michigan,Baraga,554,4,28,0,2020-12-18,46.6720582,-88.36363591
Michigan,Barry,2761,16,26,0,2020-12-18,42.59513984,-85.30834519
Michigan,Bay,5744,68,159,2,2020-12-18,43.70639106,-83.98731479
Michigan,Benzie,616,8,18,0,2020-12-18,44.63899297,-86.01608482
Michigan,Berrien,8659,72,162,0,2020-12-18,41.95447397,-86.41313079999998
Michigan,Branch,2842,26,53,1,2020-12-18,41.91600556,-85.05929476
Michigan,Calhoun,7375,56,165,2,2020-12-18,42.24633834,-85.00493569
Michigan,Cass,2911,23,40,0,2020-12-18,41.91522292,-85.99405727
Michigan,Charlevoix,807,9,8,0,2020-12-18,45.37790017,-85.19614053
Michigan,Cheboygan,675,6,29,0,2020-12-18,45.44787015,-84.50122149
Michigan,Chippewa,1190,12,11,0,2020-12-18,46.29552653,-84.54353449
Michigan,Clare,1102,23,29,0,2020-12-18,43.98794227,-84.84819859999998
Michigan,Clinton,3599,43,34,0,2020-12-18,42.94400871,-84.60145248
Michigan,Crawford,444,6,5,0,2020-12-18,44.68255561,-84.61006219
Michigan,Delta,2823,9,71,0,2020-12-18,45.90484910000001,-86.9080745
Michigan,Dickinson,2074,15,63,0,2020-12-18,46.00999672,-87.86961634
Michigan,Eaton,4237,73,76,2,2020-12-18,42.59599185,-84.83740035
Michigan,Emmet,1168,4,31,0,2020-12-18,45.52625509,-84.89083249
Michigan,Genesee,19943,212,539,4,2020-12-18,43.02244215,-83.70589709
Michigan,Gladwin,1088,12,23,1,2020-12-18,43.98901072,-84.38774817
Michigan,Gogebic,988,5,30,0,2020-12-18,46.40862701,-89.69377193
Michigan,Grand Traverse,2716,33,38,1,2020-12-18,44.69565625,-85.55585247
Michigan,Gratiot,2221,38,55,2,2020-12-18,43.29265605,-84.60505416
Michigan,Hillsdale,2324,21,50,0,2020-12-18,41.88753639,-84.59312019
Michigan,Houghton,1907,9,23,0,2020-12-18,46.89988536,-88.68495385
Michigan,Huron,1388,15,34,0,2020-12-18,43.83353985,-83.04078453
Michigan,Ingham,11622,134,160,3,2020-12-18,42.59716886,-84.37472069
Michigan,Ionia,3115,35,38,0,2020-12-18,42.94502238,-85.07413319
Michigan,Iosco,1031,6,42,0,2020-12-18,44.35486835,-83.63484895
Michigan,Iron,785,2,37,0,2020-12-18,46.20974132,-88.53136251
Michigan,Isabella,3156,43,36,1,2020-12-18,43.64060976,-84.84664923
Michigan,Jackson,7093,102,136,0,2020-12-18,42.24807035,-84.42258681
Michigan,Kalamazoo,11445,77,218,2,2020-12-18,42.24542231,-85.53038622
Michigan,Kalkaska,460,5,9,0,2020-12-18,44.68512729,-85.09085699
Michigan,Kent,40856,285,493,10,2020-12-18,43.03197711,-85.54934642
Michigan,Keweenaw,83,0,2,0,2020-12-18,47.63197653,-88.41434263
Michigan,Lake,271,3,6,0,2020-12-18,43.99050893,-85.802173
Michigan,Lapeer,3701,97,85,1,2020-12-18,43.09052506,-83.22153148
Michigan,Leelanau,555,16,5,1,2020-12-18,44.94430054,-85.80150326
Michigan,Lenawee,3702,58,55,0,2020-12-18,41.89475156,-84.06603727
Michigan,Livingston,7340,78,63,1,2020-12-18,42.60302282,-83.91297209
Michigan,Luce,186,0,0,0,2020-12-18,46.47227431,-85.54471223
Michigan,Mackinac,359,1,2,1,2020-12-18,46.07028979,-85.04980537
Michigan,Macomb,46883,322,1477,3,2020-12-18,42.69158356,-82.92752801
Michigan,Manistee,544,20,14,1,2020-12-18,44.33352407,-86.05626916
Michigan,Marquette,3400,22,49,0,2020-12-18,46.4338914,-87.64043701
Michigan,Mason,871,14,15,0,2020-12-18,43.99509218,-86.24988902
Michigan,Mecosta,1575,11,12,0,2020-12-18,43.64064262,-85.32463223
Michigan,Menominee,1542,9,22,0,2020-12-18,45.58038692,-87.55370409
Michigan,Midland,3678,40,37,1,2020-12-18,43.64330771,-84.38804374
Michigan,Missaukee,403,4,8,0,2020-12-18,44.33772443,-85.09256478
Michigan,Monroe,7057,73,123,1,2020-12-18,41.92734151,-83.53749864
Michigan,Montcalm,2755,41,53,0,2020-12-18,43.31082541,-85.15252824
Michigan,Montmorency,272,12,8,1,2020-12-18,45.0275929,-84.12696227
Michigan,Muskegon,8984,67,235,5,2020-12-18,43.29123859,-86.15176712
Michigan,Newaygo,2089,14,28,0,2020-12-18,43.554374,-85.80070107
Michigan,Oakland,57285,460,1514,3,2020-12-18,42.66090111,-83.38595416
Michigan,Oceana,1529,5,33,0,2020-12-18,43.64124435,-86.26726673
Michigan,Ogemaw,820,9,24,0,2020-12-18,44.33481032,-84.12725175
Michigan,Ontonagon,300,0,15,0,2020-12-18,46.665226200000006,-89.31390481
Michigan,Osceola,752,6,14,0,2020-12-18,43.98992088,-85.32566756
Michigan,Oscoda,280,2,15,0,2020-12-18,44.68192279,-84.12939244
Michigan,Otsego,938,15,21,0,2020-12-18,45.02085831,-84.59898295
Michigan,Ottawa,17350,99,235,5,2020-12-18,42.95996803,-85.9969107
Michigan,Presque Isle,461,6,5,0,2020-12-18,45.34018577,-83.91498656
Michigan,Roscommon,888,16,26,0,2020-12-18,44.33473082,-84.61067651
Michigan,Saginaw,11424,208,339,4,2020-12-18,43.33433923,-84.05131209999998
Michigan,St. Clair,6397,71,134,2,2020-12-18,42.92655373,-82.67937954
Michigan,St. Joseph,3301,41,45,0,2020-12-18,41.91441767,-85.52797979
Michigan,Sanilac,1340,18,51,0,2020-12-18,43.42406072,-82.82055898
Michigan,Schoolcraft,211,5,4,0,2020-12-18,46.19235734,-86.19972234
Michigan,Shiawassee,2669,35,54,-1,2020-12-18,42.95392800000001,-84.14585902
Michigan,Tuscola,2347,32,80,0,2020-12-18,43.46606813,-83.41897025
Michigan,Van Buren,3801,37,69,0,2020-12-18,42.25190229,-86.01939087
Michigan,Washtenaw,12730,110,168,2,2020-12-18,42.253105,-83.83853204
Michigan,Wayne,79656,659,3496,1,2020-12-18,42.28098405,-83.281255
Michigan,Wexford,925,14,16,0,2020-12-18,44.33853602,-85.57712739
Minnesota,Aitkin,949,4,31,0,2020-12-18,46.60962049,-93.4116826
Minnesota,Anoka,27470,141,281,9,2020-12-18,45.27476015,-93.24604565
Minnesota,Becker,2559,11,30,0,2020-12-18,46.93479392,-95.67158144
Minnesota,Beltrami,2731,33,33,1,2020-12-18,47.97373527,-94.93732139
Minnesota,Benton,3678,24,68,1,2020-12-18,45.69804958,-93.99514135
Minnesota,Big Stone,417,1,3,0,2020-12-18,45.42712824,-96.41403739
Minnesota,Blue Earth,4793,28,22,0,2020-12-18,44.03554215,-94.06699781
Minnesota,Brown,1883,13,26,0,2020-12-18,44.24205652,-94.72562874
Minnesota,Carlton,2432,24,31,1,2020-12-18,46.59180601,-92.67601019
Minnesota,Carver,6093,48,28,0,2020-12-18,44.82017001,-93.8009918
Minnesota,Cass,1827,19,17,3,2020-12-18,46.95043611,-94.32603968
Minnesota,Chippewa,1194,12,19,0,2020-12-18,45.02343421,-95.56403693
Minnesota,Chisago,3911,34,24,0,2020-12-18,45.5021011,-92.90861945
Minnesota,Clay,5920,24,71,1,2020-12-18,46.89289518,-96.48761922
Minnesota,Clearwater,623,4,11,1,2020-12-18,47.57992111,-95.37790562
Minnesota,Cook,100,1,0,0,2020-12-18,47.90504893,-90.52629546
Minnesota,Cottonwood,1176,11,9,0,2020-12-18,44.00715262,-95.18138802
Minnesota,Crow Wing,4340,26,49,0,2020-12-18,46.48096553,-94.06755609
Minnesota,Dakota,28246,221,246,1,2020-12-18,44.67172617,-93.06299363
Minnesota,Dodge,1092,5,3,0,2020-12-18,44.02238415,-92.86244324
Minnesota,Douglas,3262,17,53,1,2020-12-18,45.93348491,-95.45335469
Minnesota,Faribault,817,7,7,2,2020-12-18,43.67381499,-93.94787458
Minnesota,Fillmore,966,12,0,0,2020-12-18,43.67394126,-92.08980382
Minnesota,Freeborn,1847,9,16,0,2020-12-18,43.67385583,-93.34884422
Minnesota,Goodhue,2753,27,37,0,2020-12-18,44.40849741,-92.7234195
Minnesota,Grant,350,2,7,0,2020-12-18,45.93424769,-96.01139609
Minnesota,Hennepin,81645,445,1288,7,2020-12-18,45.00761521,-93.47694895
Minnesota,Houston,1058,14,9,3,2020-12-18,43.67129565,-91.49143057
Minnesota,Hubbard,1331,7,34,0,2020-12-18,47.10778564,-94.91693868
Minnesota,Isanti,2481,22,26,1,2020-12-18,45.56181234,-93.29487636
Minnesota,Itasca,2540,23,30,1,2020-12-18,47.51009045,-93.63092229
Minnesota,Jackson,725,6,4,0,2020-12-18,43.67423373,-95.15398258
Minnesota,Kanabec,876,7,18,0,2020-12-18,45.9459309,-93.29275192
Minnesota,Kandiyohi,5151,34,53,1,2020-12-18,45.1526059,-95.00586446
Minnesota,Kittson,331,1,16,0,2020-12-18,48.77754106,-96.78317184
Minnesota,Koochiching,515,7,8,0,2020-12-18,48.24539665,-93.78352843
Minnesota,Lac qui Parle,546,5,12,1,2020-12-18,44.9973857,-96.17488219
Minnesota,Lake,507,1,14,1,2020-12-18,47.64270764,-91.44557998
Minnesota,Lake of the Woods,141,1,1,0,2020-12-18,48.77217001,-94.90274472
Minnesota,Le Sueur,1839,14,14,1,2020-12-18,44.37136597,-93.72844721
Minnesota,Lincoln,433,0,1,0,2020-12-18,44.41311883,-96.26688165
Minnesota,Lyon,2683,20,26,0,2020-12-18,44.41327865,-95.83806103
Minnesota,McLeod,2915,31,33,0,2020-12-18,44.82367677,-94.27287017
Minnesota,Mahnomen,366,1,6,0,2020-12-18,47.32557075,-95.80921485
Minnesota,Marshall,652,5,11,0,2020-12-18,48.35825983,-96.37017407
Minnesota,Martin,1479,14,23,0,2020-12-18,43.67429718,-94.55099908
Minnesota,Meeker,1780,6,28,3,2020-12-18,45.12328869,-94.52839455
Minnesota,Mille Lacs,1935,13,39,0,2020-12-18,45.93705297,-93.63236823
Minnesota,Morrison,2805,15,37,1,2020-12-18,46.01265363,-94.27341528
Minnesota,Mower,3187,44,23,0,2020-12-18,43.67142874,-92.75234549
Minnesota,Murray,719,2,5,0,2020-12-18,44.02216709,-95.76328482
Minnesota,Nicollet,1949,8,30,0,2020-12-18,44.35291112,-94.24710352
Minnesota,Nobles,3449,14,42,0,2020-12-18,43.67434621,-95.75329576
Minnesota,Norman,402,0,8,0,2020-12-18,47.32628443,-96.45620947
Minnesota,Olmsted,8423,64,47,1,2020-12-18,44.00374114,-92.40209944
Minnesota,Otter Tail,4006,34,41,1,2020-12-18,46.40846929,-95.70835255
Minnesota,Pennington,863,16,12,0,2020-12-18,48.06642577,-96.0370814
Minnesota,Pine,2229,135,11,1,2020-12-18,46.12105238,-92.74070188
Minnesota,Pipestone,850,3,18,0,2020-12-18,44.02301619,-96.25841142
Minnesota,Polk,3105,5,45,2,2020-12-18,47.77372465,-96.40134647
Minnesota,Pope,663,3,3,0,2020-12-18,45.58606667,-95.44451209
Minnesota,Ramsey,34961,211,618,5,2020-12-18,45.01625271,-93.09872295
Minnesota,Red Lake,286,1,3,0,2020-12-18,47.87197525,-96.09561104
Minnesota,Redwood,1246,7,25,0,2020-12-18,44.40555844,-95.25207021
Minnesota,Renville,1215,5,35,0,2020-12-18,44.72836381,-94.94553734
Minnesota,Rice,5108,93,47,0,2020-12-18,44.3543376,-93.29658715
Minnesota,Rock,984,1,10,0,2020-12-18,43.67482683,-96.25296832
Minnesota,Roseau,1550,11,13,1,2020-12-18,48.77501878,-95.81079919
Minnesota,St. Louis,11561,94,177,5,2020-12-18,47.6048407,-92.46879855
Minnesota,Scott,10412,55,72,0,2020-12-18,44.6490231,-93.53340251
Minnesota,Sherburne,7263,65,51,0,2020-12-18,45.44447208,-93.77617511
Minnesota,Sibley,957,4,4,0,2020-12-18,44.5796592,-94.23164924
Minnesota,Stearns,16285,76,155,2,2020-12-18,45.55192576,-94.61078221
Minnesota,Steele,2399,16,9,0,2020-12-18,44.02240351,-93.22627088
Minnesota,Stevens,634,3,5,-1,2020-12-18,45.58613007,-96.00163705
Minnesota,Swift,757,7,14,0,2020-12-18,45.2829032,-95.68264092
Minnesota,Todd,2153,14,21,0,2020-12-18,46.06996226,-94.89785296
Minnesota,Traverse,191,4,2,0,2020-12-18,45.77298854,-96.47062949
Minnesota,Wabasha,1374,0,2,0,2020-12-18,44.28424356,-92.23121312
Minnesota,Wadena,1047,9,10,0,2020-12-18,46.58589171,-94.96968506
Minnesota,Waseca,1620,12,12,0,2020-12-18,44.02211116,-93.58720034
Minnesota,Washington,17451,135,163,4,2020-12-18,45.03864533,-92.88429635
Minnesota,Watonwan,1009,5,5,0,2020-12-18,43.97823903,-94.61413846
Minnesota,Wilkin,554,5,5,0,2020-12-18,46.35721532,-96.4684375
Minnesota,Winona,3382,12,42,1,2020-12-18,43.98772283,-91.78081305
Minnesota,Wright,10195,66,71,2,2020-12-18,45.17297924,-93.96234781
Minnesota,Yellow Medicine,812,7,14,0,2020-12-18,44.71710183,-95.86842453
Mississippi,Adams,1669,25,53,1,2020-12-18,31.47669768,-91.35326037
Mississippi,Alcorn,1915,30,37,0,2020-12-18,34.88084463,-88.57996173
Mississippi,Amite,777,8,19,3,2020-12-18,31.17467303,-90.80501621
Mississippi,Attala,1509,19,43,0,2020-12-18,33.08658803,-89.57838564
Mississippi,Benton,590,4,20,1,2020-12-18,34.81681228,-89.18945516
Mississippi,Bolivar,2993,52,91,0,2020-12-18,33.79696941,-90.87372121
Mississippi,Calhoun,972,21,16,1,2020-12-18,33.93683395,-89.33686647
Mississippi,Carroll,883,10,17,0,2020-12-18,33.44834567,-89.91994479
Mississippi,Chickasaw,1381,26,35,0,2020-12-18,33.91983202,-88.9481545
Mississippi,Choctaw,445,4,10,0,2020-12-18,33.34598242,-89.24809382
Mississippi,Claiborne,640,9,18,0,2020-12-18,31.97061673,-90.90702196
Mississippi,Clarke,1096,11,55,0,2020-12-18,32.04158545,-88.68896219999998
Mississippi,Clay,1158,13,29,1,2020-12-18,33.65358105,-88.77784255
Mississippi,Coahoma,1795,15,48,1,2020-12-18,34.22772299,-90.60415045
Mississippi,Copiah,2024,27,42,0,2020-12-18,31.86977774,-90.44565118
Mississippi,Covington,1656,25,63,0,2020-12-18,31.63225413,-89.55389939
Mississippi,DeSoto,12746,185,121,4,2020-12-18,34.87625235,-89.99091418
Mississippi,Forrest,4712,70,93,0,2020-12-18,31.18961454,-89.25832496
Mississippi,Franklin,501,10,6,0,2020-12-18,31.47786634,-90.89672989
Mississippi,George,1557,23,32,2,2020-12-18,30.86259065,-88.64436789
Mississippi,Greene,904,10,25,0,2020-12-18,31.21444233,-88.63922281
Mississippi,Grenada,1807,28,53,0,2020-12-18,33.77036166,-89.80245083
Mississippi,Hancock,1644,20,49,0,2020-12-18,30.41830223,-89.48851033
Mississippi,Harrison,9262,81,133,3,2020-12-18,30.51359752,-89.12467576
Mississippi,Hinds,12498,137,233,3,2020-12-18,32.2656285,-90.44435448
Mississippi,Holmes,1505,11,63,0,2020-12-18,33.12345854,-90.08923538
Mississippi,Humphreys,657,6,21,0,2020-12-18,33.12825718,-90.52252707
Mississippi,Issaquena,140,1,4,0,2020-12-18,32.72531359,-90.97392828
Mississippi,Itawamba,1960,28,46,0,2020-12-18,34.27993475,-88.3606733
Mississippi,Jackson,7779,68,145,0,2020-12-18,30.54020656,-88.64184064
Mississippi,Jasper,1156,26,24,0,2020-12-18,32.01922104,-89.11786866
Mississippi,Jefferson,445,11,12,0,2020-12-18,31.73397872,-91.03764977
Mississippi,Jefferson Davis,701,16,21,0,2020-12-18,31.56884708,-89.82670990000003
Mississippi,Jones,4602,66,92,1,2020-12-18,31.62257767,-89.16896899999998
Mississippi,Kemper,621,6,19,0,2020-12-18,32.75462946,-88.64105766
Mississippi,Lafayette,3798,46,70,0,2020-12-18,34.35687874,-89.48490961
Mississippi,Lamar,3646,36,52,0,2020-12-18,31.20572971,-89.5077704
Mississippi,Lauderdale,4409,52,161,2,2020-12-18,32.40419769,-88.66229662
Mississippi,Lawrence,866,9,15,0,2020-12-18,31.55147224,-90.10841127
Mississippi,Leake,1737,39,45,0,2020-12-18,32.7536828,-89.52402044
Mississippi,Lee,6675,80,106,0,2020-12-18,34.291877500000005,-88.68149954
Mississippi,Leflore,2408,20,98,0,2020-12-18,33.55545125,-90.29900733
Mississippi,Lincoln,2291,26,73,0,2020-12-18,31.53288662,-90.45391915
Mississippi,Lowndes,3603,96,76,2,2020-12-18,33.47386518,-88.44191529999998
Mississippi,Madison,6327,131,126,1,2020-12-18,32.63389156,-90.03513564
Mississippi,Marion,1543,25,55,0,2020-12-18,31.23132643,-89.8209217
Mississippi,Marshall,2610,23,59,1,2020-12-18,34.76216286,-89.50299462
Mississippi,Monroe,2613,33,83,0,2020-12-18,33.89236763,-88.4808438
Mississippi,Montgomery,916,8,30,0,2020-12-18,33.49419589,-89.61729103
Mississippi,Neshoba,2698,23,133,0,2020-12-18,32.75339664,-89.11726492
Mississippi,Newton,1395,26,32,0,2020-12-18,32.40021118,-89.11843336
Mississippi,Noxubee,848,5,17,0,2020-12-18,33.11009499,-88.56949061
Mississippi,Oktibbeha,3018,33,67,0,2020-12-18,33.42491685,-88.87905132
Mississippi,Panola,2824,24,67,0,2020-12-18,34.36398677,-89.95064249
Mississippi,Pearl River,2177,38,75,0,2020-12-18,30.77090935,-89.58677275
Mississippi,Perry,769,5,30,0,2020-12-18,31.17161885,-88.99281835
Mississippi,Pike,1964,25,65,0,2020-12-18,31.17507789,-90.40392572
Mississippi,Pontotoc,2717,33,34,0,2020-12-18,34.226046000000004,-89.03636807
Mississippi,Prentiss,1846,29,40,0,2020-12-18,34.61810501,-88.51986294
Mississippi,Quitman,561,5,7,0,2020-12-18,34.25157572,-90.28908
Mississippi,Rankin,7741,105,142,2,2020-12-18,32.26469147,-89.94537876
Mississippi,Scott,1892,19,34,0,2020-12-18,32.406704100000006,-89.53789439
Mississippi,Sharkey,368,6,17,0,2020-12-18,32.88149103,-90.8159538
Mississippi,Simpson,1796,22,57,0,2020-12-18,31.91282117,-89.91716179
Mississippi,Smith,913,22,17,0,2020-12-18,32.01744532,-89.50644846
Mississippi,Stone,1023,8,18,0,2020-12-18,30.79187949,-89.11547539
Mississippi,Sunflower,2190,23,57,0,2020-12-18,33.60192578,-90.58882684
Mississippi,Tallahatchie,1121,8,29,0,2020-12-18,33.95339918,-90.1729398
Mississippi,Tate,2174,16,53,0,2020-12-18,34.65133709,-89.94485778
Mississippi,Tippah,1732,24,37,1,2020-12-18,34.76872156,-88.90988194
Mississippi,Tishomingo,1389,20,49,1,2020-12-18,34.74023475,-88.23917219
Mississippi,Tunica,684,5,19,0,2020-12-18,34.64967704,-90.37481167
Mississippi,Union,2390,32,27,0,2020-12-18,34.49162015,-89.00776006
Mississippi,Walthall,904,14,32,0,2020-12-18,31.14971548,-90.10446654
Mississippi,Warren,2269,26,68,1,2020-12-18,32.35810271,-90.83352619
Mississippi,Washington,3778,24,111,1,2020-12-18,33.28392041,-90.94196237
Mississippi,Wayne,1522,17,25,0,2020-12-18,31.64135687,-88.69573913
Mississippi,Webster,642,10,17,0,2020-12-18,33.61300486,-89.28392912
Mississippi,Wilkinson,494,5,22,0,2020-12-18,31.16078225,-91.31018819
Mississippi,Winston,1628,16,44,0,2020-12-18,33.08747908,-89.03391385
Mississippi,Yalobusha,866,6,30,0,2020-12-18,34.02824175,-89.70762049999998
Mississippi,Yazoo,1936,107,45,1,2020-12-18,32.77890365,-90.39656148
Missouri,Adair,1400,16,4,0,2020-12-18,40.19058551,-92.60078167
Missouri,Andrew,998,12,13,0,2020-12-18,39.98492163,-94.80163024
Missouri,Atchison,255,2,4,0,2020-12-18,40.43238737,-95.42970639
Missouri,Audrain,1451,47,23,1,2020-12-18,39.215877,-91.84242683
Missouri,Barry,1676,9,35,0,2020-12-18,36.70978521,-93.82919888
Missouri,Barton,718,5,7,0,2020-12-18,37.50207671,-94.34757022
Missouri,Bates,708,10,10,0,2020-12-18,38.25271289,-94.34113157
Missouri,Benton,1114,13,15,2,2020-12-18,38.29503305,-93.28756116
Missouri,Bollinger,921,2,11,0,2020-12-18,37.32449052,-90.02725304
Missouri,Boone,12287,110,36,0,2020-12-18,38.99186229,-92.30723575
Missouri,Buchanan,5693,45,84,1,2020-12-18,39.65816401,-94.80138942
Missouri,Butler,2631,13,12,1,2020-12-18,36.71462476,-90.40421163
Missouri,Caldwell,487,7,3,0,2020-12-18,39.65620858,-93.98308093
Missouri,Callaway,3437,34,17,0,2020-12-18,38.83674754,-91.92186505
Missouri,Camden,2874,15,58,-1,2020-12-18,38.02199522,-92.76083747
Missouri,Cape Girardeau,5995,62,91,0,2020-12-18,37.38489388,-89.6843587
Missouri,Carroll,585,11,8,0,2020-12-18,39.42762566,-93.50626255
Missouri,Carter,352,1,6,0,2020-12-18,36.94160441,-90.96051322
Missouri,Cass,4935,67,46,0,2020-12-18,38.64789422,-94.353399
Missouri,Cedar,481,6,8,0,2020-12-18,37.72391475,-93.85445441
Missouri,Chariton,289,2,2,0,2020-12-18,39.51499357,-92.9629191
Missouri,Christian,4898,58,35,0,2020-12-18,36.9711783,-93.18537118
Missouri,Clark,342,1,4,0,2020-12-18,40.41040752,-91.73661677
Missouri,Clay,5677,62,87,0,2020-12-18,39.31132056,-94.41850862
Missouri,Clinton,1138,17,49,0,2020-12-18,39.6013098,-94.40465394
Missouri,Cole,7150,60,77,0,2020-12-18,38.50455671,-92.27860244
Missouri,Cooper,1379,10,14,0,2020-12-18,38.844478,-92.80896081
Missouri,Crawford,1470,11,15,0,2020-12-18,37.97663738,-91.30528104
Missouri,Dade,335,5,8,0,2020-12-18,37.431814,-93.8503345
Missouri,Dallas,662,3,14,0,2020-12-18,37.6811355,-93.02127031
Missouri,Daviess,424,0,9,0,2020-12-18,39.96145298,-93.98519678
Missouri,DeKalb,716,7,17,0,2020-12-18,39.89201062,-94.40476508
Missouri,Dent,638,4,6,0,2020-12-18,37.60663134,-91.50790473
Missouri,Douglas,551,8,19,0,2020-12-18,36.9325593,-92.49905109
Missouri,Dunklin,1970,7,14,0,2020-12-18,36.27167174,-90.09122243
Missouri,Franklin,5919,69,102,0,2020-12-18,38.41127108,-91.07522826
Missouri,Gasconade,605,5,28,0,2020-12-18,38.43947277,-91.50847147
Missouri,Gentry,556,13,15,0,2020-12-18,40.21097916,-94.40944419
Missouri,Greene,17106,180,238,0,2020-12-18,37.2575872,-93.34230916
Missouri,Grundy,620,10,18,0,2020-12-18,40.11406587,-93.56509276
Missouri,Harrison,563,12,7,0,2020-12-18,40.35570088,-93.99222144
Missouri,Henry,1333,44,18,0,2020-12-18,38.38482826,-93.79293734
Missouri,Hickory,408,1,6,0,2020-12-18,37.94163617,-93.3203037
Missouri,Holt,316,3,7,0,2020-12-18,40.09799248,-95.2163888
Missouri,Howard,580,5,2,0,2020-12-18,39.1435761,-92.69756691
Missouri,Howell,2116,17,35,0,2020-12-18,36.77383887,-91.88683935
Missouri,Iron,322,2,1,0,2020-12-18,37.55487945,-90.7735296
Missouri,Jackson,21257,175,207,1,2020-12-18,39.01002188,-94.34724536
Missouri,Jasper,9330,63,143,3,2020-12-18,37.20351921,-94.34050458
Missouri,Jefferson,13760,160,121,0,2020-12-18,38.25926778,-90.53870896
