State,County,Total Cases,New Cases,Total Deaths,New Deaths,Date,Latitude,Longitude
Alabama,Autauga,2048,18,31,1,2020-10-24,32.53952745,-86.64408227
Alabama,Baldwin,6637,22,69,0,2020-10-24,30.72774991,-87.72207058
Alabama,Barbour,1031,19,9,0,2020-10-24,31.868263,-85.3871286
Alabama,Bibb,828,3,14,0,2020-10-24,32.99642064,-87.12511459999997
Alabama,Blount,1925,14,25,0,2020-10-24,33.98210918,-86.56790593
Alabama,Bullock,648,9,17,0,2020-10-24,32.10030533,-85.71265535
Alabama,Butler,1007,5,40,0,2020-10-24,31.75300095,-86.68057478
Alabama,Calhoun,4567,343,61,0,2020-10-24,33.77483727,-85.82630386
Alabama,Chambers,1350,7,44,1,2020-10-24,32.91360079,-85.39072749
Alabama,Cherokee,733,2,14,0,2020-10-24,34.17805983,-85.60638968
Alabama,Chilton,1869,11,32,0,2020-10-24,32.85044126,-86.7173256
Alabama,Choctaw,390,0,12,0,2020-10-24,32.02227341,-88.26564429999998
Alabama,Clarke,1343,7,17,0,2020-10-24,31.68099859,-87.83548597
Alabama,Clay,741,5,12,0,2020-10-24,33.26984193,-85.85836077
Alabama,Cleburne,556,5,8,0,2020-10-24,33.67679204,-85.52005899
Alabama,Coffee,1763,31,11,0,2020-10-24,31.39932826,-85.98901039
Alabama,Colbert,2005,18,32,1,2020-10-24,34.69847452,-87.80168544
Alabama,Conecuh,561,1,13,0,2020-10-24,31.43401703,-86.99320044
Alabama,Coosa,203,0,3,0,2020-10-24,32.93690146,-86.24847739
Alabama,Covington,1740,26,29,0,2020-10-24,31.2477854,-86.45050893
Alabama,Crenshaw,606,3,30,0,2020-10-24,31.72941803,-86.31593104
Alabama,Cullman,2440,41,24,-1,2020-10-24,34.13020303,-86.86888037
Alabama,Dale,1751,86,51,0,2020-10-24,31.43037123,-85.61095742
Alabama,Dallas,1865,2,27,0,2020-10-24,32.32688101,-87.10866709999998
Alabama,DeKalb,3388,28,29,0,2020-10-24,34.45946862,-85.80782906
Alabama,Elmore,3200,27,53,0,2020-10-24,32.59785413,-86.14415284
Alabama,Escambia,1725,3,30,0,2020-10-24,31.1256789,-87.15918694
Alabama,Etowah,4265,51,51,1,2020-10-24,34.04567266,-86.04051873
Alabama,Fayette,574,5,13,0,2020-10-24,33.72076938,-87.73886638
Alabama,Franklin,2052,20,31,0,2020-10-24,34.44235334,-87.84289505
Alabama,Geneva,900,39,7,0,2020-10-24,31.09389027,-85.83572839
Alabama,Greene,342,0,16,0,2020-10-24,32.85504247,-87.95684022
Alabama,Hale,767,9,30,0,2020-10-24,32.76039258,-87.63284988
Alabama,Henry,708,65,6,0,2020-10-24,31.51148016,-85.24267944
Alabama,Houston,4148,431,34,0,2020-10-24,31.15197924,-85.29939599
Alabama,Jackson,2149,24,15,0,2020-10-24,34.78144169,-85.99750489
Alabama,Jefferson,23129,141,377,2,2020-10-24,33.55554728,-86.89506300000002
Alabama,Lamar,490,16,5,0,2020-10-24,33.77995024,-88.09668032
Alabama,Lauderdale,2262,82,42,0,2020-10-24,34.90171875,-87.65624729
Alabama,Lawrence,850,13,32,0,2020-10-24,34.52041498,-87.31069453
Alabama,Lee,6534,17,65,0,2020-10-24,32.60154883,-85.35132246
Alabama,Limestone,2842,45,30,0,2020-10-24,34.81185586,-86.98310072
Alabama,Lowndes,709,5,28,0,2020-10-24,32.1597283,-86.65158371
Alabama,Macon,534,4,20,0,2020-10-24,32.38759944,-85.69267724
Alabama,Madison,9280,52,96,2,2020-10-24,34.76327133,-86.55069633
Alabama,Marengo,1008,6,22,0,2020-10-24,32.24767634,-87.78796182
Alabama,Marion,1076,5,29,0,2020-10-24,34.13697363,-87.88704173
Alabama,Marshall,4381,9,50,1,2020-10-24,34.36975964,-86.30486727
Alabama,Mobile,16849,61,315,0,2020-10-24,30.78472347,-88.20842409
Alabama,Monroe,646,1,10,0,2020-10-24,31.56729412,-87.36995001
Alabama,Montgomery,10197,219,197,0,2020-10-24,32.2206831,-86.20969272
Alabama,Morgan,4120,49,35,0,2020-10-24,34.45500589,-86.85475946
Alabama,Perry,589,4,6,0,2020-10-24,32.64048341,-87.29770589
Alabama,Pickens,847,11,18,0,2020-10-24,33.28094866,-88.08818103
Alabama,Pike,1335,8,13,0,2020-10-24,31.80396383,-85.9408295
Alabama,Randolph,823,3,16,0,2020-10-24,33.29526734,-85.45708831
Alabama,Russell,1944,16,3,0,2020-10-24,32.28725256,-85.18415324
Alabama,St. Clair,2925,34,42,0,2020-10-24,33.71902176,-86.31029372
Alabama,Shelby,7338,64,63,0,2020-10-24,33.26879845,-86.66232561
Alabama,Sumter,472,0,21,0,2020-10-24,32.59117397,-88.19916205
Alabama,Talladega,2653,17,35,0,2020-10-24,33.37823223,-86.16886178
Alabama,Tallapoosa,1317,4,87,0,2020-10-24,32.86698258,-85.79833053
Alabama,Tuscaloosa,10296,61,140,0,2020-10-24,33.28726072,-87.52556818
Alabama,Walker,2772,17,92,-1,2020-10-24,33.80270512,-87.30027177
Alabama,Washington,744,10,12,0,2020-10-24,31.4092794,-88.20689944
Alabama,Wilcox,567,3,12,0,2020-10-24,31.98773215,-87.30891118
Alabama,Winston,922,3,13,0,2020-10-24,34.15030532,-87.37325922
Alaska,Aleutians East,6,1,0,0,2020-10-24,55.32222414,-161.9722021
Alaska,Bristol Bay,0,0,0,0,2020-10-24,58.74513976,-156.701064
Alaska,Denali,21,1,0,0,2020-10-24,63.67264044,-150.0076108
Alaska,Fairbanks North Star,1887,28,13,0,2020-10-24,64.80726247,-146.5692662
Alaska,Haines,6,1,0,0,2020-10-24,59.09893571,-135.4679843
Alaska,Kenai Peninsula,656,19,3,0,2020-10-24,60.24429722,-151.53888840000005
Alaska,Ketchikan Gateway,59,0,0,0,2020-10-24,55.57445008,-130.975561
Alaska,Kodiak Island,50,0,0,0,2020-10-24,57.65529415,-153.7493579
Alaska,Matanuska-Susitna,989,34,2,0,2020-10-24,62.31305045,-149.5741743
Alaska,North Slope,228,1,0,0,2020-10-24,69.31479216,-153.4836093
Alaska,Northwest Arctic,214,4,0,0,2020-10-24,67.04919196,-159.7503946
Arizona,Apache,3854,28,168,0,2020-10-24,35.39465006,-109.4892383
Arizona,Cochise,2105,7,73,0,2020-10-24,31.87934684,-109.7516088
Arizona,Coconino,4991,66,147,0,2020-10-24,35.83883429,-111.7707178
Arizona,Gila,1841,11,69,-1,2020-10-24,33.80190085,-110.8132779
Arizona,Graham,1110,5,28,1,2020-10-24,32.93166885,-109.8882178
Arizona,Greenlee,100,0,1,0,2020-10-24,33.21498827,-109.2405279
Arizona,La Paz,611,0,17,1,2020-10-24,33.72854224,-113.9810029
Arizona,Maricopa,153177,482,3538,2,2020-10-24,33.34835867,-112.4918154
Arizona,Mohave,4266,22,230,0,2020-10-24,35.70471703,-113.7577902
Arizona,Navajo,6264,26,238,0,2020-10-24,35.3997715,-110.3218983
Arizona,Pima,27417,120,636,1,2020-10-24,32.0971334,-111.7890033
Arizona,Pinal,11689,51,217,0,2020-10-24,32.90525627,-111.3449483
Arizona,Santa Cruz,2972,4,65,0,2020-10-24,31.52508998,-110.8479088
Arizona,Yavapai,2874,10,87,0,2020-10-24,34.59933926,-112.5538588
Arizona,Yuma,13500,58,354,0,2020-10-24,32.76895712,-113.90666740000002
Arkansas,Arkansas,655,6,15,2,2020-10-24,34.29145151,-91.37277296
Arkansas,Ashley,531,8,11,0,2020-10-24,33.19153461,-91.7698471
Arkansas,Baxter,643,24,9,0,2020-10-24,36.28784385,-92.33782872
Arkansas,Benton,8033,107,116,2,2020-10-24,36.33644656,-94.25680817
Arkansas,Boone,1020,23,30,0,2020-10-24,36.3084504,-93.09374925
Arkansas,Bradley,369,2,8,0,2020-10-24,33.46755808,-92.15980837
Arkansas,Calhoun,48,0,0,0,2020-10-24,33.55598792,-92.49974403
Arkansas,Carroll,984,7,13,0,2020-10-24,36.34038560000001,-93.54270261
Arkansas,Chicot,1049,6,22,0,2020-10-24,33.26458973,-91.29539209
Arkansas,Clark,491,7,5,1,2020-10-24,34.04613432,-93.17484713
Arkansas,Clay,471,11,12,0,2020-10-24,36.36826212,-90.4148172
Arkansas,Cleburne,454,6,15,0,2020-10-24,35.53864922,-92.02640019
Arkansas,Cleveland,226,0,13,0,2020-10-24,33.89723187,-92.18537045
Arkansas,Columbia,687,10,19,0,2020-10-24,33.21230701,-93.22642793
Arkansas,Conway,341,0,3,0,2020-10-24,35.26205537,-92.70506566
Arkansas,Craighead,4372,51,39,1,2020-10-24,35.83018283,-90.63235729
Arkansas,Crawford,1996,16,24,-1,2020-10-24,35.58928601,-94.2446814
Arkansas,Crittenden,2336,34,51,0,2020-10-24,35.21247318,-90.30839406
Arkansas,Cross,569,7,22,0,2020-10-24,35.29631396,-90.77185818
Arkansas,Dallas,179,0,5,0,2020-10-24,33.97042763,-92.65167437
Arkansas,Desha,398,9,7,0,2020-10-24,33.83011025,-91.25500948
Arkansas,Drew,426,6,7,0,2020-10-24,33.59035001,-91.71777921
Arkansas,Faulkner,3296,50,31,1,2020-10-24,35.14719007,-92.33717519
Arkansas,Franklin,516,13,2,0,2020-10-24,35.51202821,-93.89299569
Arkansas,Fulton,312,8,9,0,2020-10-24,36.38177105,-91.81729127
Arkansas,Garland,2428,27,62,0,2020-10-24,34.57692074,-93.14921604
Arkansas,Grant,356,4,4,0,2020-10-24,34.29017991,-92.42320562
Arkansas,Greene,1423,38,16,0,2020-10-24,36.11735460000001,-90.55832668
Arkansas,Hempstead,540,10,5,0,2020-10-24,33.73325583,-93.66935133
Arkansas,Hot Spring,2188,12,34,1,2020-10-24,34.31709259,-92.95396325
Arkansas,Howard,568,4,14,0,2020-10-24,34.09007427,-93.9934871
Arkansas,Independence,1446,6,45,1,2020-10-24,35.74242707,-91.57001641
Arkansas,Izard,553,1,2,1,2020-10-24,36.09604046,-91.90847954
Arkansas,Jackson,692,25,6,0,2020-10-24,35.59802983,-91.21494602
Arkansas,Jefferson,4121,31,102,0,2020-10-24,34.26767081,-91.92619839
Arkansas,Johnson,1004,12,7,0,2020-10-24,35.56759135,-93.46036368
Arkansas,Lafayette,167,4,3,0,2020-10-24,33.24116713,-93.60677071
Arkansas,Lawrence,795,13,17,0,2020-10-24,36.04188196,-91.10867198
Arkansas,Lee,1107,2,18,0,2020-10-24,34.78498904,-90.78383866
Arkansas,Lincoln,2304,4,17,0,2020-10-24,33.95317155,-91.74002806
Arkansas,Little River,446,10,38,0,2020-10-24,33.70375665,-94.23468591
Arkansas,Logan,584,6,3,0,2020-10-24,35.21413234,-93.71951016
Arkansas,Lonoke,1686,44,25,0,2020-10-24,34.75392199,-91.88742357
Arkansas,Madison,425,4,6,0,2020-10-24,36.01038185,-93.72524943
Arkansas,Marion,147,4,2,0,2020-10-24,36.26844485,-92.68451899
Arkansas,Miller,1372,40,15,0,2020-10-24,33.31403423,-93.89285258
Arkansas,Mississippi,2204,30,68,2,2020-10-24,35.76271485,-90.05194370000002
Arkansas,Monroe,210,4,1,0,2020-10-24,34.6815935,-91.20540287
Arkansas,Montgomery,182,0,8,0,2020-10-24,34.53704874,-93.65824478
Arkansas,Nevada,292,2,14,0,2020-10-24,33.66340119,-93.30632432
Arkansas,Newton,299,6,20,0,2020-10-24,35.91947491,-93.21612969
Arkansas,Ouachita,370,11,9,0,2020-10-24,33.58839816,-92.87795984
Arkansas,Perry,136,1,0,0,2020-10-24,34.9459153,-92.94372564
Arkansas,Phillips,726,8,16,0,2020-10-24,34.43268455,-90.84800154
Arkansas,Pike,262,0,1,0,2020-10-24,34.16250414,-93.65789349
Arkansas,Poinsett,1017,21,18,0,2020-10-24,35.57433534,-90.66268713
Arkansas,Polk,350,4,5,0,2020-10-24,34.48254879,-94.22728802
Arkansas,Pope,2694,34,37,0,2020-10-24,35.44871474,-93.03212219
Arkansas,Prairie,204,2,4,0,2020-10-24,34.83624419,-91.55162157
Arkansas,Pulaski,11721,120,204,3,2020-10-24,34.77054088,-92.31355101
Arkansas,Randolph,637,11,24,0,2020-10-24,36.3415714,-91.02455531
Arkansas,St. Francis,1692,10,10,0,2020-10-24,35.02201976,-90.74828138
Arkansas,Saline,2770,29,29,0,2020-10-24,34.64916145,-92.67583224
Arkansas,Scott,208,11,1,0,2020-10-24,34.85588887,-94.0632176
Arkansas,Searcy,197,1,1,0,2020-10-24,35.9109364,-92.69936482
Arkansas,Sebastian,4753,49,89,-1,2020-10-24,35.19605503,-94.27162713
Arkansas,Sevier,1327,16,16,0,2020-10-24,33.99780401,-94.2424869
Arkansas,Sharp,340,7,10,0,2020-10-24,36.16258158,-91.47819342
Arkansas,Stone,396,2,21,0,2020-10-24,35.86251946,-92.15684085
Arkansas,Union,1116,9,49,0,2020-10-24,33.16887091,-92.59746952
Arkansas,Van Buren,205,0,3,0,2020-10-24,35.58095779,-92.51295036
Arkansas,Washington,11298,110,147,1,2020-10-24,35.976844,-94.21800746
Arkansas,White,1438,31,32,0,2020-10-24,35.25688493,-91.74908296
Arkansas,Woodruff,112,9,0,0,2020-10-24,35.18902527,-91.2439489
Arkansas,Yell,1337,4,31,1,2020-10-24,35.00292371,-93.41171338
California,Alameda,23215,82,460,4,2020-10-24,37.64629437,-121.8929271
California,Alpine,3,0,0,0,2020-10-24,38.59678594,-119.8223594
California,Amador,324,7,16,0,2020-10-24,38.44583082,-120.65696
California,Butte,3059,13,52,0,2020-10-24,39.66727762,-121.6005252
California,Calaveras,342,3,18,1,2020-10-24,38.20537103,-120.552913
California,Colusa,550,1,6,0,2020-10-24,39.17881957,-122.2331726
California,Contra Costa,18523,110,241,1,2020-10-24,37.91923498,-121.9289527
California,Del Norte,178,0,1,0,2020-10-24,41.74228275,-123.8974063
California,El Dorado,1315,7,4,0,2020-10-24,38.77965956,-120.5233166
California,Fresno,30590,119,436,0,2020-10-24,36.75733899,-119.6466953
California,Glenn,657,5,3,0,2020-10-24,39.59875897,-122.3938452
California,Humboldt,562,1,9,0,2020-10-24,40.69923009,-123.876044
California,Imperial,12700,0,336,0,2020-10-24,33.0393082,-115.3669042
California,Inyo,227,0,15,0,2020-10-24,36.51112084,-117.41119779999998
California,Kern,33775,106,416,0,2020-10-24,35.34329425,-118.7277796
California,Kings,8218,17,83,0,2020-10-24,36.07409056,-119.8159973
California,Lake,689,10,15,0,2020-10-24,39.10124298,-122.7536244
California,Lassen,766,2,1,0,2020-10-24,40.67311306,-120.59350990000002
California,Los Angeles,298937,2116,6989,15,2020-10-24,34.30828379,-118.2282411
California,Madera,4981,0,74,0,2020-10-24,37.21513971,-119.76655890000002
California,Marin,7057,12,128,0,2020-10-24,38.07122463,-122.7210631
California,Mariposa,78,0,2,0,2020-10-24,37.57978556,-119.9073334
California,Mendocino,1124,3,21,0,2020-10-24,39.4381191,-123.3911313
California,Merced,9465,26,155,1,2020-10-24,37.18922369,-120.7209035
California,Modoc,29,0,0,0,2020-10-24,41.58965602,-120.7244817
California,Mono,178,2,2,0,2020-10-24,37.93899289,-118.8872409
California,Monterey,11321,37,89,2,2020-10-24,36.21862405,-121.2413397
California,Napa,1942,14,15,0,2020-10-24,38.50735751,-122.332839
California,Nevada,608,5,8,0,2020-10-24,39.30394768,-120.7627281
California,Orange,58326,316,1444,4,2020-10-24,33.70147516,-117.76459979999998
California,Placer,4088,0,57,0,2020-10-24,39.06167234,-120.7240569
California,Plumas,68,5,0,0,2020-10-24,40.00355989,-120.8395236
California,Riverside,65757,0,1279,0,2020-10-24,33.74314981,-115.9933578
California,Sacramento,25264,170,484,2,2020-10-24,38.45106826,-121.3425374
California,San Benito,1436,4,15,0,2020-10-24,36.60308176,-121.069975
California,San Bernardino,62353,627,1072,2,2020-10-24,34.84060306,-116.1774685
California,San Diego,54314,386,868,1,2020-10-24,33.03484597,-116.7365326
California,San Joaquin,21630,102,489,1,2020-10-24,37.93433732,-121.2730061
California,San Luis Obispo,4141,20,32,0,2020-10-24,35.38822029,-120.4039028
California,San Mateo,11075,73,159,0,2020-10-24,37.4228808,-122.32755459999998
California,Santa Barbara,9760,45,120,0,2020-10-24,34.65329488,-120.0188492
California,Santa Clara,24014,133,388,0,2020-10-24,37.23104908,-121.6970462
California,Santa Cruz,2771,18,25,0,2020-10-24,37.05580291,-122.0066524
California,Shasta,1846,7,30,0,2020-10-24,40.76391419,-122.0396884
California,Sierra,6,0,0,0,2020-10-24,39.57713498,-120.52007009999998
California,Siskiyou,193,5,0,0,2020-10-24,41.59198861,-122.5407434
California,Solano,7286,0,74,0,2020-10-24,38.26827353,-121.9357113
California,Sonoma,9163,0,134,0,2020-10-24,38.52746429,-122.8862506
California,Stanislaus,17572,63,396,0,2020-10-24,37.55862499,-120.9970722
California,Sutter,1837,0,12,0,2020-10-24,39.03417539,-121.6945899
California,Tehama,862,10,8,0,2020-10-24,40.12570935,-122.2370171
California,Trinity,26,0,0,0,2020-10-24,40.64917670000001,-123.114713
California,Tulare,17495,70,286,2,2020-10-24,36.22026558,-118.8020203
California,Tuolumne,268,6,4,0,2020-10-24,38.02644018,-119.9525093
California,Ventura,14192,68,164,2,2020-10-24,34.44465746,-119.0910613
California,Yolo,3166,22,58,0,2020-10-24,38.68278902,-121.9018288
California,Yuba,1293,0,10,0,2020-10-24,39.26255932,-121.3535644
Colorado,Adams,13065,247,254,1,2020-10-24,39.87432092,-104.3362578
Colorado,Alamosa,298,4,9,0,2020-10-24,37.57250606,-105.7885451
Colorado,Arapahoe,11939,173,378,0,2020-10-24,39.64977461,-104.3353617
Colorado,Archuleta,65,2,0,0,2020-10-24,37.19474156,-107.0476867
Colorado,Baca,30,1,0,0,2020-10-24,37.31940883,-102.5603223
Colorado,Bent,14,0,0,0,2020-10-24,37.95474293,-103.0720195
Colorado,Boulder,5339,85,85,0,2020-10-24,40.09313619,-105.3546767
Colorado,Chaffee,386,5,20,0,2020-10-24,38.74745778,-106.19265729999998
Colorado,Cheyenne,15,0,0,0,2020-10-24,38.82777431,-102.6032558
Colorado,Clear Creek,68,3,1,0,2020-10-24,39.68864463,-105.6463118
Colorado,Conejos,66,1,0,0,2020-10-24,37.201606,-106.19174879999998
Colorado,Costilla,36,0,1,0,2020-10-24,37.27732493,-105.4276548
Colorado,Crowley,89,4,1,0,2020-10-24,38.32608609,-103.7844965
Colorado,Custer,20,1,0,0,2020-10-24,38.10883162,-105.3683478
Colorado,Delta,199,-1,3,0,2020-10-24,38.86246243,-107.8631342
Colorado,Dolores,3,0,0,0,2020-10-24,37.75208676,-108.5211585
Colorado,Douglas,3609,90,64,0,2020-10-24,39.33133796,-104.930001
Colorado,Eagle,1411,12,10,0,2020-10-24,39.62754308,-106.6933637
Colorado,Elbert,200,7,3,0,2020-10-24,39.28656773,-104.1358721
Colorado,El Paso,9592,243,194,0,2020-10-24,38.83240149,-104.5251411
Colorado,Fremont,628,17,1,0,2020-10-24,38.47362326,-105.4399667
Colorado,Garfield,1135,17,5,0,2020-10-24,39.59921777,-107.902708
Colorado,Gilpin,29,0,0,0,2020-10-24,39.85646523,-105.5252597
Colorado,Grand,142,0,1,0,2020-10-24,40.10603347,-106.1178042
Colorado,Gunnison,305,0,7,0,2020-10-24,38.66611652,-107.0320729
Colorado,Hinsdale,3,0,0,0,2020-10-24,37.82247444,-107.3004345
Colorado,Huerfano,33,4,2,0,2020-10-24,37.68473101,-104.9612585
Colorado,Jackson,9,0,0,0,2020-10-24,40.66593870000001,-106.3408905
Colorado,Jefferson,7903,182,307,2,2020-10-24,39.58635604,-105.2517692
Colorado,Kiowa,3,0,0,0,2020-10-24,38.43260896,-102.7392145
Colorado,Kit Carson,131,9,3,0,2020-10-24,39.30497777,-102.6022199
Colorado,Lake,127,3,0,0,2020-10-24,39.20278823,-106.3555697
Colorado,La Plata,347,6,2,0,2020-10-24,37.28632032,-107.8429014
Colorado,Larimer,3883,82,56,1,2020-10-24,40.66671597,-105.4625784
Colorado,Las Animas,69,3,1,0,2020-10-24,37.3153406,-104.0376458
Colorado,Lincoln,24,0,0,0,2020-10-24,38.98749519,-103.5136649
Colorado,Logan,1177,28,12,1,2020-10-24,40.7249637,-103.110817
Colorado,Mesa,1281,72,11,2,2020-10-24,39.01787888,-108.469799
Colorado,Mineral,21,0,0,0,2020-10-24,37.66954283,-106.9281698
Colorado,Moffat,61,3,1,0,2020-10-24,40.61810999,-108.2070876
Colorado,Montezuma,192,3,5,0,2020-10-24,37.33859579,-108.5958857
Colorado,Montrose,455,14,13,0,2020-10-24,38.40214114,-108.26390220000002
Colorado,Morgan,846,11,48,0,2020-10-24,40.26279810000001,-103.8093302
Colorado,Otero,125,2,6,0,2020-10-24,37.9014485,-103.7173385
Colorado,Ouray,36,0,2,0,2020-10-24,38.14717457,-107.7675136
Colorado,Park,93,2,1,0,2020-10-24,39.120926,-105.7182065
Colorado,Phillips,48,4,0,0,2020-10-24,40.59414277,-102.3577703
Colorado,Pitkin,276,5,2,0,2020-10-24,39.21720112,-106.9310027
Colorado,Prowers,166,8,0,0,2020-10-24,37.95544985,-102.3926052
Colorado,Pueblo,1790,28,40,0,2020-10-24,38.17359144,-104.5127437
Colorado,Rio Blanco,27,0,0,0,2020-10-24,39.97913541,-108.2179009
Colorado,Rio Grande,118,2,3,0,2020-10-24,37.5836865,-106.3847838
Colorado,Routt,202,2,8,0,2020-10-24,40.48596505,-106.9905548
Colorado,Saguache,133,3,2,0,2020-10-24,38.08054629,-106.282466
Colorado,San Juan,11,4,0,0,2020-10-24,37.76248981,-107.67632890000002
Colorado,San Miguel,101,1,0,0,2020-10-24,38.00450883,-108.4020725
Colorado,Sedgwick,40,2,1,0,2020-10-24,40.87595412,-102.3519227
Colorado,Summit,653,17,4,0,2020-10-24,39.63803232,-106.1150762
Colorado,Teller,214,9,4,0,2020-10-24,38.88133511,-105.1614893
Colorado,Washington,93,8,0,0,2020-10-24,39.97015535,-103.202587
Colorado,Weld,5810,102,159,0,2020-10-24,40.55499405,-104.3929621
Colorado,Yuma,210,6,1,0,2020-10-24,40.00346839,-102.4258673
Connecticut,Fairfield,22322,0,1430,0,2020-10-24,41.26809896,-73.3881171
Connecticut,Hartford,17062,0,1464,0,2020-10-24,41.80283011,-72.73103891
Connecticut,Litchfield,2116,0,143,0,2020-10-24,41.7937534,-73.2451475
Connecticut,Middlesex,1873,0,196,0,2020-10-24,41.45949668,-72.53714864
Connecticut,New Haven,16073,0,1123,0,2020-10-24,41.4080325,-72.93620426
Connecticut,New London,3456,0,136,0,2020-10-24,41.48896435,-72.10430976
Connecticut,Tolland,1689,0,68,0,2020-10-24,41.85853803,-72.3308481
Connecticut,Windham,1324,0,17,0,2020-10-24,41.82972709,-71.98182316
Delaware,Kent,3407,13,120,0,2020-10-24,39.08646628,-75.56884914
Delaware,New Castle,12579,88,339,0,2020-10-24,39.57992638,-75.64054974
Delaware,Sussex,7770,59,221,2,2020-10-24,38.66143781,-75.39031349
Florida,Alachua,9989,94,74,0,2020-10-24,29.67866525,-82.35928158
Florida,Baker,1749,9,19,0,2020-10-24,30.33060121,-82.28467476
Florida,Bay,6643,23,132,0,2020-10-24,30.26548745,-85.62122584
Florida,Bradford,1219,5,15,0,2020-10-24,29.95079741,-82.16611613
Florida,Brevard,10999,150,366,-1,2020-10-24,28.29409504,-80.73091022
Florida,Broward,83165,459,1520,1,2020-10-24,26.15184651,-80.48725556
Florida,Calhoun,701,1,14,0,2020-10-24,30.40666734,-85.19394153
Florida,Charlotte,3487,24,157,0,2020-10-24,26.90131002,-81.92949121
Florida,Citrus,3145,21,130,0,2020-10-24,28.84804315,-82.47614748
Florida,Clay,5932,33,117,0,2020-10-24,29.98319144,-81.85609986
Florida,Collier,14025,98,253,2,2020-10-24,26.11091986,-81.34687065
Florida,Columbia,4200,25,71,0,2020-10-24,30.22509788,-82.62160164
Florida,DeSoto,1651,7,29,0,2020-10-24,27.18677893,-81.80941373
Florida,Dixie,881,1,11,0,2020-10-24,29.60631086,-83.15724673
Florida,Duval,34177,231,513,1,2020-10-24,30.33225875,-81.66976468
Florida,Escambia,13282,88,269,0,2020-10-24,30.67652764,-87.37284571
Florida,Flagler,2070,18,37,0,2020-10-24,29.45933576,-81.31508595
Florida,Franklin,747,5,4,0,2020-10-24,29.83791238,-84.82731662
Florida,Gadsden,3049,11,54,0,2020-10-24,30.57796289,-84.61915825
Florida,Gilchrist,601,1,18,0,2020-10-24,29.72856978,-82.79880657
Florida,Glades,593,0,6,0,2020-10-24,26.95635849,-81.18996211
Florida,Gulf,933,0,15,0,2020-10-24,29.93543004,-85.24270990000002
Florida,Hamilton,901,2,9,0,2020-10-24,30.49673973,-82.94998918
Florida,Hardee,1576,10,16,0,2020-10-24,27.49293939,-81.80956574
Florida,Hendry,2188,8,43,0,2020-10-24,26.55386945,-81.16469006
Florida,Hernando,3594,34,165,1,2020-10-24,28.55364461,-82.42700204
Florida,Highlands,2528,15,110,0,2020-10-24,27.34254618,-81.34071957
Florida,Hillsborough,46790,272,759,2,2020-10-24,27.9276559,-82.32013172
Florida,Holmes,881,12,12,0,2020-10-24,30.86747479,-85.81319222
Florida,Indian River,3674,25,126,4,2020-10-24,27.69308961,-80.60556721
Florida,Jackson,3097,12,83,0,2020-10-24,30.7954597,-85.21500423
Florida,Jefferson,658,8,9,0,2020-10-24,30.43669112,-83.89442308
Florida,Lafayette,1272,3,16,0,2020-10-24,29.98484137,-83.18166636
Florida,Lake,8415,28,225,-2,2020-10-24,28.76202069,-81.7125123
Florida,Lee,22619,139,506,1,2020-10-24,26.58410348,-81.88399313
Florida,Leon,11958,56,112,10,2020-10-24,30.45955727,-84.27491114
Florida,Levy,1118,4,12,0,2020-10-24,29.31829741,-82.74007147
Florida,Liberty,532,0,10,0,2020-10-24,30.23766008,-84.8829258
Florida,Madison,1072,1,24,0,2020-10-24,30.44396917,-83.47398594
Florida,Manatee,12930,88,327,3,2020-10-24,27.47196942,-82.31831044
Florida,Marion,10678,48,340,-1,2020-10-24,29.21227113,-82.05803627
Florida,Martin,5276,33,164,0,2020-10-24,27.0772071,-80.43109784
Florida,Miami-Dade,181633,616,3605,8,2020-10-24,25.6112362,-80.55170587
Florida,Monroe,2178,27,25,0,2020-10-24,25.20904673,-81.07812416
Florida,Nassau,2419,18,50,0,2020-10-24,30.61037141,-81.80297522
Florida,Okaloosa,6098,66,130,0,2020-10-24,30.69143028,-86.59267105
Florida,Okeechobee,1711,13,38,0,2020-10-24,27.386336199999995,-80.88944347
Florida,Orange,44921,316,546,9,2020-10-24,28.51367621,-81.31799498
Florida,Osceola,13852,74,194,9,2020-10-24,28.06312234,-81.14882926
Florida,Palm Beach,50316,328,1561,3,2020-10-24,26.64676272,-80.46536002
Florida,Pasco,10539,74,236,9,2020-10-24,28.30810945,-82.40227529
Florida,Pinellas,24986,197,816,1,2020-10-24,27.93130349,-82.72239666
Florida,Polk,22481,149,615,13,2020-10-24,27.95027105,-81.69732947
Florida,Putnam,2348,11,50,0,2020-10-24,29.60779729,-81.74230285
Florida,St. Johns,6236,43,80,2,2020-10-24,29.90096506,-81.43589967
Florida,St. Lucie,8857,59,329,-1,2020-10-24,27.37763908,-80.47106649
Florida,Santa Rosa,5849,39,86,0,2020-10-24,30.693414500000006,-87.02458128
Florida,Sarasota,9340,60,330,1,2020-10-24,27.18546175,-82.33174248
Florida,Seminole,10009,81,236,1,2020-10-24,28.7158582,-81.24060348
Florida,Sumter,2844,18,84,1,2020-10-24,28.70181754,-82.0794267
Florida,Suwannee,2967,11,77,0,2020-10-24,30.19746066,-82.99099670000003
Florida,Taylor,1446,10,16,0,2020-10-24,30.04848048,-83.60445406
Florida,Union,1117,6,41,0,2020-10-24,30.04412971,-82.37497443
Florida,Volusia,12399,111,316,0,2020-10-24,29.05858895,-81.18263252
Florida,Wakulla,1299,10,11,0,2020-10-24,30.16548905,-84.39895211
Florida,Walton,2347,24,29,0,2020-10-24,30.64204028,-86.16935664
Florida,Washington,1209,6,24,0,2020-10-24,30.61359259,-85.66002461
Georgia,Appling,1161,5,36,0,2020-10-24,31.74847232,-82.28909114
Georgia,Atkinson,480,3,6,1,2020-10-24,31.29633502,-82.87545866
Georgia,Bacon,634,3,16,0,2020-10-24,31.55456473,-82.45936528
Georgia,Baker,90,0,6,0,2020-10-24,31.32669878,-84.44218806
Georgia,Baldwin,2297,12,64,1,2020-10-24,33.06882326,-83.24701748
Georgia,Banks,551,2,8,0,2020-10-24,34.35607081,-83.49644388
Georgia,Barrow,2563,15,50,0,2020-10-24,33.99148694,-83.71436292
Georgia,Bartow,3538,27,94,0,2020-10-24,34.23732119,-84.83887523
Georgia,Ben Hill,867,0,33,-1,2020-10-24,31.76095874,-83.22145359
Georgia,Berrien,490,5,13,1,2020-10-24,31.27590016,-83.22529920000002
Georgia,Bibb,6566,16,193,-1,2020-10-24,32.80904227,-83.70489165
Georgia,Bleckley,511,1,27,3,2020-10-24,32.43829035,-83.33035166
Georgia,Brantley,427,6,13,0,2020-10-24,31.19576557,-81.97743999
Georgia,Brooks,552,1,27,0,2020-10-24,30.83922642,-83.58303423
Georgia,Bryan,1283,1,14,0,2020-10-24,32.00979311,-81.44002948
Georgia,Bulloch,3061,7,33,0,2020-10-24,32.39577406,-81.74811421
Georgia,Burke,879,2,12,0,2020-10-24,33.05917989,-81.99928721
Georgia,Butts,739,5,44,0,2020-10-24,33.283094500000004,-83.95435040000002
Georgia,Calhoun,266,1,9,0,2020-10-24,31.53169785,-84.62725131
Georgia,Camden,1402,4,18,0,2020-10-24,30.92951916,-81.66601818
Georgia,Candler,536,6,24,0,2020-10-24,32.40209349,-82.07702563
Georgia,Carroll,3310,13,75,0,2020-10-24,33.58138199,-85.07976677
Georgia,Catoosa,1387,10,22,1,2020-10-24,34.89872298,-85.13757014
Georgia,Charlton,646,2,10,0,2020-10-24,30.78371028,-82.13951596
Georgia,Chatham,9317,37,186,0,2020-10-24,32.00043026,-81.12489526
Georgia,Chattahoochee,1742,7,1,0,2020-10-24,32.34341231,-84.78809239
Georgia,Chattooga,914,4,29,0,2020-10-24,34.47197698,-85.34535662
Georgia,Cherokee,6998,48,101,1,2020-10-24,34.24393976,-84.47431861
Georgia,Clarke,5678,22,47,0,2020-10-24,33.95436462,-83.37124007
Georgia,Clay,124,0,3,0,2020-10-24,31.62221166,-84.97713865
Georgia,Clayton,8102,65,175,0,2020-10-24,33.54187245,-84.35594188
Georgia,Clinch,444,7,12,0,2020-10-24,30.91395822,-82.70432472
Georgia,Cobb,21676,113,454,2,2020-10-24,33.94243204,-84.5761255
Georgia,Coffee,2240,10,60,0,2020-10-24,31.54892966,-82.85492059999999
Georgia,Colquitt,2114,13,39,0,2020-10-24,31.18810588,-83.7677946
Georgia,Columbia,4311,28,64,0,2020-10-24,33.54534185,-82.263524
Georgia,Cook,581,0,16,0,2020-10-24,31.16068491,-83.42947229
Georgia,Coweta,2928,13,63,0,2020-10-24,33.35334302,-84.76129976
Georgia,Crawford,194,1,6,0,2020-10-24,32.71391813,-83.98061238
Georgia,Crisp,641,4,23,0,2020-10-24,31.92289565,-83.76811843
Georgia,Dade,342,3,6,1,2020-10-24,34.854916700000004,-85.50490424
Georgia,Dawson,907,4,11,0,2020-10-24,34.44244079,-84.16964071
Georgia,Decatur,1287,9,34,0,2020-10-24,30.87967778,-84.57619536
Georgia,DeKalb,20883,114,395,-2,2020-10-24,33.76944049,-84.22396017
Georgia,Dodge,590,7,15,0,2020-10-24,32.17265114,-83.16948926
Georgia,Dooly,369,1,18,1,2020-10-24,32.15630737,-83.79746561
Georgia,Dougherty,3293,4,191,0,2020-10-24,31.53328528,-84.21722377
Georgia,Douglas,4053,14,72,0,2020-10-24,33.70291126,-84.77026156
Georgia,Early,545,0,35,0,2020-10-24,31.32155345,-84.90255207
Georgia,Echols,244,0,2,0,2020-10-24,30.71101099,-82.89687287
Georgia,Effingham,1769,10,28,1,2020-10-24,32.36616021,-81.34280942
Georgia,Elbert,764,3,9,0,2020-10-24,34.11302332,-82.83936148
Georgia,Emanuel,1191,4,36,0,2020-10-24,32.59221302,-82.30239915
Georgia,Evans,479,1,7,0,2020-10-24,32.15328841,-81.8870105
Georgia,Fannin,814,9,28,0,2020-10-24,34.86430205,-84.316964
Georgia,Fayette,2104,3,57,1,2020-10-24,33.41357794,-84.49089434
Georgia,Floyd,3866,29,59,1,2020-10-24,34.26268279,-85.21577392
Georgia,Forsyth,4674,27,52,0,2020-10-24,34.22604035,-84.12315129999998
Georgia,Franklin,915,28,17,0,2020-10-24,34.37525597,-83.23159927
Georgia,Fulton,30691,151,618,4,2020-10-24,33.79216944,-84.46319413
Georgia,Gilmer,1020,12,23,0,2020-10-24,34.69316688,-84.45802506
Georgia,Glascock,48,0,2,0,2020-10-24,33.22879932,-82.61297636
Georgia,Glynn,3696,15,104,0,2020-10-24,31.23279254,-81.53811412
Georgia,Gordon,2307,16,44,1,2020-10-24,34.50487351,-84.87296253
Georgia,Grady,850,1,25,0,2020-10-24,30.87454847,-84.23418364
Georgia,Greene,569,3,25,0,2020-10-24,33.5769205,-83.17139104
Georgia,Gwinnett,30204,95,440,2,2020-10-24,33.96044201,-84.02137802
Georgia,Habersham,1868,7,77,2,2020-10-24,34.63331566,-83.53094677
Georgia,Hall,10574,45,173,0,2020-10-24,34.32207823,-83.81896936
Georgia,Hancock,413,-1,44,0,2020-10-24,33.2721566,-82.99766919
Georgia,Haralson,630,5,10,0,2020-10-24,33.79602175,-85.21005667
Georgia,Harris,849,2,25,0,2020-10-24,32.73709786,-84.90538572
Georgia,Hart,570,4,16,0,2020-10-24,34.34626973,-82.96567682
Georgia,Heard,224,2,6,0,2020-10-24,33.29686567,-85.12886832
Georgia,Henry,6096,46,112,0,2020-10-24,33.4533428,-84.14814659999998
Georgia,Houston,3566,22,94,2,2020-10-24,32.45802497,-83.66879087
Georgia,Irwin,356,4,8,2,2020-10-24,31.60213036,-83.27501387
Georgia,Jackson,2337,14,40,0,2020-10-24,34.13794553,-83.56814788
Georgia,Jasper,243,0,4,0,2020-10-24,33.31535543,-83.68844964
Georgia,Jeff Davis,785,2,23,0,2020-10-24,31.80405727,-82.63724870000001
Georgia,Jefferson,852,3,32,0,2020-10-24,33.05867328,-82.41609057
Georgia,Jenkins,463,0,32,0,2020-10-24,32.79248718,-81.96040187
Georgia,Johnson,440,0,22,0,2020-10-24,32.70211082,-82.66166794
Georgia,Jones,641,3,16,1,2020-10-24,33.02512137,-83.56019163
Georgia,Lamar,405,2,19,0,2020-10-24,33.07841647,-84.14263877
Georgia,Lanier,317,1,7,0,2020-10-24,31.038285700000007,-83.06472457
Georgia,Laurens,1967,23,86,0,2020-10-24,32.46325233,-82.92221316
Georgia,Lee,746,2,29,2,2020-10-24,31.779330600000005,-84.14324253
Georgia,Liberty,1232,4,25,0,2020-10-24,31.82588896,-81.49251135
Georgia,Lincoln,231,0,7,0,2020-10-24,33.79201475,-82.45024131
Georgia,Long,274,0,4,0,2020-10-24,31.75218791,-81.74952375
Georgia,Lowndes,4423,24,85,0,2020-10-24,30.83568832,-83.27056716
Georgia,Lumpkin,1038,3,15,0,2020-10-24,34.57286511,-84.00425681
Georgia,McDuffie,673,0,15,0,2020-10-24,33.47851918,-82.48252774
Georgia,McIntosh,304,1,7,0,2020-10-24,31.49683595,-81.40163426
Georgia,Macon,248,0,10,0,2020-10-24,32.35207048,-84.04234127
Georgia,Madison,774,3,11,0,2020-10-24,34.12920917,-83.21218732
Georgia,Marion,196,0,9,0,2020-10-24,32.3483402,-84.52733571
Georgia,Meriwether,592,7,16,0,2020-10-24,33.04163534,-84.68859732
Georgia,Miller,305,-1,2,0,2020-10-24,31.16568912,-84.73151117
Georgia,Mitchell,850,2,45,0,2020-10-24,31.22483255,-84.19381821
Georgia,Monroe,750,1,53,0,2020-10-24,33.014289,-83.92097166
Georgia,Montgomery,371,3,10,1,2020-10-24,32.17201038,-82.53527476
Georgia,Morgan,524,3,6,0,2020-10-24,33.59232073,-83.49129491
Georgia,Murray,1014,9,9,0,2020-10-24,34.78897608,-84.74993177
Georgia,Muscogee,6328,15,174,1,2020-10-24,32.50931999,-84.87142262
Georgia,Newton,2839,10,95,0,2020-10-24,33.55514538,-83.84547140000002
Georgia,Oconee,854,3,30,1,2020-10-24,33.83749973,-83.43679568
Georgia,Oglethorpe,407,3,12,1,2020-10-24,33.878629600000004,-83.08278123
Georgia,Paulding,3105,14,60,0,2020-10-24,33.91969522,-84.86848792
Georgia,Peach,763,5,26,1,2020-10-24,32.56934316,-83.82937
Georgia,Pickens,741,6,10,0,2020-10-24,34.46589159,-84.46406611
Georgia,Pierce,667,6,24,0,2020-10-24,31.35928155,-82.21598442
Georgia,Pike,382,1,11,-1,2020-10-24,33.09310242,-84.38790389
Georgia,Polk,1691,3,27,0,2020-10-24,34.00267074,-85.18677781
Georgia,Pulaski,335,3,23,0,2020-10-24,32.23334561,-83.47549959999998
Georgia,Putnam,788,4,27,0,2020-10-24,33.32056115,-83.37552891
Georgia,Quitman,38,0,1,0,2020-10-24,31.86728114,-85.01773177
Georgia,Rabun,423,3,11,0,2020-10-24,34.88389445,-83.40304637
Georgia,Randolph,339,1,29,0,2020-10-24,31.76622818,-84.75732369
Georgia,Richmond,7876,31,181,6,2020-10-24,33.35777107,-82.07026432
Georgia,Rockdale,2101,28,40,0,2020-10-24,33.65145002,-84.02202167
Georgia,Schley,109,0,2,0,2020-10-24,32.2654021,-84.31258912
Georgia,Screven,448,1,11,0,2020-10-24,32.74976524,-81.60779441
Georgia,Seminole,392,2,11,0,2020-10-24,30.93464824,-84.86823924
Georgia,Spalding,1561,12,62,0,2020-10-24,33.26310031,-84.28013991
Georgia,Stephens,1263,1,41,0,2020-10-24,34.55151201,-83.29405315
Georgia,Stewart,535,1,16,0,2020-10-24,32.07996777,-84.83208037
Georgia,Sumter,959,0,68,-1,2020-10-24,32.03650571,-84.19821492
Georgia,Talbot,174,1,7,0,2020-10-24,32.69642758,-84.53351366
Georgia,Taliaferro,26,1,0,0,2020-10-24,33.56543317,-82.88136816
Georgia,Tattnall,919,4,13,0,2020-10-24,32.04785085,-82.05539188
Georgia,Taylor,228,2,12,0,2020-10-24,32.55792548,-84.25077141
Georgia,Telfair,501,57,24,0,2020-10-24,31.92829517,-82.93491155
Georgia,Terrell,340,0,32,0,2020-10-24,31.77527543,-84.44069698
Georgia,Thomas,1592,6,69,0,2020-10-24,30.86392347,-83.91847289
Georgia,Tift,1942,11,63,0,2020-10-24,31.45743864,-83.5236119
Georgia,Toombs,1471,3,56,-1,2020-10-24,32.12059861,-82.32957247
Georgia,Towns,428,6,13,1,2020-10-24,34.91369188,-83.74107459999998
Georgia,Treutlen,302,1,11,0,2020-10-24,32.40422134,-82.56904553
Georgia,Troup,3019,11,106,0,2020-10-24,33.03349196,-85.02812115
Georgia,Turner,333,1,24,0,2020-10-24,31.71612656,-83.62069378
Georgia,Twiggs,216,1,10,1,2020-10-24,32.67435595,-83.43078662
Georgia,Union,880,5,25,0,2020-10-24,34.82995757,-83.98967069
Georgia,Upson,832,2,70,1,2020-10-24,32.87920671,-84.30024826
Georgia,Walker,1841,15,43,0,2020-10-24,34.73376362,-85.30165174
Georgia,Walton,2310,39,68,1,2020-10-24,33.78017694,-83.73552314
Georgia,Ware,1722,0,63,1,2020-10-24,31.05449097,-82.42224148
Georgia,Warren,163,0,5,0,2020-10-24,33.41146451,-82.67795848
Georgia,Washington,756,7,13,0,2020-10-24,32.96711864,-82.79357039
Georgia,Wayne,1221,6,33,1,2020-10-24,31.5521809,-81.91894878
Georgia,Webster,43,0,2,0,2020-10-24,32.04066113,-84.54742852
Georgia,Wheeler,367,4,16,0,2020-10-24,32.12009104,-82.72574721
Georgia,White,997,3,23,0,2020-10-24,34.64624278,-83.74905525
Georgia,Whitfield,5325,57,64,0,2020-10-24,34.80987459,-84.96093476
Georgia,Wilcox,255,4,25,0,2020-10-24,31.97496928,-83.43438555
Georgia,Wilkes,290,1,6,0,2020-10-24,33.78290391,-82.74286107
Georgia,Wilkinson,366,2,17,0,2020-10-24,32.80291082,-83.17140684
Georgia,Worth,605,1,32,0,2020-10-24,31.55162306,-83.85090513
Idaho,Ada,16179,294,164,4,2020-10-24,43.4526575,-116.24155159999998
Idaho,Adams,48,9,2,0,2020-10-24,44.89333571,-116.4545247
Idaho,Bannock,2290,86,10,0,2020-10-24,42.67002716,-112.2233311
Idaho,Bear Lake,67,0,1,0,2020-10-24,42.28269683,-111.32892379999998
Idaho,Benewah,170,1,3,0,2020-10-24,47.21754179,-116.6586851
Idaho,Bingham,1539,27,17,0,2020-10-24,43.21672879999999,-112.3978437
Idaho,Blaine,859,5,7,0,2020-10-24,43.4085812,-113.9752658
Idaho,Boise,75,0,2,0,2020-10-24,43.98829931,-115.7309284
Idaho,Bonner,470,10,1,0,2020-10-24,48.29996017,-116.6017932
Idaho,Bonneville,4249,39,28,1,2020-10-24,43.38713372,-111.6161537
Idaho,Boundary,132,6,1,0,2020-10-24,48.76684761,-116.4630179
Idaho,Butte,93,1,0,0,2020-10-24,43.72592209,-113.1735463
Idaho,Camas,41,1,0,0,2020-10-24,43.46665742,-114.8065892
Idaho,Canyon,9736,92,108,0,2020-10-24,43.61970148,-116.7095499
Idaho,Caribou,256,7,4,0,2020-10-24,42.77149116,-111.5597683
Idaho,Cassia,1324,48,8,0,2020-10-24,42.28347888,-113.6012409
Idaho,Clark,40,0,0,0,2020-10-24,44.28496071,-112.3505704
Idaho,Clearwater,132,0,0,0,2020-10-24,46.67459924,-115.6622393
Idaho,Custer,93,0,1,0,2020-10-24,44.24186819,-114.2855494
Idaho,Elmore,511,10,4,0,2020-10-24,43.3507101,-115.4701578
Idaho,Franklin,337,8,1,0,2020-10-24,42.18332217,-111.8149666
Idaho,Fremont,462,25,4,1,2020-10-24,44.22800938,-111.4809943
Idaho,Gem,415,3,6,0,2020-10-24,44.06482372,-116.398376
Idaho,Gooding,528,13,7,1,2020-10-24,42.96927962,-114.8108306
Idaho,Idaho,336,-1,1,0,2020-10-24,45.84721541,-115.4634436
Idaho,Jefferson,919,8,3,0,2020-10-24,43.82078483,-112.3131749
Idaho,Jerome,1043,9,8,0,2020-10-24,42.68891267,-114.2655033
Idaho,Kootenai,3921,120,48,0,2020-10-24,47.67282258,-116.7020872
Idaho,Latah,887,1,0,0,2020-10-24,46.81587887,-116.7113698
Idaho,Lemhi,204,1,0,0,2020-10-24,44.9438088,-113.9309747
Idaho,Lewis,76,1,3,0,2020-10-24,46.23315327,-116.434146
Idaho,Lincoln,163,9,1,1,2020-10-24,43.0012336,-114.1358773
Idaho,Madison,2401,73,3,0,2020-10-24,43.78141028,-111.65384740000002
Idaho,Minidoka,1148,22,8,0,2020-10-24,42.85518524,-113.6357257
Idaho,Nez Perce,757,0,24,0,2020-10-24,46.32638236,-116.7500975
Idaho,Oneida,45,1,0,0,2020-10-24,42.19494279999999,-112.5407838
Idaho,Owyhee,387,3,5,0,2020-10-24,42.58016894,-116.1693871
Idaho,Payette,1112,8,10,0,2020-10-24,44.00545243,-116.7647695
Idaho,Power,356,1,2,0,2020-10-24,42.69254894,-112.83957420000002
Idaho,Shoshone,259,6,20,0,2020-10-24,47.35364087,-115.8916749
Idaho,Teton,274,0,2,0,2020-10-24,43.75303583,-111.2056773
Idaho,Twin Falls,3804,70,46,2,2020-10-24,42.35440512,-114.6685381
Idaho,Valley,115,2,1,0,2020-10-24,44.76728382,-115.5676773
Idaho,Washington,441,5,8,0,2020-10-24,44.45275475,-116.7847688
Illinois,Adams,1838,71,19,3,2020-10-24,39.98815591,-91.18786813
Illinois,Alexander,120,3,1,0,2020-10-24,37.18049267,-89.32910838
Illinois,Bond,488,4,9,0,2020-10-24,38.88829622,-89.43534887
Illinois,Boone,1830,40,25,0,2020-10-24,42.32359279,-88.82345779
Illinois,Brown,107,2,0,0,2020-10-24,39.96209138,-90.75068024
Illinois,Bureau,895,14,17,0,2020-10-24,41.40385234,-89.5283051
Illinois,Calhoun,67,0,0,0,2020-10-24,39.16840183,-90.66330078
Illinois,Carroll,401,17,11,2,2020-10-24,42.06823429,-89.93395545
Illinois,Cass,460,1,11,0,2020-10-24,39.96991073,-90.24734436
Illinois,Champaign,6048,103,29,1,2020-10-24,40.13919438,-88.20046615
Illinois,Christian,811,8,29,0,2020-10-24,39.54581621,-89.27780482
Illinois,Clark,307,9,17,6,2020-10-24,39.33425789,-87.78705622
Illinois,Clay,307,5,13,0,2020-10-24,38.75388572,-88.48914513
Illinois,Clinton,1733,24,26,0,2020-10-24,38.60704876,-89.42385254
Illinois,Coles,1896,32,39,1,2020-10-24,39.51949084,-88.22358557
Illinois,Cook,173817,2380,5409,17,2020-10-24,41.84144849,-87.81658794
Illinois,Crawford,644,-1,6,0,2020-10-24,39.0032229,-87.75954624
Illinois,Cumberland,281,11,6,0,2020-10-24,39.27432424,-88.2401158
Illinois,DeKalb,2317,66,42,0,2020-10-24,41.89373302,-88.76958483
Illinois,De Witt,255,4,6,1,2020-10-24,40.17514519,-88.90959682
Illinois,Douglas,655,39,9,1,2020-10-24,39.76768052,-88.21854195
Illinois,DuPage,22546,446,607,2,2020-10-24,41.85116968,-88.08642662
Illinois,Edgar,153,2,10,2,2020-10-24,39.6809186,-87.74759563
Illinois,Edwards,107,2,0,0,2020-10-24,38.41353228,-88.05720863
Illinois,Effingham,1159,20,4,0,2020-10-24,39.05935711,-88.58969584
Illinois,Fayette,674,8,22,0,2020-10-24,39.00072038,-89.02452658
Illinois,Ford,191,4,12,1,2020-10-24,40.59706922,-88.22350769
Illinois,Franklin,952,22,9,1,2020-10-24,37.99189086,-88.92567818
Illinois,Fulton,498,25,1,0,2020-10-24,40.47289135,-90.20862357
Illinois,Gallatin,106,0,2,0,2020-10-24,37.76430935,-88.22953869
Illinois,Greene,287,6,15,0,2020-10-24,39.35907414,-90.388865
Illinois,Grundy,960,24,7,0,2020-10-24,41.28569601,-88.41905692
Illinois,Hamilton,117,3,2,0,2020-10-24,38.08163641,-88.53883373
Illinois,Hancock,309,11,4,0,2020-10-24,40.40423981,-91.16313899
Illinois,Hardin,53,0,0,0,2020-10-24,37.51810645,-88.26873022
Illinois,Henderson,128,7,0,0,2020-10-24,40.81908672,-90.92491462
Illinois,Henry,842,11,7,0,2020-10-24,41.3533994,-90.13296166
Illinois,Iroquois,489,14,19,0,2020-10-24,40.74717633,-87.82466784
Illinois,Jackson,1524,13,26,0,2020-10-24,37.78595185,-89.38232563
Illinois,Jasper,261,1,10,0,2020-10-24,39.01054275,-88.15437049
Illinois,Jefferson,893,-1,48,2,2020-10-24,38.29980057,-88.9240025
Illinois,Jersey,470,3,21,0,2020-10-24,39.08869046,-90.35393073
Illinois,Jo Daviess,486,14,7,0,2020-10-24,42.36542373,-90.21094405
Illinois,Johnson,346,6,0,0,2020-10-24,37.45939802,-88.88165419
Illinois,Kane,16453,242,347,1,2020-10-24,41.93842729,-88.42861412
Illinois,Kankakee,3366,53,80,1,2020-10-24,41.13746989,-87.86205334
Illinois,Kendall,2630,35,30,2,2020-10-24,41.59081014,-88.42869583
Illinois,Knox,1272,41,16,0,2020-10-24,40.93148779,-90.21330340000002
Illinois,Lake,20485,328,509,1,2020-10-24,42.3224907,-88.00367925
Illinois,LaSalle,2378,58,63,0,2020-10-24,41.34426129999999,-88.88633881
Illinois,Lawrence,332,8,8,0,2020-10-24,38.71987914,-87.72884035
Illinois,Lee,705,36,1,0,2020-10-24,41.74583951,-89.29977132
Illinois,Livingston,626,18,10,0,2020-10-24,40.89188292,-88.55784752
Illinois,Logan,589,21,4,0,2020-10-24,40.12581572,-89.36638784
Illinois,McDonough,739,19,20,3,2020-10-24,40.45674722,-90.67775541
Illinois,McHenry,6225,176,120,0,2020-10-24,42.32451172,-88.45248227
Illinois,McLean,4103,62,34,0,2020-10-24,40.48996987,-88.84621113
Illinois,Macon,2969,137,51,0,2020-10-24,39.86064913,-88.96342505
Illinois,Macoupin,784,13,10,0,2020-10-24,39.26119767,-89.92424028
Illinois,Madison,7084,63,154,0,2020-10-24,38.83042506,-89.90422563
Illinois,Marion,991,15,19,2,2020-10-24,38.64963204,-88.91899208
Illinois,Marshall,150,2,3,0,2020-10-24,41.0327901,-89.34510444
Illinois,Mason,300,2,1,0,2020-10-24,40.23917274,-89.91824452
Illinois,Massac,154,7,2,0,2020-10-24,37.22078441,-88.71036614
Illinois,Menard,182,9,1,0,2020-10-24,40.02742725,-89.80246001
Illinois,Mercer,252,8,6,0,2020-10-24,41.20596782,-90.74290052
Illinois,Monroe,903,2,29,1,2020-10-24,38.27594376,-90.17761038
Illinois,Montgomery,609,14,16,1,2020-10-24,39.23198845,-89.47809254
Illinois,Morgan,890,22,24,0,2020-10-24,39.71654544,-90.20255104
Illinois,Moultrie,408,12,4,-1,2020-10-24,39.64187451,-88.62099969
Illinois,Ogle,1185,38,7,0,2020-10-24,42.04165196,-89.32184679
Illinois,Peoria,4485,52,70,2,2020-10-24,40.78702156,-89.76078901
Illinois,Perry,430,9,16,0,2020-10-24,38.08510853,-89.36856219
Illinois,Piatt,244,10,0,0,2020-10-24,40.01360584,-88.59319339
Illinois,Pike,332,9,6,2,2020-10-24,39.62265059,-90.8877017
Illinois,Pope,42,1,1,0,2020-10-24,37.41391284,-88.56152109
Illinois,Pulaski,235,2,1,0,2020-10-24,37.22631423,-89.13085001
Illinois,Putnam,90,2,0,0,2020-10-24,41.2013541,-89.2869272
Illinois,Randolph,1249,11,15,0,2020-10-24,38.05095369,-89.82512254
Illinois,Richland,333,3,16,0,2020-10-24,38.71240969,-88.08475366
Illinois,Rock Island,3960,71,90,0,2020-10-24,41.46613806,-90.57042164
Illinois,St. Clair,7878,64,218,1,2020-10-24,38.46996033,-89.93063427
Illinois,Saline,555,16,9,0,2020-10-24,37.75332999,-88.54119706
Illinois,Sangamon,3896,151,63,0,2020-10-24,39.75836914,-89.65872023
Illinois,Schuyler,91,3,1,0,2020-10-24,40.1571798,-90.61114163
Illinois,Scott,102,0,0,0,2020-10-24,39.6429169,-90.47814431
Illinois,Shelby,653,15,12,0,2020-10-24,39.39133527,-88.80611122
Illinois,Stark,85,2,3,1,2020-10-24,41.09309773,-89.79745866
Illinois,Stephenson,949,49,7,0,2020-10-24,42.35129217,-89.662598
Illinois,Tazewell,2594,35,56,3,2020-10-24,40.50716185,-89.51404662
Illinois,Union,784,33,25,0,2020-10-24,37.47119609,-89.25548938
Illinois,Vermilion,1697,44,10,0,2020-10-24,40.18417171,-87.73384359
Illinois,Wabash,220,2,5,0,2020-10-24,38.44272901,-87.84922065
Illinois,Warren,493,6,8,0,2020-10-24,40.84925021,-90.6147432
Illinois,Washington,301,4,2,1,2020-10-24,38.35309213,-89.40982703
Illinois,Wayne,481,8,12,0,2020-10-24,38.42955355,-88.42586459
Illinois,White,264,5,4,0,2020-10-24,38.08706198,-88.17657461
Illinois,Whiteside,1387,66,25,0,2020-10-24,41.75509713,-89.91556058
Illinois,Will,18179,317,427,1,2020-10-24,41.44619267,-87.97862712
Illinois,Williamson,1857,25,59,0,2020-10-24,37.73033511,-88.92994027
Illinois,Winnebago,10052,195,180,1,2020-10-24,42.33641854,-89.16085327
Illinois,Woodford,596,16,14,0,2020-10-24,40.78579374,-89.20973757
Indiana,Adams,510,8,7,0,2020-10-24,40.7457653,-84.93671406
Indiana,Allen,8424,146,230,0,2020-10-24,41.09194313,-85.06800636
Indiana,Bartholomew,1453,20,58,0,2020-10-24,39.20744865,-85.89558181
Indiana,Benton,109,-3,0,0,2020-10-24,40.60626947,-87.31093999
Indiana,Blackford,231,12,3,0,2020-10-24,40.47388153,-85.32499702
Indiana,Boone,1269,24,50,0,2020-10-24,40.0509304,-86.46841646
Indiana,Brown,146,3,3,0,2020-10-24,39.19605589,-86.22868909
Indiana,Carroll,332,3,13,0,2020-10-24,40.580783200000006,-86.56198812
Indiana,Cass,2269,14,22,0,2020-10-24,40.76135835,-86.34830753
Indiana,Clark,3007,40,63,1,2020-10-24,38.48015445,-85.70510334
Indiana,Clay,456,3,7,0,2020-10-24,39.39561833,-87.11723506
Indiana,Clinton,889,22,16,0,2020-10-24,40.30319754,-86.47277257
Indiana,Crawford,160,1,1,0,2020-10-24,38.28814402,-86.44518825
Indiana,Daviess,902,9,34,0,2020-10-24,38.70186039,-87.07185406
Indiana,Dearborn,1000,20,28,0,2020-10-24,39.14647946,-84.97333539
Indiana,Decatur,517,10,39,0,2020-10-24,39.30712658,-85.50087166
Indiana,DeKalb,745,25,11,0,2020-10-24,41.39804622,-84.99906934
Indiana,Delaware,3034,64,74,0,2020-10-24,40.22787247,-85.39732772
Indiana,Dubois,1427,31,26,0,2020-10-24,38.36597551,-86.87924170000002
Indiana,Elkhart,9026,136,137,2,2020-10-24,41.59761169,-85.85875695
Indiana,Fayette,732,42,18,0,2020-10-24,39.63684962,-85.17797541
Indiana,Floyd,1839,38,68,1,2020-10-24,38.32117957,-85.90385377
Indiana,Fountain,319,12,3,0,2020-10-24,40.12361933,-87.24217689
Indiana,Franklin,379,3,25,0,2020-10-24,39.4142482,-85.06062647
Indiana,Fulton,371,6,4,1,2020-10-24,41.0469907,-86.26252745
Indiana,Gibson,915,29,12,0,2020-10-24,38.30393723,-87.58054938
Indiana,Grant,1297,19,39,0,2020-10-24,40.51587228,-85.65468702
Indiana,Greene,558,5,38,1,2020-10-24,39.03630547,-86.96223202
Indiana,Hamilton,6293,78,114,1,2020-10-24,40.07306535,-86.05244729
Indiana,Hancock,1223,24,44,0,2020-10-24,39.82304555,-85.77566351
Indiana,Harrison,783,10,24,0,2020-10-24,38.19467379,-86.10948271
Indiana,Hendricks,3337,35,133,0,2020-10-24,39.76719009,-86.51037283
Indiana,Henry,1297,13,30,0,2020-10-24,39.93029017,-85.39625719
Indiana,Howard,1670,30,66,0,2020-10-24,40.48527731,-86.11351892
Indiana,Huntington,421,20,5,0,2020-10-24,40.82907273,-85.48822092
Indiana,Jackson,1164,20,17,1,2020-10-24,38.90915820000001,-86.03851889
Indiana,Jasper,643,26,5,0,2020-10-24,41.02078733,-87.11553319
Indiana,Jay,325,14,6,0,2020-10-24,40.43781032,-85.00576229
Indiana,Jefferson,345,2,5,0,2020-10-24,38.78576239,-85.43633383
Indiana,Jennings,373,4,13,0,2020-10-24,38.99588883,-85.62710784
Indiana,Johnson,3207,56,129,0,2020-10-24,39.48994426,-86.10149107
Indiana,Knox,795,21,10,0,2020-10-24,38.68861576,-87.4194665
Indiana,Kosciusko,1937,59,27,1,2020-10-24,41.24521668,-85.86312322
Indiana,LaGrange,821,11,15,0,2020-10-24,41.64232188,-85.42674232
Indiana,Lake,14023,218,358,3,2020-10-24,41.41874274,-87.38277575
Indiana,LaPorte,2317,51,60,2,2020-10-24,41.54366008,-86.74072188
Indiana,Lawrence,940,32,37,0,2020-10-24,38.84112637,-86.48361629
Indiana,Madison,2449,44,96,1,2020-10-24,40.16143691,-85.71964711
Indiana,Marion,25691,299,791,2,2020-10-24,39.78163624,-86.13826325
Indiana,Marshall,1427,27,26,0,2020-10-24,41.32467367,-86.26185087
Indiana,Martin,201,1,0,0,2020-10-24,38.7099921,-86.80373186
Indiana,Miami,642,12,5,0,2020-10-24,40.76940965,-86.04525048
Indiana,Monroe,3303,37,38,0,2020-10-24,39.16130004,-86.52414358
Indiana,Montgomery,604,14,22,0,2020-10-24,40.04034823,-86.89335024
Indiana,Morgan,974,26,40,0,2020-10-24,39.47899078,-86.44573375
Indiana,Newton,230,0,11,0,2020-10-24,40.95610449,-87.39635768
Indiana,Noble,1191,17,35,1,2020-10-24,41.39672484,-85.41966713
Indiana,Ohio,131,-1,7,0,2020-10-24,38.955305,-84.96515993
Indiana,Orange,417,8,25,0,2020-10-24,38.54118920000001,-86.49523093
Indiana,Owen,210,3,1,0,2020-10-24,39.31145587,-86.83900724
Indiana,Parke,246,9,4,0,2020-10-24,39.77202286,-87.20375833
Indiana,Perry,333,7,14,0,2020-10-24,38.07809328,-86.63741946
Indiana,Pike,340,5,18,0,2020-10-24,38.40112197,-87.23574907
Indiana,Porter,3323,103,50,1,2020-10-24,41.45986947,-87.06848888
Indiana,Posey,755,32,6,0,2020-10-24,38.02097333,-87.86480429
Indiana,Pulaski,160,4,2,0,2020-10-24,41.04166107,-86.69890683
Indiana,Putnam,756,19,16,0,2020-10-24,39.66437981,-86.84517605
Indiana,Randolph,372,7,10,1,2020-10-24,40.15734772,-85.01139319
Indiana,Ripley,466,13,8,0,2020-10-24,39.10235626,-85.26212744
Indiana,Rush,225,7,4,0,2020-10-24,39.62002287,-85.4655599
Indiana,St. Joseph,9399,122,165,2,2020-10-24,41.61756781,-86.29040834
Indiana,Scott,534,10,13,0,2020-10-24,38.68672078,-85.74627859
Indiana,Shelby,872,37,31,0,2020-10-24,39.52305623,-85.79158570000001
Indiana,Spencer,404,9,6,0,2020-10-24,38.01519732,-87.0079644
Indiana,Starke,432,17,8,1,2020-10-24,41.27890281,-86.64686895
Indiana,Steuben,640,7,8,0,2020-10-24,41.64423868,-85.00101094
Indiana,Sullivan,452,8,14,0,2020-10-24,39.08952258,-87.41414469
Indiana,Switzerland,96,0,0,0,2020-10-24,38.82767338,-85.03022429
Indiana,Tippecanoe,3836,77,15,0,2020-10-24,40.38872739,-86.89413959
Indiana,Tipton,280,2,23,0,2020-10-24,40.31123252,-86.05234925
Indiana,Union,112,1,0,0,2020-10-24,39.62550777,-84.92497066
Indiana,Vanderburgh,6011,129,61,0,2020-10-24,38.02658833,-87.58763124
Indiana,Vermillion,260,7,1,0,2020-10-24,39.8523352,-87.46160542
Indiana,Vigo,2687,39,40,0,2020-10-24,39.42944561,-87.39169027
Indiana,Wabash,432,11,9,0,2020-10-24,40.84704239,-85.79328272
Indiana,Warren,89,5,1,0,2020-10-24,40.34728141,-87.35602659
Indiana,Warrick,1995,43,65,0,2020-10-24,38.08922676,-87.2716085
Indiana,Washington,384,6,3,0,2020-10-24,38.60219804,-86.1049363
Indiana,Wayne,1353,32,31,1,2020-10-24,39.8633444,-85.01044989
Indiana,Wells,442,7,11,0,2020-10-24,40.72934187,-85.22132966
Indiana,White,599,7,15,0,2020-10-24,40.74911165,-86.86492015
Indiana,Whitley,469,6,6,0,2020-10-24,41.13863784,-85.50791236
Iowa,Adair,155,3,1,0,2020-10-24,41.33075609,-94.47105874
Iowa,Adams,79,5,0,0,2020-10-24,41.02903567,-94.69932645
Iowa,Allamakee,360,9,8,0,2020-10-24,43.28383218,-91.37860922
Iowa,Appanoose,223,3,3,0,2020-10-24,40.74324454,-92.86865906
Iowa,Audubon,141,0,1,0,2020-10-24,41.6844628,-94.90581859
Iowa,Benton,569,16,2,0,2020-10-24,42.08011739,-92.06463573
Iowa,Black Hawk,5510,70,98,0,2020-10-24,42.4704581,-92.30524729
Iowa,Boone,711,8,9,0,2020-10-24,42.03657094,-93.9313999
Iowa,Bremer,661,6,9,0,2020-10-24,42.77461496,-92.31795937
Iowa,Buchanan,443,12,4,0,2020-10-24,42.4709188,-91.83510825
Iowa,Buena Vista,2245,4,12,0,2020-10-24,42.73545875,-95.15100162
Iowa,Butler,366,7,2,0,2020-10-24,42.73172833,-92.79015971
Iowa,Calhoun,300,10,4,0,2020-10-24,42.38521079,-94.64046046
Iowa,Carroll,1114,15,12,0,2020-10-24,42.03617207,-94.86032705
Iowa,Cass,378,7,3,1,2020-10-24,41.33149454,-94.92792482
Iowa,Cedar,444,7,5,0,2020-10-24,41.77233777,-91.13246684
Iowa,Cerro Gordo,1354,40,25,0,2020-10-24,43.08177563,-93.2612239
Iowa,Cherokee,392,4,2,0,2020-10-24,42.73538914,-95.62389402
Iowa,Chickasaw,346,5,1,0,2020-10-24,43.06001295,-92.31773347
Iowa,Clarke,345,6,3,0,2020-10-24,41.02868181,-93.78499767
Iowa,Clay,524,10,4,0,2020-10-24,43.08247182,-95.15096481
Iowa,Clayton,407,14,3,0,2020-10-24,42.84443388,-91.34133693
Iowa,Clinton,1457,27,26,0,2020-10-24,41.89981633,-90.53275096
Iowa,Crawford,1352,8,14,0,2020-10-24,42.03718237,-95.3819718
Iowa,Dallas,3420,23,44,0,2020-10-24,41.68560356,-94.04127625
Iowa,Davis,170,5,4,0,2020-10-24,40.74773536,-92.41005468
Iowa,Decatur,149,1,0,0,2020-10-24,40.73742757,-93.78645949
Iowa,Delaware,762,20,12,0,2020-10-24,42.47104597,-91.3664492
Iowa,Des Moines,1354,18,10,0,2020-10-24,40.92012606,-91.18326592
Iowa,Dickinson,725,4,7,0,2020-10-24,43.37787725,-95.1510206
Iowa,Dubuque,5109,93,57,0,2020-10-24,42.46815349,-90.88181925
Iowa,Emmet,423,3,17,0,2020-10-24,43.37782951,-94.67858943
Iowa,Fayette,368,8,4,0,2020-10-24,42.86271799,-91.8441231
Iowa,Floyd,430,5,11,0,2020-10-24,43.06000529999999,-92.78940097
Iowa,Franklin,380,2,18,0,2020-10-24,42.73270384,-93.26256925
Iowa,Fremont,197,3,1,0,2020-10-24,40.74542720000001,-95.60129045
Iowa,Greene,184,1,0,0,2020-10-24,42.03614551,-94.39658081
Iowa,Grundy,303,11,5,0,2020-10-24,42.40183723,-92.78829551
Iowa,Guthrie,384,4,15,0,2020-10-24,41.68378965,-94.50111014
Iowa,Hamilton,466,4,4,0,2020-10-24,42.38382428,-93.70197703
Iowa,Hancock,312,6,4,0,2020-10-24,43.08178477,-93.73454884
Iowa,Hardin,469,9,7,1,2020-10-24,42.38353877,-93.23654611
Iowa,Harrison,646,9,11,0,2020-10-24,41.68330137,-95.81558439
Iowa,Henry,1046,14,5,0,2020-10-24,40.98767962,-91.54436349
Iowa,Howard,266,4,9,0,2020-10-24,43.35671042,-92.31702714
Iowa,Humboldt,320,4,3,0,2020-10-24,42.7764426,-94.20722537
Iowa,Ida,188,1,2,0,2020-10-24,42.38696136,-95.51355387
Iowa,Iowa,396,5,8,0,2020-10-24,41.68630265,-92.0643373
Iowa,Jackson,596,20,3,0,2020-10-24,42.17178824,-90.57354837
Iowa,Jasper,1081,11,34,0,2020-10-24,41.68576082,-93.05567785
Iowa,Jefferson,234,3,1,0,2020-10-24,41.03192394,-91.94849466
Iowa,Johnson,5803,40,30,0,2020-10-24,41.67169354,-91.58754744
Iowa,Jones,434,6,4,0,2020-10-24,42.12118609,-91.13139641
Iowa,Keokuk,160,4,1,0,2020-10-24,41.33649833,-92.1785067
Iowa,Kossuth,460,9,0,0,2020-10-24,43.20405458,-94.20691791
Iowa,Lee,943,12,10,0,2020-10-24,40.64181461,-91.48183025
Iowa,Linn,5420,78,129,0,2020-10-24,42.07923082,-91.59809485
Iowa,Louisa,517,5,15,0,2020-10-24,41.21842119,-91.26102611
Iowa,Lucas,199,1,6,0,2020-10-24,41.02958964,-93.32780803
Iowa,Lyon,542,9,7,0,2020-10-24,43.38107862,-96.20926845
Iowa,Madison,356,3,3,0,2020-10-24,41.33081904,-94.01554631
Iowa,Mahaska,678,8,24,0,2020-10-24,41.33521503,-92.64083907
Iowa,Marion,983,20,10,0,2020-10-24,41.33445101,-93.09934783
Iowa,Marshall,1995,12,36,0,2020-10-24,42.03586837,-92.9990819
Iowa,Mills,387,16,1,0,2020-10-24,41.03299766,-95.61920963
Iowa,Mitchell,267,24,0,0,2020-10-24,43.35638371,-92.78887719
Iowa,Monona,241,5,1,0,2020-10-24,42.05220391,-95.95743843
Iowa,Monroe,258,0,11,0,2020-10-24,41.02988815,-92.8690667
Iowa,Montgomery,168,4,7,0,2020-10-24,41.03018714,-95.15642896
Iowa,Muscatine,1420,13,58,0,2020-10-24,41.48370744,-91.1121697
Iowa,O'Brien,635,13,14,0,2020-10-24,43.08310673,-95.62474482
Iowa,Osceola,272,6,1,1,2020-10-24,43.37824276,-95.62422844
Iowa,Page,389,3,0,0,2020-10-24,40.7393172,-95.1497813
Iowa,Palo Alto,309,1,2,0,2020-10-24,43.08193849,-94.67824621
Iowa,Plymouth,1635,16,27,0,2020-10-24,42.737633,-96.21366621
Iowa,Pocahontas,221,2,2,0,2020-10-24,42.73420133,-94.67862564
Iowa,Polk,18758,141,288,2,2020-10-24,41.68679484,-93.57767461
Iowa,Pottawattamie,3204,56,44,0,2020-10-24,41.33640314,-95.53907776
Iowa,Poweshiek,454,7,11,0,2020-10-24,41.68625425,-92.53155731
Iowa,Ringgold,88,0,2,0,2020-10-24,40.73518949,-94.24368535
Iowa,Sac,389,4,4,0,2020-10-24,42.38624071,-95.10547892
Iowa,Scott,4446,109,38,0,2020-10-24,41.63935978,-90.61959493
Iowa,Shelby,367,5,1,0,2020-10-24,41.6850066,-95.31015553
Iowa,Sioux,2396,32,16,0,2020-10-24,43.08221074,-96.1767568
Iowa,Story,3973,29,18,0,2020-10-24,42.03621213,-93.46499005
Iowa,Tama,937,10,37,0,2020-10-24,42.07991767,-92.53266945
Iowa,Taylor,231,0,2,0,2020-10-24,40.73710579,-94.69778563
Iowa,Union,229,6,4,0,2020-10-24,41.0277278,-94.24234847
Iowa,Van Buren,172,5,2,0,2020-10-24,40.75326764,-91.95017958
Iowa,Wapello,1507,2,62,0,2020-10-24,41.03064984,-92.40954728
Iowa,Warren,1214,11,7,0,2020-10-24,41.33559454,-93.56007641
Iowa,Washington,650,16,11,0,2020-10-24,41.33577126,-91.71725711
Iowa,Wayne,117,1,3,0,2020-10-24,40.73969028,-93.32752197
Iowa,Webster,1824,17,15,0,2020-10-24,42.42853483,-94.17987389
Iowa,Winnebago,474,8,19,0,2020-10-24,43.37751174,-93.73407298
Iowa,Winneshiek,466,6,9,0,2020-10-24,43.29094334,-91.84422722
Iowa,Woodbury,7122,81,94,0,2020-10-24,42.38979414,-96.0459439
Iowa,Worth,142,5,0,0,2020-10-24,43.37750768,-93.26087602
Iowa,Wright,716,6,1,0,2020-10-24,42.73305373,-93.73515113
Kansas,Allen,112,0,1,0,2020-10-24,37.88582951,-95.30030847
Kansas,Anderson,167,0,0,0,2020-10-24,38.21413251,-95.29272815
Kansas,Atchison,512,0,5,0,2020-10-24,39.53185661,-95.30870026
Kansas,Barber,36,0,0,0,2020-10-24,37.2288586,-98.68460053
Kansas,Barton,729,0,7,0,2020-10-24,38.47889676,-98.75636726
Kansas,Bourbon,306,0,3,0,2020-10-24,37.85508555,-94.84865997
Kansas,Brown,204,0,5,0,2020-10-24,39.82652589,-95.56421698
Kansas,Butler,841,0,3,0,2020-10-24,37.78134351,-96.83878537
Kansas,Chase,90,0,2,0,2020-10-24,38.30292938,-96.59563862
Kansas,Chautauqua,21,0,0,0,2020-10-24,37.14994405,-96.2454192
Kansas,Cherokee,660,0,7,0,2020-10-24,37.16928494,-94.8462897
Kansas,Cheyenne,111,0,5,0,2020-10-24,39.78580976,-101.7318201
Kansas,Clark,63,0,4,0,2020-10-24,37.23577007,-99.81883015
Kansas,Clay,96,0,3,0,2020-10-24,39.34948772,-97.16518128
Kansas,Cloud,116,0,1,0,2020-10-24,39.48028352,-97.64925343
Kansas,Coffey,154,0,9,0,2020-10-24,38.2365018,-95.73379515
Kansas,Comanche,20,0,0,0,2020-10-24,37.19114520000001,-99.27113247
Kansas,Cowley,490,0,10,0,2020-10-24,37.23781842,-96.83776647
Kansas,Crawford,1384,0,10,0,2020-10-24,37.50675523,-94.85245778
Kansas,Decatur,76,0,1,0,2020-10-24,39.78468441,-100.4594081
Kansas,Dickinson,294,0,3,0,2020-10-24,38.86600962,-97.15532383
Kansas,Doniphan,201,0,0,0,2020-10-24,39.79067154,-95.14056866
Kansas,Douglas,2799,0,17,0,2020-10-24,38.88503636,-95.2925121
Kansas,Edwards,67,0,0,0,2020-10-24,37.88735543,-99.31263309
Kansas,Elk,13,0,0,0,2020-10-24,37.45338105,-96.24369667
Kansas,Ellis,1352,0,18,0,2020-10-24,38.91458712,-99.31751551
Kansas,Ellsworth,209,0,1,0,2020-10-24,38.69677695,-98.20462799
Kansas,Finney,2900,0,18,0,2020-10-24,38.04340344,-100.7381938
Kansas,Ford,3193,0,13,0,2020-10-24,37.69200114,-99.88825298
Kansas,Franklin,522,0,3,0,2020-10-24,38.56443815,-95.28644341
Kansas,Geary,385,0,4,0,2020-10-24,38.99871131,-96.7577178
Kansas,Gove,162,0,10,0,2020-10-24,38.91588178,-100.4829321
Kansas,Graham,56,0,1,0,2020-10-24,39.34987223,-99.88332493
Kansas,Grant,424,2,8,0,2020-10-24,37.56227336,-101.3079758
Kansas,Gray,197,0,0,0,2020-10-24,37.73836671,-100.4369088
Kansas,Greeley,34,0,0,0,2020-10-24,38.4808095,-101.8061079
Kansas,Greenwood,85,0,0,0,2020-10-24,37.8774388,-96.23250453
Kansas,Hamilton,60,0,0,0,2020-10-24,37.99978709,-101.7921066
Kansas,Harper,149,0,2,0,2020-10-24,37.19175361,-98.07578384
Kansas,Harvey,518,0,7,0,2020-10-24,38.04293782,-97.42747573
Kansas,Haskell,103,0,1,0,2020-10-24,37.5620394,-100.8710738
Kansas,Hodgeman,33,0,0,0,2020-10-24,38.08780079,-99.89829881
Kansas,Jackson,315,0,4,0,2020-10-24,39.41673394,-95.79356799
Kansas,Jefferson,269,0,4,0,2020-10-24,39.2347941,-95.38289232
Kansas,Jewell,28,0,1,0,2020-10-24,39.78470589,-98.21820662
Kansas,Johnson,13646,152,192,2,2020-10-24,38.88548175,-94.82250877
Kansas,Kearny,139,0,6,0,2020-10-24,38.00017981,-101.321681
Kansas,Kingman,119,0,3,0,2020-10-24,37.55909527,-98.13638678
Kansas,Kiowa,69,0,0,0,2020-10-24,37.55848695,-99.2856537
Kansas,Labette,372,0,6,0,2020-10-24,37.19113093,-95.29849679
Kansas,Lane,21,0,0,0,2020-10-24,38.48119447,-100.4660754
Kansas,Leavenworth,2520,0,18,0,2020-10-24,39.20183497,-95.03620809
Kansas,Lincoln,20,0,1,0,2020-10-24,39.04549684,-98.20756994
Kansas,Linn,110,0,1,0,2020-10-24,38.21267844,-94.84254089
Kansas,Logan,68,0,0,0,2020-10-24,38.91735806,-101.148475
Kansas,Lyon,1288,0,39,0,2020-10-24,38.45576156,-96.15275715
Kansas,McPherson,390,0,6,0,2020-10-24,38.39184858,-97.64769869
Kansas,Marion,116,0,1,0,2020-10-24,38.35855394,-97.0985251
Kansas,Marshall,65,0,0,0,2020-10-24,39.78359669,-96.52278974
Kansas,Meade,141,0,1,0,2020-10-24,37.23859987,-100.364831
Kansas,Miami,509,0,2,0,2020-10-24,38.56383358,-94.83832189
Kansas,Mitchell,62,0,0,0,2020-10-24,39.39331582,-98.20906732
Kansas,Montgomery,656,0,6,0,2020-10-24,37.19236568,-95.74329258
Kansas,Morris,56,0,0,0,2020-10-24,38.68827511,-96.65128437
Kansas,Morton,41,0,2,0,2020-10-24,37.19141121,-101.79925190000002
Kansas,Nemaha,258,0,1,0,2020-10-24,39.78345387,-96.01392079
Kansas,Neosho,255,0,0,0,2020-10-24,37.55862897,-95.30670046
Kansas,Ness,148,0,9,0,2020-10-24,38.47974157,-99.91547333
Kansas,Norton,477,0,10,0,2020-10-24,39.78443827,-99.90286639
Kansas,Osage,156,0,2,0,2020-10-24,38.65235984,-95.72707998
Kansas,Osborne,21,0,0,0,2020-10-24,39.3503437,-98.76753828
Kansas,Ottawa,111,0,0,0,2020-10-24,39.13237408,-97.65020313
Kansas,Pawnee,413,0,1,0,2020-10-24,38.18108732,-99.23692334
Kansas,Phillips,183,5,9,0,2020-10-24,39.78465501,-99.34668865
Kansas,Pottawatomie,376,0,0,0,2020-10-24,39.37925655,-96.34564657
Kansas,Pratt,114,0,0,0,2020-10-24,37.64780729,-98.73922153
Kansas,Rawlins,82,0,0,0,2020-10-24,39.78525843,-101.0761617
Kansas,Reno,2029,24,15,0,2020-10-24,37.95230263,-98.08607292
Kansas,Republic,76,0,1,0,2020-10-24,39.82799632,-97.65036709
Kansas,Rice,136,0,1,0,2020-10-24,38.34616184,-98.19992118
Kansas,Riley,2123,0,11,0,2020-10-24,39.28935726,-96.73420026
Kansas,Rooks,145,0,7,0,2020-10-24,39.35022773,-99.32484567
Kansas,Rush,98,0,0,0,2020-10-24,38.52275276,-99.30863983
Kansas,Russell,174,0,4,0,2020-10-24,38.91462787,-98.76254297
Kansas,Saline,1068,0,13,0,2020-10-24,38.78369175,-97.65185177
Kansas,Scott,176,0,1,0,2020-10-24,38.48222076,-100.9066539
Kansas,Sedgwick,10733,108,127,0,2020-10-24,37.6842718,-97.4608198
Kansas,Seward,2092,43,13,2,2020-10-24,37.19324632,-100.8507201
Kansas,Shawnee,3354,0,77,0,2020-10-24,39.04100763,-95.7557264
Kansas,Sheridan,143,0,0,0,2020-10-24,39.35018161,-100.4418259
Kansas,Sherman,171,0,0,0,2020-10-24,39.35147699,-101.7197624
Kansas,Smith,22,0,0,0,2020-10-24,39.78516566,-98.78566062
Kansas,Stafford,77,0,1,0,2020-10-24,38.03100851,-98.71762001
Kansas,Stanton,48,0,2,0,2020-10-24,37.56304714,-101.7843534
Kansas,Stevens,220,0,1,0,2020-10-24,37.1923008,-101.3118967
Kansas,Sumner,262,0,3,0,2020-10-24,37.23682549,-97.47721621
Kansas,Thomas,315,0,2,0,2020-10-24,39.35107575,-101.0553705
Kansas,Trego,91,0,3,0,2020-10-24,38.91467218,-99.87284448
Kansas,Wabaunsee,81,0,1,0,2020-10-24,38.95471985,-96.20350509
Kansas,Wallace,36,0,0,0,2020-10-24,38.91686134,-101.7638876
Kansas,Washington,31,0,0,0,2020-10-24,39.78420784,-97.0875323
Kansas,Wichita,28,0,0,0,2020-10-24,38.48178252,-101.3471509
Kansas,Wilson,113,0,2,0,2020-10-24,37.55937174,-95.74323255
Kansas,Woodson,27,0,0,0,2020-10-24,37.8865336,-95.74006277
Kansas,Wyandotte,8111,23,164,2,2020-10-24,39.11727348,-94.76378225
Kentucky,Adair,484,13,21,0,2020-10-24,37.10459774,-85.28129668
Kentucky,Allen,528,10,11,0,2020-10-24,36.75197631,-86.19457544
Kentucky,Anderson,242,3,1,0,2020-10-24,38.00671029,-84.99171713
Kentucky,Ballard,69,0,1,0,2020-10-24,37.05842757,-88.99427697
Kentucky,Barren,1100,16,13,0,2020-10-24,36.96469836,-85.93338945
Kentucky,Bath,114,0,1,0,2020-10-24,38.14735938,-83.74588932
Kentucky,Bell,667,7,17,0,2020-10-24,36.73355174,-83.67766671
Kentucky,Boone,2071,44,25,0,2020-10-24,38.97065142,-84.72615357
Kentucky,Bourbon,308,12,1,0,2020-10-24,38.2054607,-84.21827874
Kentucky,Boyd,634,2,21,0,2020-10-24,38.36176608,-82.68652187
Kentucky,Boyle,439,8,0,0,2020-10-24,37.62680923,-84.8633779
Kentucky,Bracken,68,2,1,0,2020-10-24,38.69158994,-84.08532444
Kentucky,Breathitt,121,4,0,0,2020-10-24,37.52333168,-83.31959161
Kentucky,Breckinridge,188,1,2,0,2020-10-24,37.77377239,-86.42885017
Kentucky,Bullitt,1340,24,14,0,2020-10-24,37.97162523,-85.68955617
Kentucky,Butler,400,4,16,0,2020-10-24,37.20946153,-86.68748787
Kentucky,Caldwell,254,5,0,0,2020-10-24,37.14749129,-87.86948214
Kentucky,Calloway,933,37,9,0,2020-10-24,36.62093411,-88.2731593
Kentucky,Campbell,1170,31,16,0,2020-10-24,38.94384345,-84.37875208
Kentucky,Carlisle,101,0,1,0,2020-10-24,36.85372876,-88.96692220000001
Kentucky,Carroll,217,3,5,0,2020-10-24,38.66599534,-85.12601074
Kentucky,Carter,325,6,4,0,2020-10-24,38.31690743,-83.05092385
Kentucky,Casey,313,2,15,0,2020-10-24,37.32533118,-84.92726209
Kentucky,Christian,1809,23,27,0,2020-10-24,36.89267803,-87.49055367
Kentucky,Clark,509,34,11,0,2020-10-24,37.9689263,-84.14615986
Kentucky,Clay,492,10,6,0,2020-10-24,37.16451126,-83.712575
Kentucky,Clinton,224,8,3,0,2020-10-24,36.72581156,-85.13377529
Kentucky,Crittenden,162,1,1,0,2020-10-24,37.35839237,-88.08826090000002
Kentucky,Cumberland,132,2,0,0,2020-10-24,36.78926125,-85.39050034
Kentucky,Daviess,1926,39,29,0,2020-10-24,37.73028906,-87.09019479999998
Kentucky,Edmonson,183,5,12,0,2020-10-24,37.21218923,-86.23955613
Kentucky,Elliott,184,74,0,0,2020-10-24,38.11624059,-83.09771563
Kentucky,Estill,263,4,0,0,2020-10-24,37.69241417,-83.95956369
Kentucky,Fayette,10338,93,87,0,2020-10-24,38.0368225,-84.45576892
Kentucky,Fleming,175,9,0,0,2020-10-24,38.36758311,-83.69657514
Kentucky,Floyd,337,12,4,0,2020-10-24,37.56213922,-82.74750924
Kentucky,Franklin,841,17,14,0,2020-10-24,38.2379395,-84.87962551
Kentucky,Fulton,231,3,3,0,2020-10-24,36.55238827,-89.20140068
Kentucky,Gallatin,126,3,8,0,2020-10-24,38.75398691,-84.8558382
Kentucky,Garrard,296,13,3,0,2020-10-24,37.6388668,-84.53289319
Kentucky,Grant,234,7,6,0,2020-10-24,38.64962758,-84.62415957
Kentucky,Graves,871,6,29,0,2020-10-24,36.72292505,-88.65143315
Kentucky,Grayson,498,10,15,0,2020-10-24,37.46231118,-86.34248968
Kentucky,Green,329,3,8,0,2020-10-24,37.26484328,-85.5540745
Kentucky,Greenup,602,10,11,1,2020-10-24,38.54332505,-82.9215658
Kentucky,Hancock,130,4,2,0,2020-10-24,37.83766422,-86.78280584
Kentucky,Hardin,1916,45,13,0,2020-10-24,37.6976111,-85.96319251
Kentucky,Harlan,583,4,14,1,2020-10-24,36.85699301,-83.21899516
Kentucky,Harrison,259,1,1,0,2020-10-24,38.44188174,-84.32869741
Kentucky,Hart,364,15,1,0,2020-10-24,37.29943898,-85.88461055
Kentucky,Henderson,1280,15,25,1,2020-10-24,37.79344553,-87.57392021
Kentucky,Henry,257,2,2,0,2020-10-24,38.44942688,-85.11587507
Kentucky,Hickman,111,2,1,0,2020-10-24,36.67948079999999,-88.97875928
Kentucky,Hopkins,1008,24,42,0,2020-10-24,37.30939025,-87.54670406
Kentucky,Jackson,444,9,17,0,2020-10-24,37.41866422,-83.99825483
Kentucky,Jefferson,21128,381,348,1,2020-10-24,38.18664655,-85.65931031
Kentucky,Jessamine,925,11,9,2,2020-10-24,37.87119786,-84.58252003
Kentucky,Johnson,286,2,2,0,2020-10-24,37.85106355,-82.8264322
Kentucky,Kenton,2552,57,49,0,2020-10-24,38.93950319,-84.53241199
Kentucky,Knott,329,10,4,0,2020-10-24,37.35388197,-82.94981134
Kentucky,Knox,807,22,9,0,2020-10-24,36.89225732,-83.85403396
Kentucky,Larue,242,5,1,0,2020-10-24,37.54567114,-85.70138352
Kentucky,Laurel,1376,23,7,0,2020-10-24,37.10975748,-84.11321779
Kentucky,Lawrence,141,4,0,0,2020-10-24,38.07136018,-82.72882223
Kentucky,Lee,111,26,3,1,2020-10-24,37.59645942,-83.71513901
Kentucky,Leslie,125,0,1,0,2020-10-24,37.09246661,-83.37999606
Kentucky,Letcher,299,4,2,0,2020-10-24,37.12306748,-82.85346474
Kentucky,Lewis,277,4,15,0,2020-10-24,38.53184419,-83.37735618
Kentucky,Lincoln,313,8,19,1,2020-10-24,37.45475628,-84.6565327
Kentucky,Livingston,123,1,1,0,2020-10-24,37.21137452,-88.34797529
Kentucky,Logan,746,15,31,0,2020-10-24,36.85949479,-86.877635
Kentucky,Lyon,106,1,4,0,2020-10-24,37.02080035,-88.07886257
Kentucky,McCracken,1070,39,12,0,2020-10-24,37.05350953,-88.70445755
Kentucky,McCreary,251,0,1,0,2020-10-24,36.73874143,-84.48102924
Kentucky,McLean,174,7,3,0,2020-10-24,37.5301951,-87.26803443
Kentucky,Madison,2278,10,13,0,2020-10-24,37.71659336,-84.27220275
Kentucky,Magoffin,153,1,0,0,2020-10-24,37.70820545,-83.0657714
Kentucky,Marion,419,16,10,0,2020-10-24,37.55218078,-85.26898542
Kentucky,Marshall,452,2,7,0,2020-10-24,36.88007070000001,-88.32803576
Kentucky,Martin,173,6,3,0,2020-10-24,37.79990579,-82.51247478
Kentucky,Mason,163,-3,2,0,2020-10-24,38.59471935,-83.82151043
Kentucky,Meade,367,7,3,0,2020-10-24,37.96163597,-86.21028219
Kentucky,Menifee,80,2,1,0,2020-10-24,37.94090733,-83.59985712
Kentucky,Mercer,339,2,6,0,2020-10-24,37.81474237,-84.87488475
Kentucky,Metcalfe,186,3,2,0,2020-10-24,36.99459295,-85.63123699
Kentucky,Monroe,269,5,4,0,2020-10-24,36.71225341,-85.71596443
Kentucky,Montgomery,425,11,4,0,2020-10-24,38.03253032,-83.9145241
Kentucky,Morgan,118,4,0,0,2020-10-24,37.92465657,-83.25558245
Kentucky,Muhlenberg,952,8,13,0,2020-10-24,37.21425819,-87.14632053
Kentucky,Nelson,835,39,4,0,2020-10-24,37.80335779,-85.4657193
Kentucky,Nicholas,104,0,2,0,2020-10-24,38.33342292,-84.01889177
Kentucky,Ohio,591,6,9,0,2020-10-24,37.47751843,-86.85368087
Kentucky,Oldham,1403,14,26,0,2020-10-24,38.39791089,-85.448222
Kentucky,Owen,117,1,3,0,2020-10-24,38.51679143,-84.82404619
Kentucky,Owsley,87,5,1,0,2020-10-24,37.42823949,-83.68811419
Kentucky,Pendleton,121,8,0,0,2020-10-24,38.69607718,-84.35599463
Kentucky,Perry,498,9,9,0,2020-10-24,37.25023553,-83.22922731
Kentucky,Pike,806,20,3,0,2020-10-24,37.47088263,-82.39487445
Kentucky,Powell,138,-1,0,0,2020-10-24,37.83218794,-83.82553961
Kentucky,Pulaski,979,10,13,0,2020-10-24,37.10466131,-84.57629079
Kentucky,Robertson,19,2,1,0,2020-10-24,38.51923469,-84.05055616
Kentucky,Rockcastle,320,5,2,0,2020-10-24,37.36642393,-84.31176452
Kentucky,Rowan,330,0,1,0,2020-10-24,38.19484205,-83.42088935
Kentucky,Russell,374,7,6,0,2020-10-24,36.99308373,-85.06070117
Kentucky,Scott,1084,9,18,0,2020-10-24,38.29622293,-84.5816631
Kentucky,Shelby,1423,64,24,0,2020-10-24,38.21476019,-85.194223
Kentucky,Simpson,340,5,8,0,2020-10-24,36.74058474,-86.58047435
Kentucky,Spencer,285,1,0,0,2020-10-24,38.03223971,-85.32749335
Kentucky,Taylor,469,12,7,0,2020-10-24,37.3677562,-85.3329931
Kentucky,Todd,280,4,12,0,2020-10-24,36.8381152,-87.17878374
Kentucky,Trigg,239,0,0,0,2020-10-24,36.80767017,-87.87333656
Kentucky,Trimble,84,0,0,0,2020-10-24,38.61056487,-85.33775972
Kentucky,Union,503,7,6,0,2020-10-24,37.66166713,-87.94300009
Kentucky,Warren,5088,30,57,0,2020-10-24,36.99903045,-86.42672751
Kentucky,Washington,221,4,1,0,2020-10-24,37.75599461,-85.17407732
Kentucky,Wayne,275,4,1,0,2020-10-24,36.80310688,-84.8251971
Kentucky,Webster,299,2,5,0,2020-10-24,37.52168356,-87.67989953
Kentucky,Whitley,787,26,6,0,2020-10-24,36.75700531,-84.14541217
Kentucky,Wolfe,59,0,0,0,2020-10-24,37.73941626,-83.49303612
Kentucky,Woodford,367,4,0,0,2020-10-24,38.04178222,-84.7417556
Louisiana,Acadia,3108,0,100,0,2020-10-24,30.2950649,-92.41419698
Louisiana,Allen,1843,0,55,0,2020-10-24,30.65385745,-92.82442028
Louisiana,Ascension,4043,0,98,0,2020-10-24,30.20406249,-90.91328409999998
Louisiana,Assumption,793,0,24,0,2020-10-24,29.89946234,-91.06461642
Louisiana,Avoyelles,1700,0,62,0,2020-10-24,31.07796211,-92.00079449
Louisiana,Beauregard,1065,0,40,0,2020-10-24,30.64836518,-93.34173616
Louisiana,Bienville,589,0,33,0,2020-10-24,32.34569994,-93.05398492
Louisiana,Bossier,4129,0,117,0,2020-10-24,32.67932307,-93.60460152
Louisiana,Caddo,9928,0,392,0,2020-10-24,32.57991587,-93.88375652
Louisiana,Calcasieu,8302,0,224,0,2020-10-24,30.22931235,-93.35400434
Louisiana,Caldwell,345,0,3,0,2020-10-24,32.0902519,-92.11752148
Louisiana,Cameron,241,0,2,0,2020-10-24,29.87592238,-93.19310676
Louisiana,Catahoula,460,0,14,0,2020-10-24,31.66778967,-91.84526385
Louisiana,Claiborne,600,0,24,0,2020-10-24,32.82308512,-92.99526883
Louisiana,Concordia,597,0,16,0,2020-10-24,31.44817835,-91.63814433
Louisiana,De Soto,1009,0,35,0,2020-10-24,32.05457447,-93.74130302
Louisiana,East Baton Rouge,15950,0,457,0,2020-10-24,30.53842039,-91.09777565
Louisiana,East Carroll,578,0,6,0,2020-10-24,32.73926954,-91.23425694
Louisiana,East Feliciana,1795,0,77,0,2020-10-24,30.84425359,-91.04976723
Louisiana,Evangeline,1401,0,39,0,2020-10-24,30.72985248,-92.39915924
Louisiana,Franklin,1305,0,45,0,2020-10-24,32.13675181,-91.67589857
Louisiana,Grant,532,0,30,0,2020-10-24,31.59882456,-92.56124347
Louisiana,Iberia,3059,0,95,0,2020-10-24,29.86803617,-91.75871777
Louisiana,Iberville,1470,0,60,0,2020-10-24,30.25734305,-91.3499598
Louisiana,Jackson,846,0,23,0,2020-10-24,32.30251776,-92.55692092
Louisiana,Jefferson,18539,0,583,0,2020-10-24,29.74075478,-90.11115756
Louisiana,Jefferson Davis,1335,0,43,0,2020-10-24,30.26896765,-92.81210004
Louisiana,Lafayette,9380,0,138,0,2020-10-24,30.2049055,-92.06959876
Louisiana,Lafourche,3871,0,128,0,2020-10-24,29.52470226,-90.40976986
Louisiana,LaSalle,490,0,10,0,2020-10-24,31.67884782,-92.15907765
Louisiana,Lincoln,1633,0,48,0,2020-10-24,32.6003154,-92.6659741
Louisiana,Livingston,4157,0,79,0,2020-10-24,30.44143993,-90.73061664
Louisiana,Madison,893,0,9,0,2020-10-24,32.36918118,-91.23973355
Louisiana,Morehouse,885,0,26,0,2020-10-24,32.81686191,-91.80421614
Louisiana,Natchitoches,1448,0,28,0,2020-10-24,31.72321584,-93.09816516
Louisiana,Orleans,13368,0,592,0,2020-10-24,30.06971951,-89.92660315
Louisiana,Ouachita,6911,0,160,0,2020-10-24,32.47645559,-92.15704172
Louisiana,Plaquemines,885,0,19,0,2020-10-24,29.42245447,-89.60322085
Louisiana,Pointe Coupee,1129,0,40,0,2020-10-24,30.71409502,-91.60209535
Louisiana,Rapides,4646,0,154,0,2020-10-24,31.19778499,-92.52997303
Louisiana,Red River,415,0,24,0,2020-10-24,32.09530039,-93.34213308
Louisiana,Richland,872,0,16,0,2020-10-24,32.41391005,-91.76634876
Louisiana,Sabine,976,0,15,0,2020-10-24,31.56388699,-93.55433981
Louisiana,St. Bernard,1532,0,32,0,2020-10-24,29.87761636,-89.51887093
Louisiana,St. Charles,1933,0,63,0,2020-10-24,29.90709658,-90.35555967
Louisiana,St. Helena,434,0,4,0,2020-10-24,30.82210324,-90.71013176
Louisiana,St. James,837,0,40,0,2020-10-24,30.02531716,-90.80212061
Louisiana,St. John the Baptist,1628,0,107,0,2020-10-24,30.12597499,-90.4753503
Louisiana,St. Landry,3616,0,135,0,2020-10-24,30.59724262,-92.00135806
Louisiana,St. Martin,2201,0,63,0,2020-10-24,30.13112107,-91.61403569
Louisiana,St. Mary,2015,0,85,0,2020-10-24,29.69262097,-91.44702164
Louisiana,St. Tammany,7640,0,269,0,2020-10-24,30.40942847,-89.95642711
Louisiana,Tangipahoa,4959,0,123,0,2020-10-24,30.62888673,-90.40664996
Louisiana,Tensas,187,0,2,0,2020-10-24,32.00760749,-91.32915234
Louisiana,Terrebonne,3855,0,123,0,2020-10-24,29.37343766,-90.82626855
Louisiana,Union,1098,0,51,0,2020-10-24,32.83121059,-92.3749373
Louisiana,Vermilion,2114,0,70,0,2020-10-24,29.83517605,-92.30292538
Louisiana,Vernon,1112,0,55,0,2020-10-24,31.10884837,-93.18153838
Louisiana,Washington,1737,0,71,0,2020-10-24,30.85288548,-90.03866652
Louisiana,Webster,1452,0,40,0,2020-10-24,32.70847669,-93.33121835
Louisiana,West Baton Rouge,960,0,42,0,2020-10-24,30.46058217,-91.30989571
Louisiana,West Carroll,371,0,12,0,2020-10-24,32.78550125,-91.461201
Louisiana,West Feliciana,739,0,25,0,2020-10-24,30.87882871,-91.4148538
Louisiana,Winn,680,0,19,0,2020-10-24,31.94449367,-92.63789413
Maine,Androscoggin,845,4,10,0,2020-10-24,44.1664747,-70.20380627
Maine,Aroostook,60,1,1,0,2020-10-24,46.65926321,-68.59841248
Maine,Cumberland,2463,18,70,0,2020-10-24,43.8370751,-70.37226999
Maine,Franklin,74,0,1,0,2020-10-24,44.97330019,-70.44381045
Maine,Hancock,63,1,1,0,2020-10-24,44.59816444,-68.38401854
Maine,Kennebec,309,4,11,0,2020-10-24,44.40759555,-69.76738544
Maine,Knox,58,0,1,0,2020-10-24,44.11486325,-69.10529169
Maine,Lincoln,60,0,1,0,2020-10-24,44.05996956,-69.54227124
Maine,Oxford,158,0,2,0,2020-10-24,44.49952995,-70.75682123
Maine,Penobscot,285,1,6,0,2020-10-24,45.40194593,-68.65020455
Maine,Piscataquis,10,0,0,0,2020-10-24,45.83839062,-69.2860223
Maine,Sagadahoc,80,1,0,0,2020-10-24,43.95415864,-69.85074999
Maine,Somerset,133,4,8,0,2020-10-24,45.51229767,-69.95995554
Maine,Waldo,143,0,14,0,2020-10-24,44.4858305,-69.12061935
Maine,Washington,31,1,0,0,2020-10-24,45.01607142,-67.62813524
Maine,York,1364,7,20,0,2020-10-24,43.47808377,-70.71052375
Maryland,Allegany,624,10,23,0,2020-10-24,39.62357628,-78.69280486
Maryland,Anne Arundel,11645,77,268,1,2020-10-24,39.00670238,-76.60329337
Maryland,Baltimore,20108,128,662,1,2020-10-24,39.45784712,-76.62911955
Maryland,Calvert,1158,5,29,0,2020-10-24,38.53961642,-76.56820632
Maryland,Caroline,729,3,8,0,2020-10-24,38.87172293,-75.82904158
Maryland,Carroll,2192,17,129,0,2020-10-24,39.56453592,-77.02373735
Maryland,Cecil,1310,3,36,0,2020-10-24,39.56647682,-75.94627411
Maryland,Charles,3090,12,102,1,2020-10-24,38.51092331,-76.98580666
Maryland,Dorchester,761,19,10,0,2020-10-24,38.45413522,-76.02752426
Maryland,Frederick,4643,33,138,1,2020-10-24,39.47296601,-77.39999394
Maryland,Garrett,123,6,1,0,2020-10-24,39.52786077,-79.27355126
Maryland,Harford,3513,21,81,1,2020-10-24,39.55010644,-76.30775940000002
Maryland,Howard,5743,27,124,0,2020-10-24,39.25305293,-76.93126208
Maryland,Kent,338,0,24,0,2020-10-24,39.24976208,-76.04741541
Maryland,Montgomery,24984,107,864,1,2020-10-24,39.13676329,-77.20358245
Maryland,Prince George's,32121,122,853,0,2020-10-24,38.83070039,-76.8496441
Maryland,Queen Anne's,762,4,26,0,2020-10-24,39.06198912,-76.03530977
Maryland,St. Mary's,1443,14,60,0,2020-10-24,38.30058422,-76.60629279999998
Maryland,Somerset,409,5,6,0,2020-10-24,38.1163542,-75.75118623
Maryland,Talbot,636,0,6,0,2020-10-24,38.76618159,-76.10882561
Maryland,Washington,2211,29,42,0,2020-10-24,39.60835778,-77.82002295
Maryland,Wicomico,2434,16,50,1,2020-10-24,38.37301947,-75.62705831
Maryland,Worcester,1198,7,30,0,2020-10-24,38.21274277,-75.33200012
Maryland,Baltimore,20108,128,662,1,2020-10-24,39.45784712,-76.62911955
Massachusetts,Barnstable,1933,4,182,0,2020-10-24,41.72980578,-70.28854339
Massachusetts,Berkshire,751,4,51,0,2020-10-24,42.37428441,-73.20524838
Massachusetts,Bristol,11568,117,737,2,2020-10-24,41.79228404,-71.10872211
Massachusetts,Essex,22939,200,1337,1,2020-10-24,42.6687626,-70.94687179
Massachusetts,Franklin,460,4,72,0,2020-10-24,42.58119713,-72.58602547
Massachusetts,Hampden,9501,122,809,2,2020-10-24,42.13440424,-72.63235561
Massachusetts,Hampshire,1441,6,153,0,2020-10-24,42.33997957,-72.65898478
Massachusetts,Middlesex,31032,201,2245,2,2020-10-24,42.48607732,-71.39049229
Massachusetts,Norfolk,11469,72,1101,2,2020-10-24,42.16073095,-71.20530408
Massachusetts,Plymouth,11067,92,820,0,2020-10-24,41.94070556,-70.80802823
Massachusetts,Suffolk,27346,166,1168,0,2020-10-24,42.3279514,-71.07850442
Massachusetts,Worcester,15977,117,1157,0,2020-10-24,42.35026951,-71.90493363
Michigan,Alcona,52,0,2,0,2020-10-24,44.6846864,-83.59507875
Michigan,Alger,105,2,1,0,2020-10-24,46.41292944,-86.60260122
Michigan,Allegan,1201,36,7,0,2020-10-24,42.59147037,-85.89102866
Michigan,Alpena,152,-4,14,0,2020-10-24,45.03477666,-83.62212411
Michigan,Antrim,115,6,0,0,2020-10-24,44.99690221,-85.15503082
Michigan,Arenac,91,1,3,0,2020-10-24,44.0636262,-83.89277559
Michigan,Baraga,80,3,4,0,2020-10-24,46.6720582,-88.36363591
Michigan,Barry,626,36,5,0,2020-10-24,42.59513984,-85.30834519
Michigan,Bay,1347,35,62,2,2020-10-24,43.70639106,-83.98731479
Michigan,Benzie,115,1,2,0,2020-10-24,44.63899297,-86.01608482
Michigan,Berrien,2609,79,80,-1,2020-10-24,41.95447397,-86.41313079999998
Michigan,Branch,849,10,11,1,2020-10-24,41.91600556,-85.05929476
Michigan,Calhoun,2699,158,67,2,2020-10-24,42.24633834,-85.00493569
Michigan,Cass,944,18,24,0,2020-10-24,41.91522292,-85.99405727
Michigan,Charlevoix,164,16,4,0,2020-10-24,45.37790017,-85.19614053
Michigan,Cheboygan,133,3,2,0,2020-10-24,45.44787015,-84.50122149
Michigan,Chippewa,128,5,0,0,2020-10-24,46.29552653,-84.54353449
Michigan,Clare,254,10,10,1,2020-10-24,43.98794227,-84.84819859999998
Michigan,Clinton,1050,43,15,1,2020-10-24,42.94400871,-84.60145248
Michigan,Crawford,150,5,5,0,2020-10-24,44.68255561,-84.61006219
Michigan,Delta,1140,29,24,2,2020-10-24,45.90484910000001,-86.9080745
Michigan,Dickinson,603,53,18,1,2020-10-24,46.00999672,-87.86961634
Michigan,Eaton,1092,53,11,0,2020-10-24,42.59599185,-84.83740035
Michigan,Emmet,222,15,4,0,2020-10-24,45.52625509,-84.89083249
Michigan,Genesee,6491,135,333,2,2020-10-24,43.02244215,-83.70589709
Michigan,Gladwin,185,7,2,0,2020-10-24,43.98901072,-84.38774817
Michigan,Gogebic,369,21,5,3,2020-10-24,46.40862701,-89.69377193
Michigan,Grand Traverse,735,13,13,0,2020-10-24,44.69565625,-85.55585247
Michigan,Gratiot,469,24,16,0,2020-10-24,43.29265605,-84.60505416
Michigan,Hillsdale,500,10,28,0,2020-10-24,41.88753639,-84.59312019
Michigan,Houghton,906,11,9,0,2020-10-24,46.89988536,-88.68495385
Michigan,Huron,264,4,5,0,2020-10-24,43.83353985,-83.04078453
Michigan,Ingham,4532,76,64,2,2020-10-24,42.59716886,-84.37472069
Michigan,Ionia,673,45,8,0,2020-10-24,42.94502238,-85.07413319
Michigan,Iosco,277,4,16,1,2020-10-24,44.35486835,-83.63484895
Michigan,Iron,421,17,22,1,2020-10-24,46.20974132,-88.53136251
Michigan,Isabella,993,14,15,0,2020-10-24,43.64060976,-84.84664923
Michigan,Jackson,1715,65,65,1,2020-10-24,42.24807035,-84.42258681
Michigan,Kalamazoo,4657,153,102,0,2020-10-24,42.24542231,-85.53038622
Michigan,Kalkaska,121,3,4,0,2020-10-24,44.68512729,-85.09085699
Michigan,Kent,13715,325,184,2,2020-10-24,43.03197711,-85.54934642
Michigan,Keweenaw,18,0,0,0,2020-10-24,47.63197653,-88.41434263
Michigan,Lake,56,0,0,0,2020-10-24,43.99050893,-85.802173
Michigan,Lapeer,875,19,38,0,2020-10-24,43.09052506,-83.22153148
Michigan,Leelanau,144,4,2,0,2020-10-24,44.94430054,-85.80150326
Michigan,Lenawee,1096,20,19,0,2020-10-24,41.89475156,-84.06603727
Michigan,Livingston,1942,43,33,0,2020-10-24,42.60302282,-83.91297209
Michigan,Luce,47,-1,0,0,2020-10-24,46.47227431,-85.54471223
Michigan,Mackinac,154,2,0,0,2020-10-24,46.07028979,-85.04980537
Michigan,Macomb,18025,316,1084,6,2020-10-24,42.69158356,-82.92752801
Michigan,Manistee,128,8,3,0,2020-10-24,44.33352407,-86.05626916
Michigan,Marquette,973,42,14,1,2020-10-24,46.4338914,-87.64043701
Michigan,Mason,219,10,1,0,2020-10-24,43.99509218,-86.24988902
Michigan,Mecosta,463,31,4,0,2020-10-24,43.64064262,-85.32463223
Michigan,Menominee,679,16,3,0,2020-10-24,45.58038692,-87.55370409
Michigan,Midland,946,29,14,0,2020-10-24,43.64330771,-84.38804374
Michigan,Missaukee,85,2,1,0,2020-10-24,44.33772443,-85.09256478
Michigan,Monroe,1945,17,32,0,2020-10-24,41.92734151,-83.53749864
Michigan,Montcalm,602,38,10,0,2020-10-24,43.31082541,-85.15252824
Michigan,Montmorency,24,1,0,0,2020-10-24,45.0275929,-84.12696227
Michigan,Muskegon,2021,85,81,1,2020-10-24,43.29123859,-86.15176712
Michigan,Newaygo,585,23,3,0,2020-10-24,43.554374,-85.80070107
Michigan,Oakland,24343,318,1235,2,2020-10-24,42.66090111,-83.38595416
Michigan,Oceana,606,9,6,0,2020-10-24,43.64124435,-86.26726673
Michigan,Ogemaw,102,4,5,0,2020-10-24,44.33481032,-84.12725175
Michigan,Ontonagon,91,12,0,0,2020-10-24,46.665226200000006,-89.31390481
Michigan,Osceola,144,6,0,0,2020-10-24,43.98992088,-85.32566756
Michigan,Oscoda,55,1,1,0,2020-10-24,44.68192279,-84.12939244
Michigan,Otsego,237,2,12,0,2020-10-24,45.02085831,-84.59898295
Michigan,Ottawa,4807,120,72,0,2020-10-24,42.95996803,-85.9969107
Michigan,Presque Isle,50,3,1,0,2020-10-24,45.34018577,-83.91498656
Michigan,Roscommon,162,4,5,0,2020-10-24,44.33473082,-84.61067651
Michigan,Saginaw,3685,68,152,0,2020-10-24,43.33433923,-84.05131209999998
Michigan,St. Clair,1474,39,64,0,2020-10-24,42.92655373,-82.67937954
Michigan,St. Joseph,1171,27,17,1,2020-10-24,41.91441767,-85.52797979
Michigan,Sanilac,188,10,7,0,2020-10-24,43.42406072,-82.82055898
Michigan,Schoolcraft,66,4,1,0,2020-10-24,46.19235734,-86.19972234
Michigan,Shiawassee,682,15,34,0,2020-10-24,42.95392800000001,-84.14585902
Michigan,Tuscola,636,10,35,0,2020-10-24,43.46606813,-83.41897025
Michigan,Van Buren,1040,39,18,0,2020-10-24,42.25190229,-86.01939087
Michigan,Washtenaw,5238,118,117,1,2020-10-24,42.253105,-83.83853204
Michigan,Wayne,39660,336,3045,5,2020-10-24,42.28098405,-83.281255
Michigan,Wexford,168,6,4,0,2020-10-24,44.33853602,-85.57712739
Minnesota,Aitkin,177,12,2,0,2020-10-24,46.60962049,-93.4116826
Minnesota,Anoka,8552,138,150,0,2020-10-24,45.27476015,-93.24604565
Minnesota,Becker,551,13,3,0,2020-10-24,46.93479392,-95.67158144
Minnesota,Beltrami,876,5,7,0,2020-10-24,47.97373527,-94.93732139
Minnesota,Benton,923,13,8,1,2020-10-24,45.69804958,-93.99514135
Minnesota,Big Stone,136,4,0,0,2020-10-24,45.42712824,-96.41403739
Minnesota,Blue Earth,2036,16,7,0,2020-10-24,44.03554215,-94.06699781
Minnesota,Brown,320,4,3,0,2020-10-24,44.24205652,-94.72562874
Minnesota,Carlton,423,12,1,0,2020-10-24,46.59180601,-92.67601019
Minnesota,Carver,1767,24,7,0,2020-10-24,44.82017001,-93.8009918
Minnesota,Cass,366,9,5,0,2020-10-24,46.95043611,-94.32603968
Minnesota,Chippewa,429,5,3,0,2020-10-24,45.02343421,-95.56403693
Minnesota,Chisago,981,31,2,0,2020-10-24,45.5021011,-92.90861945
Minnesota,Clay,2280,66,43,0,2020-10-24,46.89289518,-96.48761922
Minnesota,Clearwater,105,4,0,0,2020-10-24,47.57992111,-95.37790562
Minnesota,Cook,13,1,0,0,2020-10-24,47.90504893,-90.52629546
Minnesota,Cottonwood,276,4,0,0,2020-10-24,44.00715262,-95.18138802
Minnesota,Crow Wing,990,10,21,0,2020-10-24,46.48096553,-94.06755609
Minnesota,Dakota,9686,145,137,0,2020-10-24,44.67172617,-93.06299363
Minnesota,Dodge,392,6,0,0,2020-10-24,44.02238415,-92.86244324
Minnesota,Douglas,672,25,3,0,2020-10-24,45.93348491,-95.45335469
Minnesota,Faribault,228,7,0,0,2020-10-24,43.67381499,-93.94787458
Minnesota,Fillmore,257,7,0,0,2020-10-24,43.67394126,-92.08980382
Minnesota,Freeborn,666,7,4,0,2020-10-24,43.67385583,-93.34884422
Minnesota,Goodhue,573,15,11,0,2020-10-24,44.40849741,-92.7234195
Minnesota,Grant,96,4,4,0,2020-10-24,45.93424769,-96.01139609
Minnesota,Hennepin,33719,409,984,3,2020-10-24,45.00761521,-93.47694895
Minnesota,Houston,197,2,1,0,2020-10-24,43.67129565,-91.49143057
Minnesota,Hubbard,379,10,2,0,2020-10-24,47.10778564,-94.91693868
Minnesota,Isanti,527,8,5,0,2020-10-24,45.56181234,-93.29487636
Minnesota,Itasca,719,13,17,0,2020-10-24,47.51009045,-93.63092229
Minnesota,Jackson,208,1,1,0,2020-10-24,43.67423373,-95.15398258
Minnesota,Kanabec,205,10,10,0,2020-10-24,45.9459309,-93.29275192
Minnesota,Kandiyohi,1658,8,5,0,2020-10-24,45.1526059,-95.00586446
Minnesota,Kittson,38,0,0,0,2020-10-24,48.77754106,-96.78317184
Minnesota,Koochiching,167,2,4,0,2020-10-24,48.24539665,-93.78352843
Minnesota,Lac qui Parle,132,1,3,0,2020-10-24,44.9973857,-96.17488219
Minnesota,Lake,118,3,0,0,2020-10-24,47.64270764,-91.44557998
Minnesota,Lake of the Woods,44,0,1,0,2020-10-24,48.77217001,-94.90274472
Minnesota,Le Sueur,620,6,5,0,2020-10-24,44.37136597,-93.72844721
Minnesota,Lincoln,182,6,0,0,2020-10-24,44.41311883,-96.26688165
Minnesota,Lyon,959,8,6,0,2020-10-24,44.41327865,-95.83806103
Minnesota,McLeod,588,8,4,0,2020-10-24,44.82367677,-94.27287017
Minnesota,Mahnomen,110,4,2,0,2020-10-24,47.32557075,-95.80921485
Minnesota,Marshall,110,7,1,0,2020-10-24,48.35825983,-96.37017407
Minnesota,Martin,611,5,17,1,2020-10-24,43.67429718,-94.55099908
Minnesota,Meeker,325,3,3,0,2020-10-24,45.12328869,-94.52839455
Minnesota,Mille Lacs,401,14,15,1,2020-10-24,45.93705297,-93.63236823
Minnesota,Morrison,712,18,9,1,2020-10-24,46.01265363,-94.27341528
Minnesota,Mower,1508,5,15,0,2020-10-24,43.67142874,-92.75234549
Minnesota,Murray,275,3,3,0,2020-10-24,44.02216709,-95.76328482
Minnesota,Nicollet,718,4,17,0,2020-10-24,44.35291112,-94.24710352
Minnesota,Nobles,2257,38,16,0,2020-10-24,43.67434621,-95.75329576
Minnesota,Norman,114,6,0,0,2020-10-24,47.32628443,-96.45620947
Minnesota,Olmsted,3232,49,30,0,2020-10-24,44.00374114,-92.40209944
Minnesota,Otter Tail,851,33,7,0,2020-10-24,46.40846929,-95.70835255
Minnesota,Pennington,185,11,1,0,2020-10-24,48.06642577,-96.0370814
Minnesota,Pine,531,8,0,0,2020-10-24,46.12105238,-92.74070188
Minnesota,Pipestone,345,3,17,0,2020-10-24,44.02301619,-96.25841142
Minnesota,Polk,618,22,4,0,2020-10-24,47.77372465,-96.40134647
Minnesota,Pope,155,1,0,0,2020-10-24,45.58606667,-95.44451209
Minnesota,Ramsey,13909,127,358,1,2020-10-24,45.01625271,-93.09872295
Minnesota,Red Lake,77,8,2,0,2020-10-24,47.87197525,-96.09561104
Minnesota,Redwood,271,2,11,0,2020-10-24,44.40555844,-95.25207021
Minnesota,Renville,250,7,11,0,2020-10-24,44.72836381,-94.94553734
Minnesota,Rice,1628,23,9,0,2020-10-24,44.3543376,-93.29658715
Minnesota,Rock,324,9,4,0,2020-10-24,43.67482683,-96.25296832
Minnesota,Roseau,259,31,0,0,2020-10-24,48.77501878,-95.81079919
Minnesota,St. Louis,2912,62,67,2,2020-10-24,47.6048407,-92.46879855
Minnesota,Scott,3348,55,34,0,2020-10-24,44.6490231,-93.53340251
Minnesota,Sherburne,1665,31,21,0,2020-10-24,45.44447208,-93.77617511
Minnesota,Sibley,249,6,3,0,2020-10-24,44.5796592,-94.23164924
Minnesota,Stearns,5743,78,43,2,2020-10-24,45.55192576,-94.61078221
Minnesota,Steele,756,15,3,0,2020-10-24,44.02240351,-93.22627088
Minnesota,Stevens,181,4,1,0,2020-10-24,45.58613007,-96.00163705
Minnesota,Swift,201,7,1,0,2020-10-24,45.2829032,-95.68264092
Minnesota,Todd,786,17,5,0,2020-10-24,46.06996226,-94.89785296
Minnesota,Traverse,55,1,0,0,2020-10-24,45.77298854,-96.47062949
Minnesota,Wabasha,370,11,0,0,2020-10-24,44.28424356,-92.23121312
Minnesota,Wadena,224,9,3,0,2020-10-24,46.58589171,-94.96968506
Minnesota,Waseca,927,5,9,0,2020-10-24,44.02211116,-93.58720034
Minnesota,Washington,5830,361,71,1,2020-10-24,45.03864533,-92.88429635
Minnesota,Watonwan,578,2,4,0,2020-10-24,43.97823903,-94.61413846
Minnesota,Wilkin,133,4,4,0,2020-10-24,46.35721532,-96.4684375
Minnesota,Winona,1243,7,19,1,2020-10-24,43.98772283,-91.78081305
Minnesota,Wright,2432,65,14,0,2020-10-24,45.17297924,-93.96234781
Minnesota,Yellow Medicine,281,6,5,0,2020-10-24,44.71710183,-95.86842453
Mississippi,Adams,1085,12,44,1,2020-10-24,31.47669768,-91.35326037
Mississippi,Alcorn,1001,14,12,0,2020-10-24,34.88084463,-88.57996173
Mississippi,Amite,425,4,13,0,2020-10-24,31.17467303,-90.80501621
Mississippi,Attala,794,4,26,0,2020-10-24,33.08658803,-89.57838564
Mississippi,Benton,341,8,6,1,2020-10-24,34.81681228,-89.18945516
Mississippi,Bolivar,2016,12,77,0,2020-10-24,33.79696941,-90.87372121
Mississippi,Calhoun,626,4,12,0,2020-10-24,33.93683395,-89.33686647
Mississippi,Carroll,493,13,12,0,2020-10-24,33.44834567,-89.91994479
Mississippi,Chickasaw,855,15,26,0,2020-10-24,33.91983202,-88.9481545
Mississippi,Choctaw,208,3,6,0,2020-10-24,33.34598242,-89.24809382
Mississippi,Claiborne,537,0,16,0,2020-10-24,31.97061673,-90.90702196
Mississippi,Clarke,758,15,51,0,2020-10-24,32.04158545,-88.68896219999998
Mississippi,Clay,693,9,21,0,2020-10-24,33.65358105,-88.77784255
Mississippi,Coahoma,1249,0,37,1,2020-10-24,34.22772299,-90.60415045
Mississippi,Copiah,1375,6,36,0,2020-10-24,31.86977774,-90.44565118
Mississippi,Covington,975,5,27,1,2020-10-24,31.63225413,-89.55389939
Mississippi,DeSoto,7039,107,79,0,2020-10-24,34.87625235,-89.99091418
Mississippi,Forrest,3046,39,78,0,2020-10-24,31.18961454,-89.25832496
Mississippi,Franklin,242,2,3,0,2020-10-24,31.47786634,-90.89672989
Mississippi,George,992,13,18,0,2020-10-24,30.86259065,-88.64436789
Mississippi,Greene,478,5,18,0,2020-10-24,31.21444233,-88.63922281
Mississippi,Grenada,1226,10,38,0,2020-10-24,33.77036166,-89.80245083
Mississippi,Hancock,840,24,28,0,2020-10-24,30.41830223,-89.48851033
Mississippi,Harrison,5223,94,84,1,2020-10-24,30.51359752,-89.12467576
Mississippi,Hinds,7973,79,177,0,2020-10-24,32.2656285,-90.44435448
Mississippi,Holmes,1147,3,60,0,2020-10-24,33.12345854,-90.08923538
Mississippi,Humphreys,438,10,16,0,2020-10-24,33.12825718,-90.52252707
Mississippi,Issaquena,107,0,4,0,2020-10-24,32.72531359,-90.97392828
Mississippi,Itawamba,1139,17,25,0,2020-10-24,34.27993475,-88.3606733
Mississippi,Jackson,4578,75,84,0,2020-10-24,30.54020656,-88.64184064
Mississippi,Jasper,687,8,17,0,2020-10-24,32.01922104,-89.11786866
Mississippi,Jefferson,276,1,10,0,2020-10-24,31.73397872,-91.03764977
Mississippi,Jefferson Davis,410,5,11,0,2020-10-24,31.56884708,-89.82670990000003
Mississippi,Jones,2924,33,84,0,2020-10-24,31.62257767,-89.16896899999998
Mississippi,Kemper,326,4,15,0,2020-10-24,32.75462946,-88.64105766
Mississippi,Lafayette,2504,21,43,0,2020-10-24,34.35687874,-89.48490961
Mississippi,Lamar,2255,13,38,0,2020-10-24,31.20572971,-89.5077704
Mississippi,Lauderdale,2478,41,135,1,2020-10-24,32.40419769,-88.66229662
Mississippi,Lawrence,518,6,14,0,2020-10-24,31.55147224,-90.10841127
Mississippi,Leake,1150,4,41,1,2020-10-24,32.7536828,-89.52402044
Mississippi,Lee,3573,59,80,1,2020-10-24,34.291877500000005,-88.68149954
Mississippi,Leflore,1671,13,87,0,2020-10-24,33.55545125,-90.29900733
Mississippi,Lincoln,1401,12,57,0,2020-10-24,31.53288662,-90.45391915
Mississippi,Lowndes,1799,16,62,0,2020-10-24,33.47386518,-88.44191529999998
Mississippi,Madison,3831,19,94,1,2020-10-24,32.63389156,-90.03513564
Mississippi,Marion,950,4,42,0,2020-10-24,31.23132643,-89.8209217
Mississippi,Marshall,1431,19,29,0,2020-10-24,34.76216286,-89.50299462
Mississippi,Monroe,1506,25,73,1,2020-10-24,33.89236763,-88.4808438
Mississippi,Montgomery,549,6,23,0,2020-10-24,33.49419589,-89.61729103
Mississippi,Neshoba,1849,7,111,0,2020-10-24,32.75339664,-89.11726492
Mississippi,Newton,866,10,27,0,2020-10-24,32.40021118,-89.11843336
Mississippi,Noxubee,598,2,17,0,2020-10-24,33.11009499,-88.56949061
Mississippi,Oktibbeha,2024,16,54,0,2020-10-24,33.42491685,-88.87905132
Mississippi,Panola,1700,9,40,1,2020-10-24,34.36398677,-89.95064249
Mississippi,Pearl River,1136,7,60,1,2020-10-24,30.77090935,-89.58677275
Mississippi,Perry,494,7,23,0,2020-10-24,31.17161885,-88.99281835
Mississippi,Pike,1384,2,56,0,2020-10-24,31.17507789,-90.40392572
Mississippi,Pontotoc,1472,11,20,1,2020-10-24,34.226046000000004,-89.03636807
Mississippi,Prentiss,1061,13,20,1,2020-10-24,34.61810501,-88.51986294
Mississippi,Quitman,420,1,6,0,2020-10-24,34.25157572,-90.28908
Mississippi,Rankin,3940,46,86,0,2020-10-24,32.26469147,-89.94537876
Mississippi,Scott,1254,5,29,0,2020-10-24,32.406704100000006,-89.53789439
Mississippi,Sharkey,285,2,14,0,2020-10-24,32.88149103,-90.8159538
Mississippi,Simpson,1215,3,49,0,2020-10-24,31.91282117,-89.91716179
Mississippi,Smith,594,3,16,0,2020-10-24,32.01744532,-89.50644846
Mississippi,Stone,475,11,14,0,2020-10-24,30.79187949,-89.11547539
Mississippi,Sunflower,1623,14,49,0,2020-10-24,33.60192578,-90.58882684
Mississippi,Tallahatchie,845,5,26,1,2020-10-24,33.95339918,-90.1729398
Mississippi,Tate,1168,8,39,0,2020-10-24,34.65133709,-89.94485778
Mississippi,Tippah,903,14,22,0,2020-10-24,34.76872156,-88.90988194
Mississippi,Tishomingo,812,12,41,0,2020-10-24,34.74023475,-88.23917219
Mississippi,Tunica,535,6,17,0,2020-10-24,34.64967704,-90.37481167
Mississippi,Union,1188,14,25,0,2020-10-24,34.49162015,-89.00776006
Mississippi,Walthall,639,1,27,0,2020-10-24,31.14971548,-90.10446654
Mississippi,Warren,1548,5,55,0,2020-10-24,32.35810271,-90.83352619
Mississippi,Washington,2583,19,99,0,2020-10-24,33.28392041,-90.94196237
Mississippi,Wayne,1017,9,22,1,2020-10-24,31.64135687,-88.69573913
Mississippi,Webster,376,6,13,0,2020-10-24,33.61300486,-89.28392912
Mississippi,Wilkinson,338,1,20,0,2020-10-24,31.16078225,-91.31018819
Mississippi,Winston,841,8,21,0,2020-10-24,33.08747908,-89.03391385
Mississippi,Yalobusha,545,19,14,0,2020-10-24,34.02824175,-89.70762049999998
Mississippi,Yazoo,1222,5,34,1,2020-10-24,32.77890365,-90.39656148
Missouri,Adair,499,6,0,0,2020-10-24,40.19058551,-92.60078167
Missouri,Andrew,428,8,8,4,2020-10-24,39.98492163,-94.80163024
Missouri,Atchison,75,0,1,0,2020-10-24,40.43238737,-95.42970639
Missouri,Audrain,563,3,11,4,2020-10-24,39.215877,-91.84242683
Missouri,Barry,786,22,8,0,2020-10-24,36.70978521,-93.82919888
Missouri,Barton,414,1,3,0,2020-10-24,37.50207671,-94.34757022
Missouri,Bates,243,9,5,0,2020-10-24,38.25271289,-94.34113157
Missouri,Benton,476,3,5,0,2020-10-24,38.29503305,-93.28756116
Missouri,Bollinger,463,8,2,0,2020-10-24,37.32449052,-90.02725304
Missouri,Boone,5889,70,14,0,2020-10-24,38.99186229,-92.30723575
Missouri,Buchanan,2916,58,39,1,2020-10-24,39.65816401,-94.80138942
Missouri,Butler,1121,15,8,0,2020-10-24,36.71462476,-90.40421163
Missouri,Caldwell,166,2,1,0,2020-10-24,39.65620858,-93.98308093
Missouri,Callaway,1152,47,5,0,2020-10-24,38.83674754,-91.92186505
Missouri,Camden,1544,25,33,5,2020-10-24,38.02199522,-92.76083747
Missouri,Cape Girardeau,2599,35,49,3,2020-10-24,37.38489388,-89.6843587
Missouri,Carroll,179,2,3,0,2020-10-24,39.42762566,-93.50626255
Missouri,Carter,168,2,3,0,2020-10-24,36.94160441,-90.96051322
Missouri,Cass,1993,26,30,2,2020-10-24,38.64789422,-94.353399
Missouri,Cedar,219,2,4,2,2020-10-24,37.72391475,-93.85445441
Missouri,Chariton,58,1,0,0,2020-10-24,39.51499357,-92.9629191
Missouri,Christian,2215,32,13,2,2020-10-24,36.9711783,-93.18537118
Missouri,Clark,105,1,1,1,2020-10-24,40.41040752,-91.73661677
Missouri,Clay,2477,28,49,3,2020-10-24,39.31132056,-94.41850862
Missouri,Clinton,479,16,15,1,2020-10-24,39.6013098,-94.40465394
Missouri,Cole,2849,93,22,4,2020-10-24,38.50455671,-92.27860244
Missouri,Cooper,605,13,3,1,2020-10-24,38.844478,-92.80896081
Missouri,Crawford,609,16,8,1,2020-10-24,37.97663738,-91.30528104
Missouri,Dade,135,4,0,0,2020-10-24,37.431814,-93.8503345
Missouri,Dallas,338,7,1,0,2020-10-24,37.6811355,-93.02127031
Missouri,Daviess,220,9,4,0,2020-10-24,39.96145298,-93.98519678
Missouri,DeKalb,287,16,2,0,2020-10-24,39.89201062,-94.40476508
Missouri,Dent,241,2,3,0,2020-10-24,37.60663134,-91.50790473
Missouri,Douglas,280,3,11,2,2020-10-24,36.9325593,-92.49905109
Missouri,Dunklin,1091,20,12,0,2020-10-24,36.27167174,-90.09122243
Missouri,Franklin,2542,78,44,1,2020-10-24,38.41127108,-91.07522826
Missouri,Gasconade,244,7,24,0,2020-10-24,38.43947277,-91.50847147
Missouri,Gentry,181,4,10,0,2020-10-24,40.21097916,-94.40944419
Missouri,Greene,8788,121,122,4,2020-10-24,37.2575872,-93.34230916
Missouri,Grundy,256,1,9,0,2020-10-24,40.11406587,-93.56509276
Missouri,Harrison,187,5,1,0,2020-10-24,40.35570088,-93.99222144
Missouri,Henry,370,7,6,0,2020-10-24,38.38482826,-93.79293734
Missouri,Hickory,193,5,3,0,2020-10-24,37.94163617,-93.3203037
Missouri,Holt,114,1,1,0,2020-10-24,40.09799248,-95.2163888
Missouri,Howard,244,5,2,0,2020-10-24,39.1435761,-92.69756691
Missouri,Howell,1102,19,10,3,2020-10-24,36.77383887,-91.88683935
Missouri,Iron,98,2,0,0,2020-10-24,37.55487945,-90.7735296
Missouri,Jackson,9765,103,122,4,2020-10-24,39.01002188,-94.34724536
Missouri,Jasper,5091,63,70,2,2020-10-24,37.20351921,-94.34050458
Missouri,Jefferson,5420,115,84,5,2020-10-24,38.25926778,-90.53870896
Missouri,Johnson,1452,24,10,0,2020-10-24,38.74719601,-93.80691168
Missouri,Knox,62,1,1,0,2020-10-24,40.12699751,-92.14780832
Missouri,Laclede,1159,33,22,1,2020-10-24,37.65896829,-92.5888493
Missouri,Lafayette,797,15,24,0,2020-10-24,39.06986886,-93.78076396
Missouri,Lawrence,1062,28,20,6,2020-10-24,37.10626634,-93.83293097
Missouri,Lewis,192,6,2,0,2020-10-24,40.09673161,-91.72070156
Missouri,Lincoln,1128,26,5,0,2020-10-24,39.05345619,-90.95588181
Missouri,Linn,158,2,4,2,2020-10-24,39.87001769,-93.10704106
Missouri,Livingston,556,3,7,1,2020-10-24,39.78110272,-93.54645978
Missouri,McDonald,1207,11,11,0,2020-10-24,36.62869595,-94.34867205
Missouri,Macon,203,3,1,0,2020-10-24,39.83049768,-92.56453089
Missouri,Madison,478,13,3,0,2020-10-24,37.47865134,-90.3467143
Missouri,Maries,175,14,0,0,2020-10-24,38.16193985,-91.92249662
Missouri,Marion,890,19,14,0,2020-10-24,39.80601912,-91.62203062
Missouri,Mercer,31,0,0,0,2020-10-24,40.42212303,-93.5682959
Missouri,Miller,834,22,9,2,2020-10-24,38.21450288,-92.42610898
Missouri,Mississippi,437,20,6,1,2020-10-24,36.82516239,-89.29505753
Missouri,Moniteau,601,18,9,0,2020-10-24,38.63571781,-92.57976951
Missouri,Monroe,146,2,2,1,2020-10-24,39.49593978,-92.00043978
Missouri,Montgomery,138,12,1,0,2020-10-24,38.94022054,-91.47000721
Missouri,Morgan,649,20,7,1,2020-10-24,38.4181765,-92.88791859
Missouri,New Madrid,751,15,22,2,2020-10-24,36.59666326,-89.66070007
Missouri,Newton,1992,13,21,4,2020-10-24,36.90519407,-94.3394104
Missouri,Nodaway,1101,22,11,1,2020-10-24,40.36079813,-94.88133008
Missouri,Oregon,223,0,0,0,2020-10-24,36.68710164,-91.4033755
Missouri,Osage,462,13,3,0,2020-10-24,38.46036182,-91.8613635
Missouri,Ozark,201,6,1,0,2020-10-24,36.64916339,-92.44459066
Missouri,Pemiscot,713,10,12,0,2020-10-24,36.2130572,-89.78742322
Missouri,Perry,789,10,8,0,2020-10-24,37.70660776,-89.82741088
Missouri,Pettis,1563,39,17,2,2020-10-24,38.72798918,-93.28471706
Missouri,Phelps,812,18,21,0,2020-10-24,37.87736118,-91.79351727
Missouri,Pike,343,15,8,0,2020-10-24,39.34310674,-91.16980779
Missouri,Platte,965,9,12,0,2020-10-24,39.38154439,-94.77068479
Missouri,Polk,922,9,10,2,2020-10-24,37.6162296,-93.39828174
Missouri,Pulaski,944,17,9,0,2020-10-24,37.82462075,-92.20783203
Missouri,Putnam,53,1,1,0,2020-10-24,40.47942497,-93.02042674
Missouri,Ralls,200,2,0,0,2020-10-24,39.52817427,-91.51838643
Missouri,Randolph,595,20,3,0,2020-10-24,39.44007257,-92.4971374
Missouri,Ray,264,4,2,0,2020-10-24,39.3537468,-93.98905745
Missouri,Reynolds,65,0,1,0,2020-10-24,37.36085952,-90.97009925
Missouri,Ripley,254,7,4,0,2020-10-24,36.65460667,-90.85990261
Missouri,St. Charles,10400,250,147,3,2020-10-24,38.77875681,-90.66662425
Missouri,St. Clair,118,1,1,0,2020-10-24,38.03699437,-93.77631447
Missouri,Ste. Genevieve,361,20,1,0,2020-10-24,37.89090059,-90.1949941
Missouri,St. Francois,2776,56,27,3,2020-10-24,37.81214171,-90.47598685
Missouri,St. Louis,29396,253,871,4,2020-10-24,38.63770039999999,-90.4458375
Missouri,Saline,934,8,10,0,2020-10-24,39.13734288,-93.20259964
Missouri,Schuyler,39,3,0,0,2020-10-24,40.46921489,-92.52311943
Missouri,Scotland,71,3,1,0,2020-10-24,40.45214695,-92.14709064
Missouri,Scott,1377,21,19,0,2020-10-24,37.05588075,-89.56474493
Missouri,Shannon,227,10,4,1,2020-10-24,37.15772072,-91.40190382
