State,County,Total Cases,New Cases,Total Deaths,New Deaths,Date,Latitude,Longitude
Alabama,Autauga,3005,26,42,0,2020-12-06,32.53952745,-86.64408227
Alabama,Baldwin,9728,102,138,0,2020-12-06,30.72774991,-87.72207058
Alabama,Barbour,1223,4,29,0,2020-12-06,31.868263,-85.3871286
Alabama,Bibb,1293,10,38,0,2020-12-06,32.99642064,-87.12511459999997
Alabama,Blount,3299,18,46,0,2020-12-06,33.98210918,-86.56790593
Alabama,Bullock,713,0,20,0,2020-12-06,32.10030533,-85.71265535
Alabama,Butler,1236,11,42,0,2020-12-06,31.75300095,-86.68057478
Alabama,Calhoun,7096,69,127,0,2020-12-06,33.77483727,-85.82630386
Alabama,Chambers,1906,5,54,0,2020-12-06,32.91360079,-85.39072749
Alabama,Cherokee,1093,3,24,0,2020-12-06,34.17805983,-85.60638968
Alabama,Chilton,2391,19,45,0,2020-12-06,32.85044126,-86.7173256
Alabama,Choctaw,440,2,20,0,2020-12-06,32.02227341,-88.26564429999998
Alabama,Clarke,1671,11,22,0,2020-12-06,31.68099859,-87.83548597
Alabama,Clay,963,7,27,0,2020-12-06,33.26984193,-85.85836077
Alabama,Cleburne,821,2,14,0,2020-12-06,33.67679204,-85.52005899
Alabama,Coffee,2657,20,23,0,2020-12-06,31.39932826,-85.98901039
Alabama,Colbert,3536,20,49,0,2020-12-06,34.69847452,-87.80168544
Alabama,Conecuh,738,3,15,0,2020-12-06,31.43401703,-86.99320044
Alabama,Coosa,393,0,4,0,2020-12-06,32.93690146,-86.24847739
Alabama,Covington,2370,12,38,0,2020-12-06,31.2477854,-86.45050893
Alabama,Crenshaw,745,4,31,0,2020-12-06,31.72941803,-86.31593104
Alabama,Cullman,5032,47,54,1,2020-12-06,34.13020303,-86.86888037
Alabama,Dale,2528,18,59,0,2020-12-06,31.43037123,-85.61095742
Alabama,Dallas,2384,6,33,0,2020-12-06,32.32688101,-87.10866709999998
Alabama,DeKalb,5334,52,44,1,2020-12-06,34.45946862,-85.80782906
Alabama,Elmore,4482,36,70,0,2020-12-06,32.59785413,-86.14415284
Alabama,Escambia,2099,3,32,0,2020-12-06,31.1256789,-87.15918694
Alabama,Etowah,7220,52,70,0,2020-12-06,34.04567266,-86.04051873
Alabama,Fayette,1061,16,16,0,2020-12-06,33.72076938,-87.73886638
Alabama,Franklin,2694,9,34,0,2020-12-06,34.44235334,-87.84289505
Alabama,Geneva,1316,11,11,2,2020-12-06,31.09389027,-85.83572839
Alabama,Greene,473,7,18,0,2020-12-06,32.85504247,-87.95684022
Alabama,Hale,1028,4,32,0,2020-12-06,32.76039258,-87.63284988
Alabama,Henry,925,4,7,0,2020-12-06,31.51148016,-85.24267944
Alabama,Houston,5674,24,43,1,2020-12-06,31.15197924,-85.29939599
Alabama,Jackson,3896,57,23,0,2020-12-06,34.78144169,-85.99750489
Alabama,Jefferson,36475,473,520,1,2020-12-06,33.55554728,-86.89506300000002
Alabama,Lamar,755,11,8,0,2020-12-06,33.77995024,-88.09668032
Alabama,Lauderdale,4626,33,57,0,2020-12-06,34.90171875,-87.65624729
Alabama,Lawrence,1422,1,36,0,2020-12-06,34.52041498,-87.31069453
Alabama,Lee,8171,40,69,1,2020-12-06,32.60154883,-85.35132246
Alabama,Limestone,4744,47,48,1,2020-12-06,34.81185586,-86.98310072
Alabama,Lowndes,837,4,30,0,2020-12-06,32.1597283,-86.65158371
Alabama,Macon,781,3,22,0,2020-12-06,32.38759944,-85.69267724
Alabama,Madison,15090,236,160,1,2020-12-06,34.76327133,-86.55069633
Alabama,Marengo,1312,20,24,0,2020-12-06,32.24767634,-87.78796182
Alabama,Marion,1537,7,36,0,2020-12-06,34.13697363,-87.88704173
Alabama,Marshall,7133,70,58,0,2020-12-06,34.36975964,-86.30486727
Alabama,Mobile,20869,105,379,2,2020-12-06,30.78472347,-88.20842409
Alabama,Monroe,855,0,11,0,2020-12-06,31.56729412,-87.36995001
Alabama,Montgomery,13003,84,247,0,2020-12-06,32.2206831,-86.20969272
Alabama,Morgan,7600,88,58,0,2020-12-06,34.45500589,-86.85475946
Alabama,Perry,707,1,7,0,2020-12-06,32.64048341,-87.29770589
Alabama,Pickens,1313,7,21,0,2020-12-06,33.28094866,-88.08818103
Alabama,Pike,1663,3,15,0,2020-12-06,31.80396383,-85.9408295
Alabama,Randolph,1086,3,22,0,2020-12-06,33.29526734,-85.45708831
Alabama,Russell,2359,9,3,0,2020-12-06,32.28725256,-85.18415324
Alabama,St. Clair,4768,35,57,0,2020-12-06,33.71902176,-86.31029372
Alabama,Shelby,11546,96,79,0,2020-12-06,33.26879845,-86.66232561
Alabama,Sumter,619,7,22,0,2020-12-06,32.59117397,-88.19916205
Alabama,Talladega,3944,33,60,0,2020-12-06,33.37823223,-86.16886178
Alabama,Tallapoosa,1934,6,92,0,2020-12-06,32.86698258,-85.79833053
Alabama,Tuscaloosa,14182,117,177,1,2020-12-06,33.28726072,-87.52556818
Alabama,Walker,3983,33,112,0,2020-12-06,33.80270512,-87.30027177
Alabama,Washington,952,8,22,0,2020-12-06,31.4092794,-88.20689944
Alabama,Wilcox,664,2,18,0,2020-12-06,31.98773215,-87.30891118
Alabama,Winston,1484,12,25,0,2020-12-06,34.15030532,-87.37325922
Alaska,Aleutians East,42,0,0,0,2020-12-06,55.32222414,-161.9722021
Alaska,Bristol Bay,0,0,0,0,2020-12-06,58.74513976,-156.701064
Alaska,Denali,47,1,0,0,2020-12-06,63.67264044,-150.0076108
Alaska,Fairbanks North Star,3755,34,17,0,2020-12-06,64.80726247,-146.5692662
Alaska,Haines,17,0,0,0,2020-12-06,59.09893571,-135.4679843
Alaska,Kenai Peninsula,2999,53,11,0,2020-12-06,60.24429722,-151.53888840000005
Alaska,Ketchikan Gateway,214,1,0,0,2020-12-06,55.57445008,-130.975561
Alaska,Kodiak Island,463,30,1,0,2020-12-06,57.65529415,-153.7493579
Alaska,Matanuska-Susitna,4936,211,8,0,2020-12-06,62.31305045,-149.5741743
Alaska,North Slope,567,22,1,0,2020-12-06,69.31479216,-153.4836093
Alaska,Northwest Arctic,373,2,0,0,2020-12-06,67.04919196,-159.7503946
Arizona,Apache,5864,41,200,0,2020-12-06,35.39465006,-109.4892383
Arizona,Cochise,4342,90,89,0,2020-12-06,31.87934684,-109.7516088
Arizona,Coconino,8241,155,182,0,2020-12-06,35.83883429,-111.7707178
Arizona,Gila,3290,28,99,0,2020-12-06,33.80190085,-110.8132779
Arizona,Graham,2369,29,38,0,2020-12-06,32.93166885,-109.8882178
Arizona,Greenlee,293,7,3,0,2020-12-06,33.21498827,-109.2405279
Arizona,La Paz,976,7,20,0,2020-12-06,33.72854224,-113.9810029
Arizona,Maricopa,228312,2530,4153,22,2020-12-06,33.34835867,-112.4918154
Arizona,Mohave,7238,124,271,2,2020-12-06,35.70471703,-113.7577902
Arizona,Navajo,8766,59,277,0,2020-12-06,35.3997715,-110.3218983
Arizona,Pima,45166,1236,730,0,2020-12-06,32.0971334,-111.7890033
Arizona,Pinal,18739,303,273,0,2020-12-06,32.90525627,-111.3449483
Arizona,Santa Cruz,4416,94,76,0,2020-12-06,31.52508998,-110.8479088
Arizona,Yavapai,6621,265,130,1,2020-12-06,34.59933926,-112.5538588
Arizona,Yuma,19643,408,409,0,2020-12-06,32.76895712,-113.90666740000002
Arkansas,Arkansas,1036,7,23,0,2020-12-06,34.29145151,-91.37277296
Arkansas,Ashley,948,6,16,0,2020-12-06,33.19153461,-91.7698471
Arkansas,Baxter,1541,5,32,2,2020-12-06,36.28784385,-92.33782872
Arkansas,Benton,13220,89,179,7,2020-12-06,36.33644656,-94.25680817
Arkansas,Boone,2001,16,47,2,2020-12-06,36.3084504,-93.09374925
Arkansas,Bradley,580,3,7,0,2020-12-06,33.46755808,-92.15980837
Arkansas,Calhoun,161,0,1,0,2020-12-06,33.55598792,-92.49974403
Arkansas,Carroll,1603,11,23,0,2020-12-06,36.34038560000001,-93.54270261
Arkansas,Chicot,1260,4,28,0,2020-12-06,33.26458973,-91.29539209
Arkansas,Clark,934,13,12,0,2020-12-06,34.04613432,-93.17484713
Arkansas,Clay,1034,17,23,0,2020-12-06,36.36826212,-90.4148172
Arkansas,Cleburne,814,4,25,0,2020-12-06,35.53864922,-92.02640019
Arkansas,Cleveland,415,6,15,0,2020-12-06,33.89723187,-92.18537045
Arkansas,Columbia,1192,4,27,0,2020-12-06,33.21230701,-93.22642793
Arkansas,Conway,794,20,8,0,2020-12-06,35.26205537,-92.70506566
Arkansas,Craighead,7775,77,85,2,2020-12-06,35.83018283,-90.63235729
Arkansas,Crawford,3367,36,41,1,2020-12-06,35.58928601,-94.2446814
Arkansas,Crittenden,3500,11,58,1,2020-12-06,35.21247318,-90.30839406
Arkansas,Cross,947,4,28,1,2020-12-06,35.29631396,-90.77185818
Arkansas,Dallas,345,3,6,0,2020-12-06,33.97042763,-92.65167437
Arkansas,Desha,662,11,8,0,2020-12-06,33.83011025,-91.25500948
Arkansas,Drew,969,25,8,0,2020-12-06,33.59035001,-91.71777921
Arkansas,Faulkner,5345,44,60,1,2020-12-06,35.14719007,-92.33717519
Arkansas,Franklin,879,9,16,1,2020-12-06,35.51202821,-93.89299569
Arkansas,Fulton,589,1,13,0,2020-12-06,36.38177105,-91.81729127
Arkansas,Garland,4134,22,112,2,2020-12-06,34.57692074,-93.14921604
Arkansas,Grant,677,6,6,0,2020-12-06,34.29017991,-92.42320562
Arkansas,Greene,3354,36,32,1,2020-12-06,36.11735460000001,-90.55832668
Arkansas,Hempstead,927,2,8,0,2020-12-06,33.73325583,-93.66935133
Arkansas,Hot Spring,3020,6,44,0,2020-12-06,34.31709259,-92.95396325
Arkansas,Howard,866,7,15,0,2020-12-06,34.09007427,-93.9934871
Arkansas,Independence,2235,8,72,1,2020-12-06,35.74242707,-91.57001641
Arkansas,Izard,1030,3,7,1,2020-12-06,36.09604046,-91.90847954
Arkansas,Jackson,2131,108,11,1,2020-12-06,35.59802983,-91.21494602
Arkansas,Jefferson,5469,32,112,0,2020-12-06,34.26767081,-91.92619839
Arkansas,Johnson,1356,13,13,0,2020-12-06,35.56759135,-93.46036368
Arkansas,Lafayette,274,0,3,0,2020-12-06,33.24116713,-93.60677071
Arkansas,Lawrence,1259,9,32,0,2020-12-06,36.04188196,-91.10867198
Arkansas,Lee,1258,11,18,0,2020-12-06,34.78498904,-90.78383866
Arkansas,Lincoln,2569,9,19,0,2020-12-06,33.95317155,-91.74002806
Arkansas,Little River,672,2,37,0,2020-12-06,33.70375665,-94.23468591
Arkansas,Logan,1072,21,6,0,2020-12-06,35.21413234,-93.71951016
Arkansas,Lonoke,2981,15,59,0,2020-12-06,34.75392199,-91.88742357
Arkansas,Madison,748,7,8,0,2020-12-06,36.01038185,-93.72524943
Arkansas,Marion,481,1,7,1,2020-12-06,36.26844485,-92.68451899
Arkansas,Miller,2263,9,22,0,2020-12-06,33.31403423,-93.89285258
Arkansas,Mississippi,3516,33,85,1,2020-12-06,35.76271485,-90.05194370000002
Arkansas,Monroe,335,3,4,0,2020-12-06,34.6815935,-91.20540287
Arkansas,Montgomery,349,9,10,0,2020-12-06,34.53704874,-93.65824478
Arkansas,Nevada,492,0,15,0,2020-12-06,33.66340119,-93.30632432
Arkansas,Newton,479,7,23,0,2020-12-06,35.91947491,-93.21612969
Arkansas,Ouachita,942,22,14,0,2020-12-06,33.58839816,-92.87795984
Arkansas,Perry,287,8,4,0,2020-12-06,34.9459153,-92.94372564
Arkansas,Phillips,1013,8,17,0,2020-12-06,34.43268455,-90.84800154
Arkansas,Pike,429,-2,4,0,2020-12-06,34.16250414,-93.65789349
Arkansas,Poinsett,1798,12,46,1,2020-12-06,35.57433534,-90.66268713
Arkansas,Polk,927,6,16,3,2020-12-06,34.48254879,-94.22728802
Arkansas,Pope,4035,43,45,0,2020-12-06,35.44871474,-93.03212219
Arkansas,Prairie,380,2,9,0,2020-12-06,34.83624419,-91.55162157
Arkansas,Pulaski,18173,159,295,0,2020-12-06,34.77054088,-92.31355101
Arkansas,Randolph,1085,4,31,0,2020-12-06,36.3415714,-91.02455531
Arkansas,St. Francis,2188,10,15,0,2020-12-06,35.02201976,-90.74828138
Arkansas,Saline,5504,55,62,2,2020-12-06,34.64916145,-92.67583224
Arkansas,Scott,430,9,3,0,2020-12-06,34.85588887,-94.0632176
Arkansas,Searcy,353,5,1,0,2020-12-06,35.9109364,-92.69936482
Arkansas,Sebastian,7513,58,126,4,2020-12-06,35.19605503,-94.27162713
Arkansas,Sevier,1800,6,18,0,2020-12-06,33.99780401,-94.2424869
Arkansas,Sharp,791,2,20,0,2020-12-06,36.16258158,-91.47819342
Arkansas,Stone,541,6,25,0,2020-12-06,35.86251946,-92.15684085
Arkansas,Union,1686,15,59,0,2020-12-06,33.16887091,-92.59746952
Arkansas,Van Buren,453,5,5,0,2020-12-06,35.58095779,-92.51295036
Arkansas,Washington,16741,125,184,2,2020-12-06,35.976844,-94.21800746
Arkansas,White,3284,54,56,2,2020-12-06,35.25688493,-91.74908296
Arkansas,Woodruff,222,6,1,0,2020-12-06,35.18902527,-91.2439489
Arkansas,Yell,1795,21,35,0,2020-12-06,35.00292371,-93.41171338
California,Alameda,32781,910,522,0,2020-12-06,37.64629437,-121.8929271
California,Alpine,57,0,0,0,2020-12-06,38.59678594,-119.8223594
California,Amador,991,74,17,0,2020-12-06,38.44583082,-120.65696
California,Butte,4455,38,60,0,2020-12-06,39.66727762,-121.6005252
California,Calaveras,606,21,22,0,2020-12-06,38.20537103,-120.552913
California,Colusa,825,35,6,0,2020-12-06,39.17881957,-122.2331726
California,Contra Costa,26355,587,267,5,2020-12-06,37.91923498,-121.9289527
California,Del Norte,411,0,1,0,2020-12-06,41.74228275,-123.8974063
California,El Dorado,3061,128,8,0,2020-12-06,38.77965956,-120.5233166
California,Fresno,40568,460,506,0,2020-12-06,36.75733899,-119.6466953
California,Glenn,1056,38,11,0,2020-12-06,39.59875897,-122.3938452
California,Humboldt,1014,0,9,0,2020-12-06,40.69923009,-123.876044
California,Imperial,16555,0,360,0,2020-12-06,33.0393082,-115.3669042
California,Inyo,332,4,16,0,2020-12-06,36.51112084,-117.41119779999998
California,Kern,44327,467,456,1,2020-12-06,35.34329425,-118.7277796
California,Kings,11911,144,93,2,2020-12-06,36.07409056,-119.8159973
California,Lake,1069,47,21,0,2020-12-06,39.10124298,-122.7536244
California,Lassen,2422,0,3,0,2020-12-06,40.67311306,-120.59350990000002
California,Los Angeles,449851,10443,7909,23,2020-12-06,34.30828379,-118.2282411
California,Madera,6619,82,90,0,2020-12-06,37.21513971,-119.76655890000002
California,Marin,8016,54,131,0,2020-12-06,38.07122463,-122.7210631
California,Mariposa,159,4,3,0,2020-12-06,37.57978556,-119.9073334
California,Mendocino,1697,0,23,0,2020-12-06,39.4381191,-123.3911313
California,Merced,12891,0,191,0,2020-12-06,37.18922369,-120.7209035
California,Modoc,181,7,0,0,2020-12-06,41.58965602,-120.7244817
California,Mono,614,21,3,0,2020-12-06,37.93899289,-118.8872409
California,Monterey,17077,340,130,0,2020-12-06,36.21862405,-121.2413397
California,Napa,3565,133,19,0,2020-12-06,38.50735751,-122.332839
California,Nevada,1642,73,16,0,2020-12-06,39.30394768,-120.7627281
California,Orange,86878,2025,1633,15,2020-12-06,33.70147516,-117.76459979999998
California,Placer,7811,350,74,0,2020-12-06,39.06167234,-120.7240569
California,Plumas,268,0,0,0,2020-12-06,40.00355989,-120.8395236
California,Riverside,98612,3357,1472,0,2020-12-06,33.74314981,-115.9933578
California,Sacramento,41878,782,614,0,2020-12-06,38.45106826,-121.3425374
California,San Benito,2159,35,18,0,2020-12-06,36.60308176,-121.069975
California,San Bernardino,106770,2859,1175,0,2020-12-06,34.84060306,-116.1774685
California,San Diego,92171,1703,1062,7,2020-12-06,33.03484597,-116.7365326
California,San Joaquin,28105,299,522,0,2020-12-06,37.93433732,-121.2730061
California,San Luis Obispo,6623,83,42,0,2020-12-06,35.38822029,-120.4039028
California,San Mateo,15512,44,176,0,2020-12-06,37.4228808,-122.32755459999998
California,Santa Barbara,12107,160,138,0,2020-12-06,34.65329488,-120.0188492
California,Santa Clara,39193,805,503,0,2020-12-06,37.23104908,-121.6970462
California,Santa Cruz,4997,12,40,0,2020-12-06,37.05580291,-122.0066524
California,Shasta,5653,163,53,0,2020-12-06,40.76391419,-122.0396884
California,Sierra,24,0,0,0,2020-12-06,39.57713498,-120.52007009999998
California,Siskiyou,786,0,5,0,2020-12-06,41.59198861,-122.5407434
California,Solano,11413,0,85,0,2020-12-06,38.26827353,-121.9357113
California,Sonoma,13369,271,160,0,2020-12-06,38.52746429,-122.8862506
California,Stanislaus,24047,284,439,3,2020-12-06,37.55862499,-120.9970722
California,Sutter,3937,22,20,0,2020-12-06,39.03417539,-121.6945899
California,Tehama,1945,59,28,2,2020-12-06,40.12570935,-122.2370171
California,Trinity,186,0,0,0,2020-12-06,40.64917670000001,-123.114713
California,Tulare,22660,274,317,0,2020-12-06,36.22026558,-118.8020203
California,Tuolumne,1190,0,12,0,2020-12-06,38.02644018,-119.9525093
California,Ventura,22710,686,188,0,2020-12-06,34.44465746,-119.0910613
California,Yolo,5372,62,84,0,2020-12-06,38.68278902,-121.9018288
California,Yuba,2403,0,11,0,2020-12-06,39.26255932,-121.3535644
Colorado,Adams,32334,290,371,0,2020-12-06,39.87432092,-104.3362578
Colorado,Alamosa,703,21,14,0,2020-12-06,37.57250606,-105.7885451
Colorado,Arapahoe,30170,401,456,0,2020-12-06,39.64977461,-104.3353617
Colorado,Archuleta,324,18,0,0,2020-12-06,37.19474156,-107.0476867
Colorado,Baca,133,4,0,0,2020-12-06,37.31940883,-102.5603223
Colorado,Bent,401,9,1,0,2020-12-06,37.95474293,-103.0720195
Colorado,Boulder,12043,94,124,0,2020-12-06,40.09313619,-105.3546767
Colorado,Chaffee,734,4,21,0,2020-12-06,38.74745778,-106.19265729999998
Colorado,Cheyenne,75,0,2,0,2020-12-06,38.82777431,-102.6032558
Colorado,Clear Creek,213,5,2,0,2020-12-06,39.68864463,-105.6463118
Colorado,Conejos,217,5,3,0,2020-12-06,37.201606,-106.19174879999998
Colorado,Costilla,92,0,2,0,2020-12-06,37.27732493,-105.4276548
Colorado,Crowley,1340,4,5,0,2020-12-06,38.32608609,-103.7844965
Colorado,Custer,92,1,0,0,2020-12-06,38.10883162,-105.3683478
Colorado,Delta,807,1,11,0,2020-12-06,38.86246243,-107.8631342
Colorado,Dolores,31,0,0,0,2020-12-06,37.75208676,-108.5211585
Colorado,Douglas,12167,197,123,0,2020-12-06,39.33133796,-104.930001
Colorado,Eagle,2572,36,12,0,2020-12-06,39.62754308,-106.6933637
Colorado,Elbert,709,14,5,0,2020-12-06,39.28656773,-104.1358721
Colorado,El Paso,31181,420,329,0,2020-12-06,38.83240149,-104.5251411
Colorado,Fremont,3327,49,7,0,2020-12-06,38.47362326,-105.4399667
Colorado,Garfield,2535,45,10,0,2020-12-06,39.59921777,-107.902708
Colorado,Gilpin,98,1,1,0,2020-12-06,39.85646523,-105.5252597
Colorado,Grand,469,5,3,0,2020-12-06,40.10603347,-106.1178042
Colorado,Gunnison,502,7,7,0,2020-12-06,38.66611652,-107.0320729
Colorado,Hinsdale,10,0,0,0,2020-12-06,37.82247444,-107.3004345
Colorado,Huerfano,202,1,7,0,2020-12-06,37.68473101,-104.9612585
Colorado,Jackson,22,0,0,0,2020-12-06,40.66593870000001,-106.3408905
Colorado,Jefferson,23132,302,494,0,2020-12-06,39.58635604,-105.2517692
Colorado,Kiowa,34,0,0,0,2020-12-06,38.43260896,-102.7392145
Colorado,Kit Carson,336,0,8,0,2020-12-06,39.30497777,-102.6022199
Colorado,Lake,319,1,0,0,2020-12-06,39.20278823,-106.3555697
Colorado,La Plata,1637,34,5,0,2020-12-06,37.28632032,-107.8429014
Colorado,Larimer,11664,145,79,0,2020-12-06,40.66671597,-105.4625784
Colorado,Las Animas,300,2,1,0,2020-12-06,37.3153406,-104.0376458
Colorado,Lincoln,558,1,0,0,2020-12-06,38.98749519,-103.5136649
Colorado,Logan,2536,15,40,0,2020-12-06,40.7249637,-103.110817
Colorado,Mesa,6752,105,73,0,2020-12-06,39.01787888,-108.469799
Colorado,Mineral,36,0,0,0,2020-12-06,37.66954283,-106.9281698
Colorado,Moffat,362,11,13,0,2020-12-06,40.61810999,-108.2070876
Colorado,Montezuma,851,18,8,0,2020-12-06,37.33859579,-108.5958857
Colorado,Montrose,1345,26,16,0,2020-12-06,38.40214114,-108.26390220000002
Colorado,Morgan,1766,10,58,0,2020-12-06,40.26279810000001,-103.8093302
Colorado,Otero,975,32,12,0,2020-12-06,37.9014485,-103.7173385
Colorado,Ouray,126,0,2,0,2020-12-06,38.14717457,-107.7675136
Colorado,Park,277,4,4,0,2020-12-06,39.120926,-105.7182065
Colorado,Phillips,200,0,3,0,2020-12-06,40.59414277,-102.3577703
Colorado,Pitkin,584,5,2,0,2020-12-06,39.21720112,-106.9310027
Colorado,Prowers,732,2,15,0,2020-12-06,37.95544985,-102.3926052
Colorado,Pueblo,9884,135,153,-1,2020-12-06,38.17359144,-104.5127437
Colorado,Rio Blanco,181,13,2,0,2020-12-06,39.97913541,-108.2179009
Colorado,Rio Grande,273,9,5,0,2020-12-06,37.5836865,-106.3847838
Colorado,Routt,765,27,16,0,2020-12-06,40.48596505,-106.9905548
Colorado,Saguache,231,0,4,0,2020-12-06,38.08054629,-106.282466
Colorado,San Juan,19,0,0,0,2020-12-06,37.76248981,-107.67632890000002
Colorado,San Miguel,267,12,0,0,2020-12-06,38.00450883,-108.4020725
Colorado,Sedgwick,115,0,2,0,2020-12-06,40.87595412,-102.3519227
Colorado,Summit,1698,21,4,0,2020-12-06,39.63803232,-106.1150762
Colorado,Teller,729,16,4,0,2020-12-06,38.88133511,-105.1614893
Colorado,Washington,290,0,9,0,2020-12-06,39.97015535,-103.202587
Colorado,Weld,15679,193,208,0,2020-12-06,40.55499405,-104.3929621
Colorado,Yuma,368,1,3,0,2020-12-06,40.00346839,-102.4258673
Connecticut,Fairfield,41535,0,1545,0,2020-12-06,41.26809896,-73.3881171
Connecticut,Hartford,30879,0,1630,0,2020-12-06,41.80283011,-72.73103891
Connecticut,Litchfield,4931,0,174,0,2020-12-06,41.7937534,-73.2451475
Connecticut,Middlesex,4007,0,210,0,2020-12-06,41.45949668,-72.53714864
Connecticut,New Haven,32843,0,1291,0,2020-12-06,41.4080325,-72.93620426
Connecticut,New London,6648,0,180,0,2020-12-06,41.48896435,-72.10430976
Connecticut,Tolland,3225,0,81,0,2020-12-06,41.85853803,-72.3308481
Connecticut,Windham,2837,0,34,0,2020-12-06,41.82972709,-71.98182316
Delaware,Kent,5945,156,133,0,2020-12-06,39.08646628,-75.56884914
Delaware,New Castle,22705,501,392,7,2020-12-06,39.57992638,-75.64054974
Delaware,Sussex,11165,158,268,4,2020-12-06,38.66143781,-75.39031349
Florida,Alachua,13382,68,103,0,2020-12-06,29.67866525,-82.35928158
Florida,Baker,2108,8,33,0,2020-12-06,30.33060121,-82.28467476
Florida,Bay,9210,165,172,2,2020-12-06,30.26548745,-85.62122584
Florida,Bradford,1472,5,19,0,2020-12-06,29.95079741,-82.16611613
Florida,Brevard,16626,97,456,0,2020-12-06,28.29409504,-80.73091022
Florida,Broward,113634,905,1701,7,2020-12-06,26.15184651,-80.48725556
Florida,Calhoun,923,3,22,0,2020-12-06,30.40666734,-85.19394153
Florida,Charlotte,5527,90,200,0,2020-12-06,26.90131002,-81.92949121
Florida,Citrus,5143,47,181,0,2020-12-06,28.84804315,-82.47614748
Florida,Clay,8559,74,156,2,2020-12-06,29.98319144,-81.85609986
Florida,Collier,18926,175,294,1,2020-12-06,26.11091986,-81.34687065
Florida,Columbia,4941,11,99,0,2020-12-06,30.22509788,-82.62160164
Florida,DeSoto,2499,7,38,1,2020-12-06,27.18677893,-81.80941373
Florida,Dixie,984,1,11,0,2020-12-06,29.60631086,-83.15724673
Florida,Duval,47036,430,650,13,2020-12-06,30.33225875,-81.66976468
Florida,Escambia,17617,103,316,1,2020-12-06,30.67652764,-87.37284571
Florida,Flagler,2889,22,45,2,2020-12-06,29.45933576,-81.31508595
Florida,Franklin,838,3,4,0,2020-12-06,29.83791238,-84.82731662
Florida,Gadsden,3418,18,57,0,2020-12-06,30.57796289,-84.61915825
Florida,Gilchrist,815,1,20,0,2020-12-06,29.72856978,-82.79880657
Florida,Glades,696,5,10,0,2020-12-06,26.95635849,-81.18996211
Florida,Gulf,1105,10,21,0,2020-12-06,29.93543004,-85.24270990000002
Florida,Hamilton,1023,4,11,0,2020-12-06,30.49673973,-82.94998918
Florida,Hardee,1810,3,19,0,2020-12-06,27.49293939,-81.80956574
Florida,Hendry,2611,17,45,0,2020-12-06,26.55386945,-81.16469006
Florida,Hernando,5395,53,229,0,2020-12-06,28.55364461,-82.42700204
Florida,Highlands,4036,42,165,5,2020-12-06,27.34254618,-81.34071957
Florida,Hillsborough,61276,515,960,1,2020-12-06,27.9276559,-82.32013172
Florida,Holmes,1256,9,16,0,2020-12-06,30.86747479,-85.81319222
Florida,Indian River,5251,46,141,0,2020-12-06,27.69308961,-80.60556721
Florida,Jackson,4009,15,97,0,2020-12-06,30.7954597,-85.21500423
Florida,Jefferson,802,0,12,0,2020-12-06,30.43669112,-83.89442308
Florida,Lafayette,1363,4,21,0,2020-12-06,29.98484137,-83.18166636
Florida,Lake,11183,92,260,2,2020-12-06,28.76202069,-81.7125123
Florida,Lee,32209,312,598,0,2020-12-06,26.58410348,-81.88399313
Florida,Leon,15850,88,150,0,2020-12-06,30.45955727,-84.27491114
Florida,Levy,1495,13,14,0,2020-12-06,29.31829741,-82.74007147
Florida,Liberty,628,5,14,0,2020-12-06,30.23766008,-84.8829258
Florida,Madison,1324,5,27,0,2020-12-06,30.44396917,-83.47398594
Florida,Manatee,17713,107,391,1,2020-12-06,27.47196942,-82.31831044
Florida,Marion,13900,90,402,9,2020-12-06,29.21227113,-82.05803627
Florida,Martin,6534,49,179,0,2020-12-06,27.0772071,-80.43109784
Florida,Miami-Dade,243050,1999,3913,17,2020-12-06,25.6112362,-80.55170587
Florida,Monroe,3569,24,28,0,2020-12-06,25.20904673,-81.07812416
Florida,Nassau,3443,26,58,1,2020-12-06,30.61037141,-81.80297522
Florida,Okaloosa,9776,62,174,7,2020-12-06,30.69143028,-86.59267105
Florida,Okeechobee,2108,9,44,0,2020-12-06,27.386336199999995,-80.88944347
Florida,Orange,61474,444,657,1,2020-12-06,28.51367621,-81.31799498
Florida,Osceola,19625,138,245,0,2020-12-06,28.06312234,-81.14882926
Florida,Palm Beach,68912,531,1725,1,2020-12-06,26.64676272,-80.46536002
Florida,Pasco,16153,205,301,11,2020-12-06,28.30810945,-82.40227529
Florida,Pinellas,34899,296,925,1,2020-12-06,27.93130349,-82.72239666
Florida,Polk,29135,217,701,1,2020-12-06,27.95027105,-81.69732947
Florida,Putnam,2940,21,60,0,2020-12-06,29.60779729,-81.74230285
Florida,St. Johns,9542,109,100,1,2020-12-06,29.90096506,-81.43589967
Florida,St. Lucie,11334,86,374,2,2020-12-06,27.37763908,-80.47106649
Florida,Santa Rosa,8070,75,104,0,2020-12-06,30.693414500000006,-87.02458128
Florida,Sarasota,14753,178,398,0,2020-12-06,27.18546175,-82.33174248
Florida,Seminole,13642,86,283,0,2020-12-06,28.7158582,-81.24060348
Florida,Sumter,3716,15,101,0,2020-12-06,28.70181754,-82.0794267
Florida,Suwannee,3403,15,87,0,2020-12-06,30.19746066,-82.99099670000003
Florida,Taylor,1689,4,22,1,2020-12-06,30.04848048,-83.60445406
Florida,Union,1259,5,61,0,2020-12-06,30.04412971,-82.37497443
Florida,Volusia,17388,102,376,2,2020-12-06,29.05858895,-81.18263252
Florida,Wakulla,1727,13,16,0,2020-12-06,30.16548905,-84.39895211
Florida,Walton,3904,21,38,0,2020-12-06,30.64204028,-86.16935664
Florida,Washington,1588,10,27,0,2020-12-06,30.61359259,-85.66002461
Georgia,Appling,1361,1,41,0,2020-12-06,31.74847232,-82.28909114
Georgia,Atkinson,616,0,9,0,2020-12-06,31.29633502,-82.87545866
Georgia,Bacon,769,0,24,0,2020-12-06,31.55456473,-82.45936528
Georgia,Baker,128,0,6,0,2020-12-06,31.32669878,-84.44218806
Georgia,Baldwin,2740,0,72,0,2020-12-06,33.06882326,-83.24701748
Georgia,Banks,867,6,13,0,2020-12-06,34.35607081,-83.49644388
Georgia,Barrow,3747,15,58,0,2020-12-06,33.99148694,-83.71436292
Georgia,Bartow,5594,41,109,0,2020-12-06,34.23732119,-84.83887523
Georgia,Ben Hill,1102,9,40,0,2020-12-06,31.76095874,-83.22145359
Georgia,Berrien,789,1,29,0,2020-12-06,31.27590016,-83.22529920000002
Georgia,Bibb,7993,2,243,1,2020-12-06,32.80904227,-83.70489165
Georgia,Bleckley,732,0,33,0,2020-12-06,32.43829035,-83.33035166
Georgia,Brantley,831,1,19,0,2020-12-06,31.19576557,-81.97743999
Georgia,Brooks,760,1,30,0,2020-12-06,30.83922642,-83.58303423
Georgia,Bryan,1571,4,18,0,2020-12-06,32.00979311,-81.44002948
Georgia,Bulloch,3844,10,56,0,2020-12-06,32.39577406,-81.74811421
Georgia,Burke,1290,2,16,0,2020-12-06,33.05917989,-81.99928721
Georgia,Butts,1167,3,46,0,2020-12-06,33.283094500000004,-83.95435040000002
Georgia,Calhoun,328,0,11,0,2020-12-06,31.53169785,-84.62725131
Georgia,Camden,1959,12,21,0,2020-12-06,30.92951916,-81.66601818
Georgia,Candler,621,0,35,0,2020-12-06,32.40209349,-82.07702563
Georgia,Carroll,5980,7,99,0,2020-12-06,33.58138199,-85.07976677
Georgia,Catoosa,2294,9,30,0,2020-12-06,34.89872298,-85.13757014
Georgia,Charlton,834,4,19,0,2020-12-06,30.78371028,-82.13951596
Georgia,Chatham,11294,16,212,0,2020-12-06,32.00043026,-81.12489526
Georgia,Chattahoochee,2055,13,3,0,2020-12-06,32.34341231,-84.78809239
Georgia,Chattooga,1325,5,35,0,2020-12-06,34.47197698,-85.34535662
Georgia,Cherokee,11548,63,118,0,2020-12-06,34.24393976,-84.47431861
Georgia,Clarke,8389,16,56,0,2020-12-06,33.95436462,-83.37124007
Georgia,Clay,151,0,3,0,2020-12-06,31.62221166,-84.97713865
Georgia,Clayton,11117,66,208,0,2020-12-06,33.54187245,-84.35594188
Georgia,Clinch,541,0,13,0,2020-12-06,30.91395822,-82.70432472
Georgia,Cobb,32108,124,520,0,2020-12-06,33.94243204,-84.5761255
Georgia,Coffee,3163,4,81,0,2020-12-06,31.54892966,-82.85492059999999
Georgia,Colquitt,2696,18,51,2,2020-12-06,31.18810588,-83.7677946
Georgia,Columbia,7063,13,82,0,2020-12-06,33.54534185,-82.263524
Georgia,Cook,963,1,20,0,2020-12-06,31.16068491,-83.42947229
Georgia,Coweta,5881,49,76,0,2020-12-06,33.35334302,-84.76129976
Georgia,Crawford,270,2,7,0,2020-12-06,32.71391813,-83.98061238
Georgia,Crisp,978,3,36,0,2020-12-06,31.92289565,-83.76811843
Georgia,Dade,587,3,8,0,2020-12-06,34.854916700000004,-85.50490424
Georgia,Dawson,1258,3,11,0,2020-12-06,34.44244079,-84.16964071
Georgia,Decatur,1661,1,46,0,2020-12-06,30.87967778,-84.57619536
Georgia,DeKalb,29482,217,480,0,2020-12-06,33.76944049,-84.22396017
Georgia,Dodge,1099,3,54,0,2020-12-06,32.17265114,-83.16948926
Georgia,Dooly,514,0,19,0,2020-12-06,32.15630737,-83.79746561
Georgia,Dougherty,3906,6,205,0,2020-12-06,31.53328528,-84.21722377
Georgia,Douglas,6173,51,93,0,2020-12-06,33.70291126,-84.77026156
Georgia,Early,709,2,38,0,2020-12-06,31.32155345,-84.90255207
Georgia,Echols,305,1,3,0,2020-12-06,30.71101099,-82.89687287
Georgia,Effingham,2266,7,33,0,2020-12-06,32.36616021,-81.34280942
Georgia,Elbert,1263,0,29,1,2020-12-06,34.11302332,-82.83936148
Georgia,Emanuel,1466,3,48,0,2020-12-06,32.59221302,-82.30239915
Georgia,Evans,564,1,13,0,2020-12-06,32.15328841,-81.8870105
Georgia,Fannin,1097,10,37,0,2020-12-06,34.86430205,-84.316964
Georgia,Fayette,3565,15,65,2,2020-12-06,33.41357794,-84.49089434
Georgia,Floyd,5970,20,92,0,2020-12-06,34.26268279,-85.21577392
Georgia,Forsyth,7517,31,66,0,2020-12-06,34.22604035,-84.12315129999998
Georgia,Franklin,1325,2,23,0,2020-12-06,34.37525597,-83.23159927
Georgia,Fulton,43415,246,724,1,2020-12-06,33.79216944,-84.46319413
Georgia,Gilmer,1358,4,33,0,2020-12-06,34.69316688,-84.45802506
Georgia,Glascock,86,0,2,0,2020-12-06,33.22879932,-82.61297636
Georgia,Glynn,4441,12,125,0,2020-12-06,31.23279254,-81.53811412
Georgia,Gordon,3703,9,60,0,2020-12-06,34.50487351,-84.87296253
Georgia,Grady,1051,0,31,0,2020-12-06,30.87454847,-84.23418364
Georgia,Greene,783,0,28,0,2020-12-06,33.5769205,-83.17139104
Georgia,Gwinnett,42632,205,550,0,2020-12-06,33.96044201,-84.02137802
Georgia,Habersham,2544,3,84,0,2020-12-06,34.63331566,-83.53094677
Georgia,Hall,13596,37,208,0,2020-12-06,34.32207823,-83.81896936
Georgia,Hancock,538,0,47,0,2020-12-06,33.2721566,-82.99766919
Georgia,Haralson,1411,3,27,0,2020-12-06,33.79602175,-85.21005667
Georgia,Harris,1095,3,28,0,2020-12-06,32.73709786,-84.90538572
Georgia,Hart,950,8,29,0,2020-12-06,34.34626973,-82.96567682
Georgia,Heard,433,3,8,0,2020-12-06,33.29686567,-85.12886832
Georgia,Henry,9488,53,142,0,2020-12-06,33.4533428,-84.14814659999998
Georgia,Houston,5209,7,110,0,2020-12-06,32.45802497,-83.66879087
Georgia,Irwin,468,0,14,0,2020-12-06,31.60213036,-83.27501387
Georgia,Jackson,3762,25,60,0,2020-12-06,34.13794553,-83.56814788
Georgia,Jasper,545,3,7,0,2020-12-06,33.31535543,-83.68844964
Georgia,Jeff Davis,996,0,34,0,2020-12-06,31.80405727,-82.63724870000001
Georgia,Jefferson,1048,2,40,0,2020-12-06,33.05867328,-82.41609057
Georgia,Jenkins,502,0,34,0,2020-12-06,32.79248718,-81.96040187
Georgia,Johnson,537,-1,31,0,2020-12-06,32.70211082,-82.66166794
Georgia,Jones,840,1,21,0,2020-12-06,33.02512137,-83.56019163
Georgia,Lamar,770,0,27,0,2020-12-06,33.07841647,-84.14263877
Georgia,Lanier,415,0,10,0,2020-12-06,31.038285700000007,-83.06472457
Georgia,Laurens,2758,9,116,0,2020-12-06,32.46325233,-82.92221316
Georgia,Lee,1050,2,33,0,2020-12-06,31.779330600000005,-84.14324253
Georgia,Liberty,1623,4,30,0,2020-12-06,31.82588896,-81.49251135
Georgia,Lincoln,337,0,11,0,2020-12-06,33.79201475,-82.45024131
Georgia,Long,352,0,5,0,2020-12-06,31.75218791,-81.74952375
Georgia,Lowndes,6764,22,128,0,2020-12-06,30.83568832,-83.27056716
Georgia,Lumpkin,1372,0,20,0,2020-12-06,34.57286511,-84.00425681
Georgia,McDuffie,984,4,22,0,2020-12-06,33.47851918,-82.48252774
Georgia,McIntosh,402,0,10,0,2020-12-06,31.49683595,-81.40163426
Georgia,Macon,361,0,16,0,2020-12-06,32.35207048,-84.04234127
Georgia,Madison,1287,10,19,0,2020-12-06,34.12920917,-83.21218732
Georgia,Marion,256,0,10,0,2020-12-06,32.3483402,-84.52733571
Georgia,Meriwether,834,7,19,0,2020-12-06,33.04163534,-84.68859732
Georgia,Miller,423,0,3,0,2020-12-06,31.16568912,-84.73151117
Georgia,Mitchell,1028,1,51,0,2020-12-06,31.22483255,-84.19381821
Georgia,Monroe,1120,2,62,0,2020-12-06,33.014289,-83.92097166
Georgia,Montgomery,438,0,10,0,2020-12-06,32.17201038,-82.53527476
Georgia,Morgan,867,2,8,0,2020-12-06,33.59232073,-83.49129491
Georgia,Murray,2066,14,24,0,2020-12-06,34.78897608,-84.74993177
Georgia,Muscogee,7634,18,198,0,2020-12-06,32.50931999,-84.87142262
Georgia,Newton,4204,26,111,0,2020-12-06,33.55514538,-83.84547140000002
Georgia,Oconee,1500,6,37,1,2020-12-06,33.83749973,-83.43679568
Georgia,Oglethorpe,598,1,14,0,2020-12-06,33.878629600000004,-83.08278123
Georgia,Paulding,5670,18,87,0,2020-12-06,33.91969522,-84.86848792
Georgia,Peach,1152,1,28,0,2020-12-06,32.56934316,-83.82937
Georgia,Pickens,1240,12,18,0,2020-12-06,34.46589159,-84.46406611
Georgia,Pierce,1250,3,30,0,2020-12-06,31.35928155,-82.21598442
Georgia,Pike,879,4,17,0,2020-12-06,33.09310242,-84.38790389
Georgia,Polk,2591,11,35,0,2020-12-06,34.00267074,-85.18677781
Georgia,Pulaski,469,0,28,0,2020-12-06,32.23334561,-83.47549959999998
Georgia,Putnam,1039,0,31,0,2020-12-06,33.32056115,-83.37552891
Georgia,Quitman,85,0,1,0,2020-12-06,31.86728114,-85.01773177
Georgia,Rabun,662,7,12,0,2020-12-06,34.88389445,-83.40304637
Georgia,Randolph,371,0,31,1,2020-12-06,31.76622818,-84.75732369
Georgia,Richmond,11098,23,227,0,2020-12-06,33.35777107,-82.07026432
Georgia,Rockdale,2969,19,63,0,2020-12-06,33.65145002,-84.02202167
Georgia,Schley,182,0,2,0,2020-12-06,32.2654021,-84.31258912
Georgia,Screven,505,0,15,0,2020-12-06,32.74976524,-81.60779441
Georgia,Seminole,561,1,12,0,2020-12-06,30.93464824,-84.86823924
Georgia,Spalding,2566,7,86,0,2020-12-06,33.26310031,-84.28013991
Georgia,Stephens,1658,4,47,0,2020-12-06,34.55151201,-83.29405315
Georgia,Stewart,633,0,17,0,2020-12-06,32.07996777,-84.83208037
Georgia,Sumter,1337,0,72,1,2020-12-06,32.03650571,-84.19821492
Georgia,Talbot,241,1,8,0,2020-12-06,32.69642758,-84.53351366
Georgia,Taliaferro,43,0,0,0,2020-12-06,33.56543317,-82.88136816
Georgia,Tattnall,1184,6,30,0,2020-12-06,32.04785085,-82.05539188
Georgia,Taylor,418,0,13,0,2020-12-06,32.55792548,-84.25077141
Georgia,Telfair,667,1,30,0,2020-12-06,31.92829517,-82.93491155
Georgia,Terrell,432,7,33,0,2020-12-06,31.77527543,-84.44069698
Georgia,Thomas,2035,-2,83,0,2020-12-06,30.86392347,-83.91847289
Georgia,Tift,2752,4,78,0,2020-12-06,31.45743864,-83.5236119
Georgia,Toombs,1757,4,70,0,2020-12-06,32.12059861,-82.32957247
Georgia,Towns,604,0,33,0,2020-12-06,34.91369188,-83.74107459999998
Georgia,Treutlen,390,0,15,0,2020-12-06,32.40422134,-82.56904553
Georgia,Troup,4097,18,126,0,2020-12-06,33.03349196,-85.02812115
Georgia,Turner,474,0,25,0,2020-12-06,31.71612656,-83.62069378
Georgia,Twiggs,275,1,19,0,2020-12-06,32.67435595,-83.43078662
Georgia,Union,1139,1,38,0,2020-12-06,34.82995757,-83.98967069
Georgia,Upson,1599,0,80,0,2020-12-06,32.87920671,-84.30024826
Georgia,Walker,2860,13,54,0,2020-12-06,34.73376362,-85.30165174
Georgia,Walton,3616,21,82,0,2020-12-06,33.78017694,-83.73552314
Georgia,Ware,2666,0,82,0,2020-12-06,31.05449097,-82.42224148
Georgia,Warren,226,1,8,0,2020-12-06,33.41146451,-82.67795848
Georgia,Washington,1155,2,35,0,2020-12-06,32.96711864,-82.79357039
Georgia,Wayne,1726,0,49,0,2020-12-06,31.5521809,-81.91894878
Georgia,Webster,62,0,2,0,2020-12-06,32.04066113,-84.54742852
Georgia,Wheeler,426,0,19,0,2020-12-06,32.12009104,-82.72574721
Georgia,White,1422,4,28,0,2020-12-06,34.64624278,-83.74905525
Georgia,Whitfield,8580,80,90,0,2020-12-06,34.80987459,-84.96093476
Georgia,Wilcox,411,3,28,0,2020-12-06,31.97496928,-83.43438555
Georgia,Wilkes,486,1,10,0,2020-12-06,33.78290391,-82.74286107
Georgia,Wilkinson,466,0,18,0,2020-12-06,32.80291082,-83.17140684
Georgia,Worth,792,0,38,0,2020-12-06,31.55162306,-83.85090513
Idaho,Ada,28075,241,265,1,2020-12-06,43.4526575,-116.24155159999998
Idaho,Adams,120,0,2,0,2020-12-06,44.89333571,-116.4545247
Idaho,Bannock,5049,37,36,0,2020-12-06,42.67002716,-112.2233311
Idaho,Bear Lake,211,0,1,0,2020-12-06,42.28269683,-111.32892379999998
Idaho,Benewah,296,0,3,0,2020-12-06,47.21754179,-116.6586851
Idaho,Bingham,3034,9,30,0,2020-12-06,43.21672879999999,-112.3978437
Idaho,Blaine,1384,0,7,0,2020-12-06,43.4085812,-113.9752658
Idaho,Boise,160,4,2,0,2020-12-06,43.98829931,-115.7309284
Idaho,Bonner,1186,24,8,0,2020-12-06,48.29996017,-116.6017932
Idaho,Bonneville,8286,108,74,0,2020-12-06,43.38713372,-111.6161537
Idaho,Boundary,395,2,4,0,2020-12-06,48.76684761,-116.4630179
Idaho,Butte,136,0,0,0,2020-12-06,43.72592209,-113.1735463
Idaho,Camas,56,0,0,0,2020-12-06,43.46665742,-114.8065892
Idaho,Canyon,16729,189,154,1,2020-12-06,43.61970148,-116.7095499
Idaho,Caribou,462,1,10,0,2020-12-06,42.77149116,-111.5597683
Idaho,Cassia,2252,3,18,0,2020-12-06,42.28347888,-113.6012409
Idaho,Clark,51,0,0,0,2020-12-06,44.28496071,-112.3505704
Idaho,Clearwater,598,0,0,0,2020-12-06,46.67459924,-115.6622393
Idaho,Custer,163,0,1,0,2020-12-06,44.24186819,-114.2855494
Idaho,Elmore,986,9,7,0,2020-12-06,43.3507101,-115.4701578
Idaho,Franklin,749,1,7,0,2020-12-06,42.18332217,-111.8149666
Idaho,Fremont,766,3,10,0,2020-12-06,44.22800938,-111.4809943
Idaho,Gem,1105,14,6,0,2020-12-06,44.06482372,-116.398376
Idaho,Gooding,1027,7,10,0,2020-12-06,42.96927962,-114.8108306
Idaho,Idaho,801,0,12,0,2020-12-06,45.84721541,-115.4634436
Idaho,Jefferson,1702,23,11,0,2020-12-06,43.82078483,-112.3131749
Idaho,Jerome,2006,5,14,0,2020-12-06,42.68891267,-114.2655033
Idaho,Kootenai,8468,25,86,0,2020-12-06,47.67282258,-116.7020872
Idaho,Latah,1822,0,3,0,2020-12-06,46.81587887,-116.7113698
Idaho,Lemhi,432,1,8,0,2020-12-06,44.9438088,-113.9309747
Idaho,Lewis,240,0,4,0,2020-12-06,46.23315327,-116.434146
Idaho,Lincoln,376,0,8,0,2020-12-06,43.0012336,-114.1358773
Idaho,Madison,4487,47,9,0,2020-12-06,43.78141028,-111.65384740000002
Idaho,Minidoka,1819,7,18,0,2020-12-06,42.85518524,-113.6357257
Idaho,Nez Perce,2481,0,37,0,2020-12-06,46.32638236,-116.7500975
Idaho,Oneida,178,3,0,0,2020-12-06,42.19494279999999,-112.5407838
Idaho,Owyhee,763,17,13,0,2020-12-06,42.58016894,-116.1693871
Idaho,Payette,1751,7,16,1,2020-12-06,44.00545243,-116.7647695
Idaho,Power,483,1,4,0,2020-12-06,42.69254894,-112.83957420000002
Idaho,Shoshone,552,1,23,0,2020-12-06,47.35364087,-115.8916749
Idaho,Teton,592,1,2,0,2020-12-06,43.75303583,-111.2056773
Idaho,Twin Falls,7172,9,99,0,2020-12-06,42.35440512,-114.6685381
Idaho,Valley,285,3,1,0,2020-12-06,44.76728382,-115.5676773
Idaho,Washington,810,3,12,0,2020-12-06,44.45275475,-116.7847688
Illinois,Adams,5056,18,57,0,2020-12-06,39.98815591,-91.18786813
Illinois,Alexander,276,5,4,0,2020-12-06,37.18049267,-89.32910838
Illinois,Bond,1192,8,12,0,2020-12-06,38.88829622,-89.43534887
Illinois,Boone,4187,27,40,2,2020-12-06,42.32359279,-88.82345779
Illinois,Brown,347,0,6,0,2020-12-06,39.96209138,-90.75068024
Illinois,Bureau,2317,21,55,0,2020-12-06,41.40385234,-89.5283051
Illinois,Calhoun,292,5,1,0,2020-12-06,39.16840183,-90.66330078
Illinois,Carroll,1156,15,27,0,2020-12-06,42.06823429,-89.93395545
Illinois,Cass,1114,5,24,1,2020-12-06,39.96991073,-90.24734436
Illinois,Champaign,11698,101,69,1,2020-12-06,40.13919438,-88.20046615
Illinois,Christian,2039,23,47,1,2020-12-06,39.54581621,-89.27780482
Illinois,Clark,869,11,21,0,2020-12-06,39.33425789,-87.78705622
Illinois,Clay,989,2,23,1,2020-12-06,38.75388572,-88.48914513
Illinois,Clinton,3617,33,65,0,2020-12-06,38.60704876,-89.42385254
Illinois,Coles,3536,23,64,0,2020-12-06,39.51949084,-88.22358557
Illinois,Cook,329003,3190,6951,29,2020-12-06,41.84144849,-87.81658794
Illinois,Crawford,1227,4,16,0,2020-12-06,39.0032229,-87.75954624
Illinois,Cumberland,724,11,21,0,2020-12-06,39.27432424,-88.2401158
Illinois,DeKalb,5488,35,51,0,2020-12-06,41.89373302,-88.76958483
Illinois,De Witt,681,5,18,0,2020-12-06,40.17514519,-88.90959682
Illinois,Douglas,1493,9,19,0,2020-12-06,39.76768052,-88.21854195
Illinois,DuPage,50484,508,848,4,2020-12-06,41.85116968,-88.08642662
Illinois,Edgar,952,11,17,0,2020-12-06,39.6809186,-87.74759563
Illinois,Edwards,263,5,4,0,2020-12-06,38.41353228,-88.05720863
Illinois,Effingham,3138,37,31,0,2020-12-06,39.05935711,-88.58969584
Illinois,Fayette,2019,16,39,0,2020-12-06,39.00072038,-89.02452658
Illinois,Ford,854,2,25,0,2020-12-06,40.59706922,-88.22350769
Illinois,Franklin,2309,28,32,0,2020-12-06,37.99189086,-88.92567818
Illinois,Fulton,1695,20,15,0,2020-12-06,40.47289135,-90.20862357
Illinois,Gallatin,220,2,3,0,2020-12-06,37.76430935,-88.22953869
Illinois,Greene,929,6,34,0,2020-12-06,39.35907414,-90.388865
Illinois,Grundy,3121,37,26,0,2020-12-06,41.28569601,-88.41905692
Illinois,Hamilton,433,0,4,0,2020-12-06,38.08163641,-88.53883373
Illinois,Hancock,1051,7,17,1,2020-12-06,40.40423981,-91.16313899
Illinois,Hardin,166,2,2,0,2020-12-06,37.51810645,-88.26873022
Illinois,Henderson,325,11,3,1,2020-12-06,40.81908672,-90.92491462
Illinois,Henry,2974,18,24,1,2020-12-06,41.3533994,-90.13296166
Illinois,Iroquois,1898,16,35,0,2020-12-06,40.74717633,-87.82466784
Illinois,Jackson,2954,28,39,0,2020-12-06,37.78595185,-89.38232563
Illinois,Jasper,727,3,12,0,2020-12-06,39.01054275,-88.15437049
Illinois,Jefferson,2122,27,63,0,2020-12-06,38.29980057,-88.9240025
Illinois,Jersey,1472,41,25,1,2020-12-06,39.08869046,-90.35393073
Illinois,Jo Daviess,1175,9,21,1,2020-12-06,42.36542373,-90.21094405
Illinois,Johnson,802,5,10,1,2020-12-06,37.45939802,-88.88165419
Illinois,Kane,34411,286,502,5,2020-12-06,41.93842729,-88.42861412
Illinois,Kankakee,9364,65,123,1,2020-12-06,41.13746989,-87.86205334
Illinois,Kendall,6907,69,57,1,2020-12-06,41.59081014,-88.42869583
Illinois,Knox,3122,35,84,3,2020-12-06,40.93148779,-90.21330340000002
Illinois,Lake,40293,366,681,6,2020-12-06,42.3224907,-88.00367925
Illinois,LaSalle,6797,69,153,0,2020-12-06,41.34426129999999,-88.88633881
Illinois,Lawrence,1259,27,14,0,2020-12-06,38.71987914,-87.72884035
Illinois,Lee,2200,12,42,0,2020-12-06,41.74583951,-89.29977132
Illinois,Livingston,2484,13,41,1,2020-12-06,40.89188292,-88.55784752
Illinois,Logan,1990,30,26,0,2020-12-06,40.12581572,-89.36638784
Illinois,McDonough,1667,-2,44,0,2020-12-06,40.45674722,-90.67775541
Illinois,McHenry,15488,139,174,0,2020-12-06,42.32451172,-88.45248227
Illinois,McLean,9328,77,60,0,2020-12-06,40.48996987,-88.84621113
Illinois,Macon,6977,33,151,2,2020-12-06,39.86064913,-88.96342505
Illinois,Macoupin,2518,23,27,0,2020-12-06,39.26119767,-89.92424028
Illinois,Madison,16167,268,285,9,2020-12-06,38.83042506,-89.90422563
Illinois,Marion,2777,35,66,0,2020-12-06,38.64963204,-88.91899208
Illinois,Marshall,457,1,7,0,2020-12-06,41.0327901,-89.34510444
Illinois,Mason,792,2,26,0,2020-12-06,40.23917274,-89.91824452
Illinois,Massac,702,16,9,1,2020-12-06,37.22078441,-88.71036614
Illinois,Menard,547,13,2,0,2020-12-06,40.02742725,-89.80246001
Illinois,Mercer,838,17,13,0,2020-12-06,41.20596782,-90.74290052
Illinois,Monroe,2337,37,48,0,2020-12-06,38.27594376,-90.17761038
Illinois,Montgomery,1311,15,20,0,2020-12-06,39.23198845,-89.47809254
Illinois,Morgan,2427,17,50,0,2020-12-06,39.71654544,-90.20255104
Illinois,Moultrie,1008,11,11,0,2020-12-06,39.64187451,-88.62099969
Illinois,Ogle,3196,23,49,1,2020-12-06,42.04165196,-89.32184679
Illinois,Peoria,10217,103,146,2,2020-12-06,40.78702156,-89.76078901
Illinois,Perry,1254,5,33,0,2020-12-06,38.08510853,-89.36856219
Illinois,Piatt,852,6,5,0,2020-12-06,40.01360584,-88.59319339
Illinois,Pike,1099,7,32,0,2020-12-06,39.62265059,-90.8877017
Illinois,Pope,127,4,1,0,2020-12-06,37.41391284,-88.56152109
Illinois,Pulaski,462,2,2,0,2020-12-06,37.22631423,-89.13085001
Illinois,Putnam,264,3,0,0,2020-12-06,41.2013541,-89.2869272
Illinois,Randolph,2504,12,28,0,2020-12-06,38.05095369,-89.82512254
Illinois,Richland,923,15,21,2,2020-12-06,38.71240969,-88.08475366
Illinois,Rock Island,9191,-12,170,2,2020-12-06,41.46613806,-90.57042164
Illinois,St. Clair,14887,206,279,0,2020-12-06,38.46996033,-89.93063427
Illinois,Saline,1220,9,29,0,2020-12-06,37.75332999,-88.54119706
Illinois,Sangamon,11071,180,121,1,2020-12-06,39.75836914,-89.65872023
Illinois,Schuyler,363,3,2,0,2020-12-06,40.1571798,-90.61114163
Illinois,Scott,264,0,0,0,2020-12-06,39.6429169,-90.47814431
Illinois,Shelby,1524,10,27,0,2020-12-06,39.39133527,-88.80611122
Illinois,Stark,325,7,7,0,2020-12-06,41.09309773,-89.79745866
Illinois,Stephenson,2671,29,42,0,2020-12-06,42.35129217,-89.662598
Illinois,Tazewell,7775,80,130,6,2020-12-06,40.50716185,-89.51404662
Illinois,Union,1296,7,29,0,2020-12-06,37.47119609,-89.25548938
Illinois,Vermilion,4424,51,63,1,2020-12-06,40.18417171,-87.73384359
Illinois,Wabash,696,5,9,0,2020-12-06,38.44272901,-87.84922065
Illinois,Warren,1197,7,23,0,2020-12-06,40.84925021,-90.6147432
Illinois,Washington,839,8,3,0,2020-12-06,38.35309213,-89.40982703
Illinois,Wayne,1012,2,35,0,2020-12-06,38.42955355,-88.42586459
Illinois,White,694,2,12,0,2020-12-06,38.08706198,-88.17657461
Illinois,Whiteside,4053,19,142,4,2020-12-06,41.75509713,-89.91556058
Illinois,Will,42798,418,618,4,2020-12-06,41.44619267,-87.97862712
Illinois,Williamson,4012,33,91,1,2020-12-06,37.73033511,-88.92994027
Illinois,Winnebago,20465,190,300,2,2020-12-06,42.33641854,-89.16085327
Illinois,Woodford,2033,22,31,0,2020-12-06,40.78579374,-89.20973757
Indiana,Adams,2057,27,26,1,2020-12-06,40.7457653,-84.93671406
Indiana,Allen,21814,288,350,2,2020-12-06,41.09194313,-85.06800636
Indiana,Bartholomew,4069,63,68,0,2020-12-06,39.20744865,-85.89558181
Indiana,Benton,496,8,3,0,2020-12-06,40.60626947,-87.31093999
Indiana,Blackford,694,9,18,0,2020-12-06,40.47388153,-85.32499702
Indiana,Boone,3040,97,56,0,2020-12-06,40.0509304,-86.46841646
Indiana,Brown,461,10,6,0,2020-12-06,39.19605589,-86.22868909
Indiana,Carroll,868,17,13,0,2020-12-06,40.580783200000006,-86.56198812
Indiana,Cass,3382,64,32,0,2020-12-06,40.76135835,-86.34830753
Indiana,Clark,6100,106,87,0,2020-12-06,38.48015445,-85.70510334
Indiana,Clay,1481,31,26,0,2020-12-06,39.39561833,-87.11723506
Indiana,Clinton,2228,45,25,0,2020-12-06,40.30319754,-86.47277257
Indiana,Crawford,394,15,2,0,2020-12-06,38.28814402,-86.44518825
Indiana,Daviess,1858,23,55,1,2020-12-06,38.70186039,-87.07185406
Indiana,Dearborn,2720,57,33,0,2020-12-06,39.14647946,-84.97333539
Indiana,Decatur,1579,53,46,0,2020-12-06,39.30712658,-85.50087166
Indiana,DeKalb,2238,28,38,0,2020-12-06,41.39804622,-84.99906934
Indiana,Delaware,5855,88,109,0,2020-12-06,40.22787247,-85.39732772
Indiana,Dubois,2939,28,34,0,2020-12-06,38.36597551,-86.87924170000002
Indiana,Elkhart,19486,254,252,1,2020-12-06,41.59761169,-85.85875695
Indiana,Fayette,1728,37,40,0,2020-12-06,39.63684962,-85.17797541
Indiana,Floyd,3822,88,80,0,2020-12-06,38.32117957,-85.90385377
Indiana,Fountain,1068,18,9,0,2020-12-06,40.12361933,-87.24217689
Indiana,Franklin,856,15,28,0,2020-12-06,39.4142482,-85.06062647
Indiana,Fulton,1047,28,20,0,2020-12-06,41.0469907,-86.26252745
Indiana,Gibson,2358,21,34,0,2020-12-06,38.30393723,-87.58054938
Indiana,Grant,3505,59,56,0,2020-12-06,40.51587228,-85.65468702
Indiana,Greene,1303,11,54,0,2020-12-06,39.03630547,-86.96223202
Indiana,Hamilton,16627,339,185,0,2020-12-06,40.07306535,-86.05244729
Indiana,Hancock,3505,110,67,1,2020-12-06,39.82304555,-85.77566351
Indiana,Harrison,1811,56,26,0,2020-12-06,38.19467379,-86.10948271
Indiana,Hendricks,7894,168,166,0,2020-12-06,39.76719009,-86.51037283
Indiana,Henry,2980,47,42,1,2020-12-06,39.93029017,-85.39625719
Indiana,Howard,4561,128,82,0,2020-12-06,40.48527731,-86.11351892
Indiana,Huntington,1657,29,12,0,2020-12-06,40.82907273,-85.48822092
Indiana,Jackson,2830,57,38,0,2020-12-06,38.90915820000001,-86.03851889
Indiana,Jasper,1833,35,17,0,2020-12-06,41.02078733,-87.11553319
Indiana,Jay,1221,8,18,0,2020-12-06,40.43781032,-85.00576229
Indiana,Jefferson,1508,43,20,0,2020-12-06,38.78576239,-85.43633383
Indiana,Jennings,1176,39,18,0,2020-12-06,38.99588883,-85.62710784
Indiana,Johnson,8334,207,181,2,2020-12-06,39.48994426,-86.10149107
Indiana,Knox,2254,33,27,3,2020-12-06,38.68861576,-87.4194665
Indiana,Kosciusko,5390,122,51,1,2020-12-06,41.24521668,-85.86312322
Indiana,LaGrange,1677,18,35,0,2020-12-06,41.64232188,-85.42674232
Indiana,Lake,31983,445,495,2,2020-12-06,41.41874274,-87.38277575
Indiana,LaPorte,5563,105,108,0,2020-12-06,41.54366008,-86.74072188
Indiana,Lawrence,2190,44,52,0,2020-12-06,38.84112637,-86.48361629
Indiana,Madison,6220,131,129,1,2020-12-06,40.16143691,-85.71964711
Indiana,Marion,51874,987,915,6,2020-12-06,39.78163624,-86.13826325
Indiana,Marshall,3636,71,52,0,2020-12-06,41.32467367,-86.26185087
Indiana,Martin,425,6,6,0,2020-12-06,38.7099921,-86.80373186
Indiana,Miami,2052,46,19,0,2020-12-06,40.76940965,-86.04525048
Indiana,Monroe,6301,64,58,0,2020-12-06,39.16130004,-86.52414358
Indiana,Montgomery,1889,44,30,0,2020-12-06,40.04034823,-86.89335024
Indiana,Morgan,2794,58,47,1,2020-12-06,39.47899078,-86.44573375
Indiana,Newton,661,4,16,0,2020-12-06,40.95610449,-87.39635768
Indiana,Noble,3110,70,50,0,2020-12-06,41.39672484,-85.41966713
Indiana,Ohio,266,6,7,0,2020-12-06,38.955305,-84.96515993
Indiana,Orange,836,19,28,0,2020-12-06,38.54118920000001,-86.49523093
Indiana,Owen,808,29,12,0,2020-12-06,39.31145587,-86.83900724
Indiana,Parke,801,36,6,0,2020-12-06,39.77202286,-87.20375833
Indiana,Perry,936,13,21,0,2020-12-06,38.07809328,-86.63741946
Indiana,Pike,639,15,21,0,2020-12-06,38.40112197,-87.23574907
Indiana,Porter,9850,137,99,0,2020-12-06,41.45986947,-87.06848888
Indiana,Posey,1438,38,22,0,2020-12-06,38.02097333,-87.86480429
Indiana,Pulaski,546,11,21,0,2020-12-06,41.04166107,-86.69890683
Indiana,Putnam,1616,57,33,1,2020-12-06,39.66437981,-86.84517605
Indiana,Randolph,1484,12,25,0,2020-12-06,40.15734772,-85.01139319
Indiana,Ripley,1806,40,27,1,2020-12-06,39.10235626,-85.26212744
Indiana,Rush,715,22,8,0,2020-12-06,39.62002287,-85.4655599
Indiana,St. Joseph,19979,259,258,2,2020-12-06,41.61756781,-86.29040834
Indiana,Scott,1390,20,27,0,2020-12-06,38.68672078,-85.74627859
Indiana,Shelby,2355,53,63,1,2020-12-06,39.52305623,-85.79158570000001
Indiana,Spencer,1021,18,9,1,2020-12-06,38.01519732,-87.0079644
Indiana,Starke,1141,29,28,0,2020-12-06,41.27890281,-86.64686895
Indiana,Steuben,1788,25,16,0,2020-12-06,41.64423868,-85.00101094
Indiana,Sullivan,1208,32,18,0,2020-12-06,39.08952258,-87.41414469
Indiana,Switzerland,311,9,5,0,2020-12-06,38.82767338,-85.03022429
Indiana,Tippecanoe,10843,158,37,0,2020-12-06,40.38872739,-86.89413959
Indiana,Tipton,717,12,27,0,2020-12-06,40.31123252,-86.05234925
Indiana,Union,315,1,2,0,2020-12-06,39.62550777,-84.92497066
Indiana,Vanderburgh,11551,121,139,0,2020-12-06,38.02658833,-87.58763124
Indiana,Vermillion,824,9,14,0,2020-12-06,39.8523352,-87.46160542
Indiana,Vigo,7102,100,113,2,2020-12-06,39.42944561,-87.39169027
Indiana,Wabash,2072,23,27,0,2020-12-06,40.84704239,-85.79328272
Indiana,Warren,314,3,3,0,2020-12-06,40.34728141,-87.35602659
Indiana,Warrick,3844,40,76,0,2020-12-06,38.08922676,-87.2716085
Indiana,Washington,964,24,9,0,2020-12-06,38.60219804,-86.1049363
Indiana,Wayne,3831,40,101,2,2020-12-06,39.8633444,-85.01044989
Indiana,Wells,1540,20,39,1,2020-12-06,40.72934187,-85.22132966
Indiana,White,1632,39,24,0,2020-12-06,40.74911165,-86.86492015
Indiana,Whitley,1732,26,17,0,2020-12-06,41.13863784,-85.50791236
Iowa,Adair,484,5,11,1,2020-12-06,41.33075609,-94.47105874
Iowa,Adams,195,2,2,0,2020-12-06,41.02903567,-94.69932645
Iowa,Allamakee,925,3,13,0,2020-12-06,43.28383218,-91.37860922
Iowa,Appanoose,843,4,14,0,2020-12-06,40.74324454,-92.86865906
Iowa,Audubon,313,1,3,1,2020-12-06,41.6844628,-94.90581859
Iowa,Benton,1789,11,24,1,2020-12-06,42.08011739,-92.06463573
Iowa,Black Hawk,11453,50,156,4,2020-12-06,42.4704581,-92.30524729
Iowa,Boone,1515,17,12,0,2020-12-06,42.03657094,-93.9313999
Iowa,Bremer,2056,4,14,0,2020-12-06,42.77461496,-92.31795937
Iowa,Buchanan,1263,5,10,0,2020-12-06,42.4709188,-91.83510825
Iowa,Buena Vista,3217,10,14,0,2020-12-06,42.73545875,-95.15100162
Iowa,Butler,1098,2,12,0,2020-12-06,42.73172833,-92.79015971
Iowa,Calhoun,1104,0,7,0,2020-12-06,42.38521079,-94.64046046
Iowa,Carroll,2076,3,26,0,2020-12-06,42.03617207,-94.86032705
Iowa,Cass,875,7,26,0,2020-12-06,41.33149454,-94.92792482
Iowa,Cedar,1186,11,15,1,2020-12-06,41.77233777,-91.13246684
Iowa,Cerro Gordo,3835,51,52,0,2020-12-06,43.08177563,-93.2612239
Iowa,Cherokee,1006,12,4,0,2020-12-06,42.73538914,-95.62389402
Iowa,Chickasaw,930,1,6,0,2020-12-06,43.06001295,-92.31773347
Iowa,Clarke,521,6,4,0,2020-12-06,41.02868181,-93.78499767
Iowa,Clay,1295,3,7,1,2020-12-06,43.08247182,-95.15096481
Iowa,Clayton,1194,5,11,1,2020-12-06,42.84443388,-91.34133693
Iowa,Clinton,3556,19,48,2,2020-12-06,41.89981633,-90.53275096
Iowa,Crawford,1853,7,16,0,2020-12-06,42.03718237,-95.3819718
Iowa,Dallas,6806,38,60,0,2020-12-06,41.68560356,-94.04127625
Iowa,Davis,504,3,11,0,2020-12-06,40.74773536,-92.41005468
Iowa,Decatur,347,0,1,1,2020-12-06,40.73742757,-93.78645949
Iowa,Delaware,1500,9,22,0,2020-12-06,42.47104597,-91.3664492
Iowa,Des Moines,3109,28,23,0,2020-12-06,40.92012606,-91.18326592
Iowa,Dickinson,1483,6,12,0,2020-12-06,43.37787725,-95.1510206
Iowa,Dubuque,9656,38,101,1,2020-12-06,42.46815349,-90.88181925
Iowa,Emmet,800,1,26,0,2020-12-06,43.37782951,-94.67858943
Iowa,Fayette,1131,6,12,0,2020-12-06,42.86271799,-91.8441231
Iowa,Floyd,1155,6,24,0,2020-12-06,43.06000529999999,-92.78940097
Iowa,Franklin,775,0,21,0,2020-12-06,42.73270384,-93.26256925
Iowa,Fremont,398,3,3,0,2020-12-06,40.74542720000001,-95.60129045
Iowa,Greene,551,1,2,0,2020-12-06,42.03614551,-94.39658081
Iowa,Grundy,902,0,14,0,2020-12-06,42.40183723,-92.78829551
Iowa,Guthrie,807,0,15,0,2020-12-06,41.68378965,-94.50111014
Iowa,Hamilton,1212,2,15,0,2020-12-06,42.38382428,-93.70197703
Iowa,Hancock,944,3,8,0,2020-12-06,43.08178477,-93.73454884
Iowa,Hardin,1258,4,12,0,2020-12-06,42.38353877,-93.23654611
Iowa,Harrison,1164,7,33,1,2020-12-06,41.68330137,-95.81558439
Iowa,Henry,2002,17,8,0,2020-12-06,40.98767962,-91.54436349
Iowa,Howard,598,5,9,0,2020-12-06,43.35671042,-92.31702714
Iowa,Humboldt,831,2,6,0,2020-12-06,42.7764426,-94.20722537
Iowa,Ida,573,3,16,0,2020-12-06,42.38696136,-95.51355387
Iowa,Iowa,1027,3,14,0,2020-12-06,41.68630265,-92.0643373
Iowa,Jackson,1548,7,17,0,2020-12-06,42.17178824,-90.57354837
Iowa,Jasper,2382,17,47,1,2020-12-06,41.68576082,-93.05567785
Iowa,Jefferson,788,8,6,0,2020-12-06,41.03192394,-91.94849466
Iowa,Johnson,10010,34,41,0,2020-12-06,41.67169354,-91.58754744
Iowa,Jones,2409,12,19,0,2020-12-06,42.12118609,-91.13139641
Iowa,Keokuk,676,0,10,1,2020-12-06,41.33649833,-92.1785067
Iowa,Kossuth,1230,17,9,0,2020-12-06,43.20405458,-94.20691791
Iowa,Lee,2357,30,21,0,2020-12-06,40.64181461,-91.48183025
Iowa,Linn,15034,51,173,2,2020-12-06,42.07923082,-91.59809485
Iowa,Louisa,919,5,22,0,2020-12-06,41.21842119,-91.26102611
Iowa,Lucas,363,5,6,0,2020-12-06,41.02958964,-93.32780803
Iowa,Lyon,1089,3,10,0,2020-12-06,43.38107862,-96.20926845
Iowa,Madison,774,7,5,0,2020-12-06,41.33081904,-94.01554631
Iowa,Mahaska,1371,7,29,1,2020-12-06,41.33521503,-92.64083907
Iowa,Marion,2176,9,25,0,2020-12-06,41.33445101,-93.09934783
Iowa,Marshall,3653,7,51,0,2020-12-06,42.03586837,-92.9990819
Iowa,Mills,1132,6,10,0,2020-12-06,41.03299766,-95.61920963
Iowa,Mitchell,866,9,11,1,2020-12-06,43.35638371,-92.78887719
Iowa,Monona,473,4,8,0,2020-12-06,42.05220391,-95.95743843
Iowa,Monroe,474,1,13,0,2020-12-06,41.02988815,-92.8690667
Iowa,Montgomery,543,5,11,0,2020-12-06,41.03018714,-95.15642896
Iowa,Muscatine,3159,22,73,1,2020-12-06,41.48370744,-91.1121697
Iowa,O'Brien,1398,19,32,0,2020-12-06,43.08310673,-95.62474482
Iowa,Osceola,561,5,2,0,2020-12-06,43.37824276,-95.62422844
Iowa,Page,1218,16,5,0,2020-12-06,40.7393172,-95.1497813
Iowa,Palo Alto,695,3,5,0,2020-12-06,43.08193849,-94.67824621
Iowa,Plymouth,2978,18,45,0,2020-12-06,42.737633,-96.21366621
Iowa,Pocahontas,610,1,4,0,2020-12-06,42.73420133,-94.67862564
Iowa,Polk,35868,166,357,4,2020-12-06,41.68679484,-93.57767461
Iowa,Pottawattamie,7044,28,82,1,2020-12-06,41.33640314,-95.53907776
Iowa,Poweshiek,1052,3,14,0,2020-12-06,41.68625425,-92.53155731
Iowa,Ringgold,260,4,2,0,2020-12-06,40.73518949,-94.24368535
Iowa,Sac,923,1,9,0,2020-12-06,42.38624071,-95.10547892
Iowa,Scott,12228,127,99,4,2020-12-06,41.63935978,-90.61959493
Iowa,Shelby,820,1,15,1,2020-12-06,41.6850066,-95.31015553
Iowa,Sioux,3906,27,29,0,2020-12-06,43.08221074,-96.1767568
Iowa,Story,7140,24,25,0,2020-12-06,42.03621213,-93.46499005
Iowa,Tama,1589,5,42,0,2020-12-06,42.07991767,-92.53266945
Iowa,Taylor,483,0,3,0,2020-12-06,40.73710579,-94.69778563
Iowa,Union,892,7,8,0,2020-12-06,41.0277278,-94.24234847
Iowa,Van Buren,406,21,5,0,2020-12-06,40.75326764,-91.95017958
Iowa,Wapello,2740,27,72,0,2020-12-06,41.03064984,-92.40954728
Iowa,Warren,3081,25,17,0,2020-12-06,41.33559454,-93.56007641
Iowa,Washington,1536,5,16,0,2020-12-06,41.33577126,-91.71725711
Iowa,Wayne,316,6,7,0,2020-12-06,40.73969028,-93.32752197
Iowa,Webster,3834,9,42,2,2020-12-06,42.42853483,-94.17987389
Iowa,Winnebago,983,7,25,0,2020-12-06,43.37751174,-93.73407298
Iowa,Winneshiek,1112,3,14,0,2020-12-06,43.29094334,-91.84422722
Iowa,Woodbury,11001,55,140,0,2020-12-06,42.38979414,-96.0459439
Iowa,Worth,401,3,1,0,2020-12-06,43.37750768,-93.26087602
Iowa,Wright,1342,3,8,1,2020-12-06,42.73305373,-93.73515113
Kansas,Allen,433,0,1,0,2020-12-06,37.88582951,-95.30030847
Kansas,Anderson,417,0,0,0,2020-12-06,38.21413251,-95.29272815
Kansas,Atchison,933,0,9,0,2020-12-06,39.53185661,-95.30870026
Kansas,Barber,206,0,2,0,2020-12-06,37.2288586,-98.68460053
Kansas,Barton,1782,0,13,0,2020-12-06,38.47889676,-98.75636726
Kansas,Bourbon,641,0,3,0,2020-12-06,37.85508555,-94.84865997
Kansas,Brown,822,0,11,0,2020-12-06,39.82652589,-95.56421698
Kansas,Butler,3732,0,13,0,2020-12-06,37.78134351,-96.83878537
Kansas,Chase,170,0,3,0,2020-12-06,38.30292938,-96.59563862
Kansas,Chautauqua,102,0,1,0,2020-12-06,37.14994405,-96.2454192
Kansas,Cherokee,1240,0,9,0,2020-12-06,37.16928494,-94.8462897
Kansas,Cheyenne,223,0,9,0,2020-12-06,39.78580976,-101.7318201
Kansas,Clark,148,0,5,0,2020-12-06,37.23577007,-99.81883015
Kansas,Clay,478,0,14,0,2020-12-06,39.34948772,-97.16518128
Kansas,Cloud,680,0,11,0,2020-12-06,39.48028352,-97.64925343
Kansas,Coffey,329,0,10,0,2020-12-06,38.2365018,-95.73379515
Kansas,Comanche,90,0,1,0,2020-12-06,37.19114520000001,-99.27113247
Kansas,Cowley,1783,0,10,0,2020-12-06,37.23781842,-96.83776647
Kansas,Crawford,2601,0,18,0,2020-12-06,37.50675523,-94.85245778
Kansas,Decatur,204,0,1,0,2020-12-06,39.78468441,-100.4594081
Kansas,Dickinson,804,0,11,0,2020-12-06,38.86600962,-97.15532383
Kansas,Doniphan,547,0,2,0,2020-12-06,39.79067154,-95.14056866
Kansas,Douglas,5113,0,27,0,2020-12-06,38.88503636,-95.2925121
Kansas,Edwards,195,0,0,0,2020-12-06,37.88735543,-99.31263309
Kansas,Elk,63,0,0,0,2020-12-06,37.45338105,-96.24369667
Kansas,Ellis,2630,0,28,0,2020-12-06,38.91458712,-99.31751551
Kansas,Ellsworth,780,0,4,0,2020-12-06,38.69677695,-98.20462799
Kansas,Finney,4929,0,29,0,2020-12-06,38.04340344,-100.7381938
Kansas,Ford,4747,0,13,0,2020-12-06,37.69200114,-99.88825298
Kansas,Franklin,1178,0,17,0,2020-12-06,38.56443815,-95.28644341
Kansas,Geary,1134,0,5,0,2020-12-06,38.99871131,-96.7577178
Kansas,Gove,309,0,20,0,2020-12-06,38.91588178,-100.4829321
Kansas,Graham,178,0,2,0,2020-12-06,39.34987223,-99.88332493
Kansas,Grant,821,0,12,0,2020-12-06,37.56227336,-101.3079758
Kansas,Gray,448,0,4,0,2020-12-06,37.73836671,-100.4369088
Kansas,Greeley,89,0,0,0,2020-12-06,38.4808095,-101.8061079
Kansas,Greenwood,253,0,2,0,2020-12-06,37.8774388,-96.23250453
Kansas,Hamilton,165,0,0,0,2020-12-06,37.99978709,-101.7921066
Kansas,Harper,349,0,14,0,2020-12-06,37.19175361,-98.07578384
Kansas,Harvey,1975,0,17,0,2020-12-06,38.04293782,-97.42747573
Kansas,Haskell,293,0,1,0,2020-12-06,37.5620394,-100.8710738
Kansas,Hodgeman,145,0,4,0,2020-12-06,38.08780079,-99.89829881
Kansas,Jackson,762,0,9,0,2020-12-06,39.41673394,-95.79356799
Kansas,Jefferson,800,0,8,0,2020-12-06,39.2347941,-95.38289232
Kansas,Jewell,98,0,1,0,2020-12-06,39.78470589,-98.21820662
Kansas,Johnson,29272,0,309,5,2020-12-06,38.88548175,-94.82250877
Kansas,Kearny,415,0,8,0,2020-12-06,38.00017981,-101.321681
Kansas,Kingman,418,0,5,0,2020-12-06,37.55909527,-98.13638678
Kansas,Kiowa,114,0,0,0,2020-12-06,37.55848695,-99.2856537
Kansas,Labette,999,0,6,0,2020-12-06,37.19113093,-95.29849679
Kansas,Lane,85,0,0,0,2020-12-06,38.48119447,-100.4660754
Kansas,Leavenworth,4001,0,32,0,2020-12-06,39.20183497,-95.03620809
Kansas,Lincoln,109,0,1,0,2020-12-06,39.04549684,-98.20756994
Kansas,Linn,337,0,1,0,2020-12-06,38.21267844,-94.84254089
Kansas,Logan,247,0,0,0,2020-12-06,38.91735806,-101.148475
Kansas,Lyon,2812,0,50,0,2020-12-06,38.45576156,-96.15275715
Kansas,McPherson,1679,0,10,0,2020-12-06,38.39184858,-97.64769869
Kansas,Marion,449,0,1,0,2020-12-06,38.35855394,-97.0985251
Kansas,Marshall,486,0,0,0,2020-12-06,39.78359669,-96.52278974
Kansas,Meade,324,0,2,0,2020-12-06,37.23859987,-100.364831
Kansas,Miami,1143,0,3,0,2020-12-06,38.56383358,-94.83832189
Kansas,Mitchell,277,0,0,0,2020-12-06,39.39331582,-98.20906732
Kansas,Montgomery,1269,0,6,0,2020-12-06,37.19236568,-95.74329258
Kansas,Morris,220,0,1,0,2020-12-06,38.68827511,-96.65128437
Kansas,Morton,181,0,6,0,2020-12-06,37.19141121,-101.79925190000002
Kansas,Nemaha,1154,0,24,0,2020-12-06,39.78345387,-96.01392079
Kansas,Neosho,779,0,1,0,2020-12-06,37.55862897,-95.30670046
Kansas,Ness,290,0,13,0,2020-12-06,38.47974157,-99.91547333
Kansas,Norton,1122,0,24,0,2020-12-06,39.78443827,-99.90286639
Kansas,Osage,579,0,6,0,2020-12-06,38.65235984,-95.72707998
Kansas,Osborne,104,0,0,0,2020-12-06,39.3503437,-98.76753828
Kansas,Ottawa,279,0,0,0,2020-12-06,39.13237408,-97.65020313
Kansas,Pawnee,742,0,1,0,2020-12-06,38.18108732,-99.23692334
Kansas,Phillips,484,0,10,0,2020-12-06,39.78465501,-99.34668865
Kansas,Pottawatomie,725,0,3,0,2020-12-06,39.37925655,-96.34564657
Kansas,Pratt,545,0,12,0,2020-12-06,37.64780729,-98.73922153
Kansas,Rawlins,248,0,3,0,2020-12-06,39.78525843,-101.0761617
Kansas,Reno,5541,0,59,1,2020-12-06,37.95230263,-98.08607292
Kansas,Republic,412,0,7,0,2020-12-06,39.82799632,-97.65036709
Kansas,Rice,531,0,1,0,2020-12-06,38.34616184,-98.19992118
Kansas,Riley,3905,0,16,0,2020-12-06,39.28935726,-96.73420026
Kansas,Rooks,396,0,8,0,2020-12-06,39.35022773,-99.32484567
Kansas,Rush,323,0,0,0,2020-12-06,38.52275276,-99.30863983
Kansas,Russell,610,0,15,0,2020-12-06,38.91462787,-98.76254297
Kansas,Saline,2786,0,31,0,2020-12-06,38.78369175,-97.65185177
Kansas,Scott,482,0,5,0,2020-12-06,38.48222076,-100.9066539
Kansas,Sedgwick,29764,0,172,0,2020-12-06,37.6842718,-97.4608198
Kansas,Seward,3101,0,13,0,2020-12-06,37.19324632,-100.8507201
Kansas,Shawnee,8568,0,148,0,2020-12-06,39.04100763,-95.7557264
Kansas,Sheridan,330,0,0,0,2020-12-06,39.35018161,-100.4418259
Kansas,Sherman,481,1,7,0,2020-12-06,39.35147699,-101.7197624
Kansas,Smith,161,0,1,0,2020-12-06,39.78516566,-98.78566062
Kansas,Stafford,225,0,3,0,2020-12-06,38.03100851,-98.71762001
Kansas,Stanton,152,0,2,0,2020-12-06,37.56304714,-101.7843534
Kansas,Stevens,461,0,4,0,2020-12-06,37.1923008,-101.3118967
Kansas,Sumner,914,0,6,0,2020-12-06,37.23682549,-97.47721621
Kansas,Thomas,751,0,6,0,2020-12-06,39.35107575,-101.0553705
Kansas,Trego,238,0,3,0,2020-12-06,38.91467218,-99.87284448
Kansas,Wabaunsee,330,0,2,0,2020-12-06,38.95471985,-96.20350509
Kansas,Wallace,143,0,0,0,2020-12-06,38.91686134,-101.7638876
Kansas,Washington,346,0,7,0,2020-12-06,39.78420784,-97.0875323
Kansas,Wichita,162,0,2,0,2020-12-06,38.48178252,-101.3471509
Kansas,Wilson,370,0,4,0,2020-12-06,37.55937174,-95.74323255
Kansas,Woodson,78,0,0,0,2020-12-06,37.8865336,-95.74006277
Kansas,Wyandotte,12096,0,184,0,2020-12-06,39.11727348,-94.76378225
Kentucky,Adair,814,10,23,0,2020-12-06,37.10459774,-85.28129668
Kentucky,Allen,805,11,14,0,2020-12-06,36.75197631,-86.19457544
Kentucky,Anderson,592,3,1,0,2020-12-06,38.00671029,-84.99171713
Kentucky,Ballard,178,3,2,0,2020-12-06,37.05842757,-88.99427697
Kentucky,Barren,2158,18,34,1,2020-12-06,36.96469836,-85.93338945
Kentucky,Bath,356,0,1,0,2020-12-06,38.14735938,-83.74588932
Kentucky,Bell,1374,16,20,0,2020-12-06,36.73355174,-83.67766671
Kentucky,Boone,5450,93,33,0,2020-12-06,38.97065142,-84.72615357
Kentucky,Bourbon,627,7,1,0,2020-12-06,38.2054607,-84.21827874
Kentucky,Boyd,2094,72,25,0,2020-12-06,38.36176608,-82.68652187
Kentucky,Boyle,1220,23,0,0,2020-12-06,37.62680923,-84.8633779
Kentucky,Bracken,194,2,3,0,2020-12-06,38.69158994,-84.08532444
Kentucky,Breathitt,422,26,3,0,2020-12-06,37.52333168,-83.31959161
Kentucky,Breckinridge,471,1,4,0,2020-12-06,37.77377239,-86.42885017
Kentucky,Bullitt,3220,39,22,0,2020-12-06,37.97162523,-85.68955617
Kentucky,Butler,627,6,16,0,2020-12-06,37.20946153,-86.68748787
Kentucky,Caldwell,706,38,8,0,2020-12-06,37.14749129,-87.86948214
Kentucky,Calloway,1929,18,17,0,2020-12-06,36.62093411,-88.2731593
Kentucky,Campbell,3298,50,21,0,2020-12-06,38.94384345,-84.37875208
Kentucky,Carlisle,224,2,1,0,2020-12-06,36.85372876,-88.96692220000001
Kentucky,Carroll,386,3,6,0,2020-12-06,38.66599534,-85.12601074
Kentucky,Carter,856,4,5,0,2020-12-06,38.31690743,-83.05092385
Kentucky,Casey,550,6,16,0,2020-12-06,37.32533118,-84.92726209
Kentucky,Christian,3232,14,43,0,2020-12-06,36.89267803,-87.49055367
Kentucky,Clark,1079,8,12,0,2020-12-06,37.9689263,-84.14615986
Kentucky,Clay,1155,3,8,0,2020-12-06,37.16451126,-83.712575
Kentucky,Clinton,448,3,4,0,2020-12-06,36.72581156,-85.13377529
Kentucky,Crittenden,263,-1,3,0,2020-12-06,37.35839237,-88.08826090000002
Kentucky,Cumberland,245,2,0,0,2020-12-06,36.78926125,-85.39050034
Kentucky,Daviess,4128,47,54,0,2020-12-06,37.73028906,-87.09019479999998
Kentucky,Edmonson,432,8,13,0,2020-12-06,37.21218923,-86.23955613
Kentucky,Elliott,677,14,1,0,2020-12-06,38.11624059,-83.09771563
Kentucky,Estill,504,4,0,0,2020-12-06,37.69241417,-83.95956369
Kentucky,Fayette,19131,233,123,2,2020-12-06,38.0368225,-84.45576892
Kentucky,Fleming,413,6,0,0,2020-12-06,38.36758311,-83.69657514
Kentucky,Floyd,1379,16,8,0,2020-12-06,37.56213922,-82.74750924
Kentucky,Franklin,1632,39,17,0,2020-12-06,38.2379395,-84.87962551
Kentucky,Fulton,314,0,4,0,2020-12-06,36.55238827,-89.20140068
Kentucky,Gallatin,301,5,9,0,2020-12-06,38.75398691,-84.8558382
Kentucky,Garrard,705,14,4,0,2020-12-06,37.6388668,-84.53289319
Kentucky,Grant,857,19,6,0,2020-12-06,38.64962758,-84.62415957
Kentucky,Graves,2069,23,39,0,2020-12-06,36.72292505,-88.65143315
Kentucky,Grayson,1019,3,25,0,2020-12-06,37.46231118,-86.34248968
Kentucky,Green,533,4,10,0,2020-12-06,37.26484328,-85.5540745
Kentucky,Greenup,1649,21,16,0,2020-12-06,38.54332505,-82.9215658
Kentucky,Hancock,341,5,9,0,2020-12-06,37.83766422,-86.78280584
Kentucky,Hardin,4687,15,34,0,2020-12-06,37.6976111,-85.96319251
Kentucky,Harlan,1010,17,15,0,2020-12-06,36.85699301,-83.21899516
Kentucky,Harrison,523,1,1,0,2020-12-06,38.44188174,-84.32869741
Kentucky,Hart,969,11,5,0,2020-12-06,37.29943898,-85.88461055
Kentucky,Henderson,2319,42,38,0,2020-12-06,37.79344553,-87.57392021
Kentucky,Henry,583,23,3,0,2020-12-06,38.44942688,-85.11587507
Kentucky,Hickman,190,2,3,0,2020-12-06,36.67948079999999,-88.97875928
Kentucky,Hopkins,2041,6,52,0,2020-12-06,37.30939025,-87.54670406
Kentucky,Jackson,693,3,17,0,2020-12-06,37.41866422,-83.99825483
Kentucky,Jefferson,40817,434,470,2,2020-12-06,38.18664655,-85.65931031
Kentucky,Jessamine,2050,34,36,1,2020-12-06,37.87119786,-84.58252003
Kentucky,Johnson,883,19,7,0,2020-12-06,37.85106355,-82.8264322
Kentucky,Kenton,6238,136,62,0,2020-12-06,38.93950319,-84.53241199
Kentucky,Knott,600,2,9,0,2020-12-06,37.35388197,-82.94981134
Kentucky,Knox,1316,6,10,0,2020-12-06,36.89225732,-83.85403396
Kentucky,Larue,644,1,1,0,2020-12-06,37.54567114,-85.70138352
Kentucky,Laurel,2727,5,12,1,2020-12-06,37.10975748,-84.11321779
Kentucky,Lawrence,495,17,2,0,2020-12-06,38.07136018,-82.72882223
Kentucky,Lee,975,3,15,0,2020-12-06,37.59645942,-83.71513901
Kentucky,Leslie,333,2,1,0,2020-12-06,37.09246661,-83.37999606
Kentucky,Letcher,583,5,2,0,2020-12-06,37.12306748,-82.85346474
Kentucky,Lewis,591,6,22,1,2020-12-06,38.53184419,-83.37735618
Kentucky,Lincoln,882,11,20,0,2020-12-06,37.45475628,-84.6565327
Kentucky,Livingston,352,6,3,0,2020-12-06,37.21137452,-88.34797529
Kentucky,Logan,1314,7,36,0,2020-12-06,36.85949479,-86.877635
Kentucky,Lyon,224,5,5,0,2020-12-06,37.02080035,-88.07886257
Kentucky,McCracken,3335,50,30,0,2020-12-06,37.05350953,-88.70445755
Kentucky,McCreary,474,9,1,0,2020-12-06,36.73874143,-84.48102924
Kentucky,McLean,433,3,18,0,2020-12-06,37.5301951,-87.26803443
Kentucky,Madison,4394,68,20,0,2020-12-06,37.71659336,-84.27220275
Kentucky,Magoffin,587,20,1,0,2020-12-06,37.70820545,-83.0657714
Kentucky,Marion,1190,3,14,0,2020-12-06,37.55218078,-85.26898542
Kentucky,Marshall,1102,12,15,0,2020-12-06,36.88007070000001,-88.32803576
Kentucky,Martin,499,4,9,0,2020-12-06,37.79990579,-82.51247478
Kentucky,Mason,608,46,4,1,2020-12-06,38.59471935,-83.82151043
Kentucky,Meade,809,15,4,0,2020-12-06,37.96163597,-86.21028219
Kentucky,Menifee,137,0,1,0,2020-12-06,37.94090733,-83.59985712
Kentucky,Mercer,812,13,6,0,2020-12-06,37.81474237,-84.87488475
Kentucky,Metcalfe,451,6,6,0,2020-12-06,36.99459295,-85.63123699
Kentucky,Monroe,766,6,18,0,2020-12-06,36.71225341,-85.71596443
Kentucky,Montgomery,1058,9,11,0,2020-12-06,38.03253032,-83.9145241
Kentucky,Morgan,374,5,0,0,2020-12-06,37.92465657,-83.25558245
Kentucky,Muhlenberg,1505,27,20,0,2020-12-06,37.21425819,-87.14632053
Kentucky,Nelson,2323,6,10,0,2020-12-06,37.80335779,-85.4657193
Kentucky,Nicholas,187,5,3,0,2020-12-06,38.33342292,-84.01889177
Kentucky,Ohio,1175,20,18,0,2020-12-06,37.47751843,-86.85368087
Kentucky,Oldham,2852,41,36,0,2020-12-06,38.39791089,-85.448222
Kentucky,Owen,264,14,3,0,2020-12-06,38.51679143,-84.82404619
Kentucky,Owsley,255,2,1,0,2020-12-06,37.42823949,-83.68811419
Kentucky,Pendleton,457,9,1,0,2020-12-06,38.69607718,-84.35599463
Kentucky,Perry,1152,10,11,0,2020-12-06,37.25023553,-83.22922731
Kentucky,Pike,2066,22,22,0,2020-12-06,37.47088263,-82.39487445
Kentucky,Powell,534,3,0,0,2020-12-06,37.83218794,-83.82553961
Kentucky,Pulaski,1860,60,13,0,2020-12-06,37.10466131,-84.57629079
Kentucky,Robertson,100,2,3,0,2020-12-06,38.51923469,-84.05055616
Kentucky,Rockcastle,613,15,7,0,2020-12-06,37.36642393,-84.31176452
Kentucky,Rowan,923,13,2,0,2020-12-06,38.19484205,-83.42088935
Kentucky,Russell,619,1,7,0,2020-12-06,36.99308373,-85.06070117
Kentucky,Scott,1911,22,21,0,2020-12-06,38.29622293,-84.5816631
Kentucky,Shelby,2418,35,27,0,2020-12-06,38.21476019,-85.194223
Kentucky,Simpson,821,18,9,0,2020-12-06,36.74058474,-86.58047435
Kentucky,Spencer,719,20,2,0,2020-12-06,38.03223971,-85.32749335
Kentucky,Taylor,1120,23,7,0,2020-12-06,37.3677562,-85.3329931
Kentucky,Todd,471,0,13,0,2020-12-06,36.8381152,-87.17878374
Kentucky,Trigg,445,6,2,0,2020-12-06,36.80767017,-87.87333656
Kentucky,Trimble,218,13,0,0,2020-12-06,38.61056487,-85.33775972
Kentucky,Union,774,10,7,0,2020-12-06,37.66166713,-87.94300009
Kentucky,Warren,7915,73,81,0,2020-12-06,36.99903045,-86.42672751
Kentucky,Washington,666,8,4,1,2020-12-06,37.75599461,-85.17407732
Kentucky,Wayne,614,7,2,0,2020-12-06,36.80310688,-84.8251971
Kentucky,Webster,611,5,7,0,2020-12-06,37.52168356,-87.67989953
Kentucky,Whitley,1788,29,8,0,2020-12-06,36.75700531,-84.14541217
Kentucky,Wolfe,208,2,1,0,2020-12-06,37.73941626,-83.49303612
Kentucky,Woodford,922,17,1,0,2020-12-06,38.04178222,-84.7417556
Louisiana,Acadia,4257,60,118,0,2020-12-06,30.2950649,-92.41419698
Louisiana,Allen,2168,18,69,1,2020-12-06,30.65385745,-92.82442028
Louisiana,Ascension,6174,100,109,0,2020-12-06,30.20406249,-90.91328409999998
Louisiana,Assumption,1092,25,25,0,2020-12-06,29.89946234,-91.06461642
Louisiana,Avoyelles,2249,29,70,0,2020-12-06,31.07796211,-92.00079449
Louisiana,Beauregard,1484,23,50,0,2020-12-06,30.64836518,-93.34173616
Louisiana,Bienville,879,26,37,0,2020-12-06,32.34569994,-93.05398492
Louisiana,Bossier,6875,141,158,0,2020-12-06,32.67932307,-93.60460152
Louisiana,Caddo,14454,183,458,9,2020-12-06,32.57991587,-93.88375652
Louisiana,Calcasieu,11056,117,256,4,2020-12-06,30.22931235,-93.35400434
Louisiana,Caldwell,696,14,11,0,2020-12-06,32.0902519,-92.11752148
Louisiana,Cameron,313,8,3,0,2020-12-06,29.87592238,-93.19310676
Louisiana,Catahoula,672,12,19,1,2020-12-06,31.66778967,-91.84526385
Louisiana,Claiborne,796,23,32,0,2020-12-06,32.82308512,-92.99526883
Louisiana,Concordia,1086,23,31,0,2020-12-06,31.44817835,-91.63814433
Louisiana,De Soto,1401,35,41,2,2020-12-06,32.05457447,-93.74130302
Louisiana,East Baton Rouge,21200,259,523,1,2020-12-06,30.53842039,-91.09777565
Louisiana,East Carroll,852,3,11,0,2020-12-06,32.73926954,-91.23425694
Louisiana,East Feliciana,2222,16,85,0,2020-12-06,30.84425359,-91.04976723
Louisiana,Evangeline,2127,60,46,0,2020-12-06,30.72985248,-92.39915924
Louisiana,Franklin,1801,23,66,1,2020-12-06,32.13675181,-91.67589857
Louisiana,Grant,970,26,32,0,2020-12-06,31.59882456,-92.56124347
Louisiana,Iberia,3917,55,110,0,2020-12-06,29.86803617,-91.75871777
Louisiana,Iberville,2163,30,66,0,2020-12-06,30.25734305,-91.3499598
Louisiana,Jackson,1207,12,33,0,2020-12-06,32.30251776,-92.55692092
Louisiana,Jefferson,24943,355,631,0,2020-12-06,29.74075478,-90.11115756
Louisiana,Jefferson Davis,1874,45,54,2,2020-12-06,30.26896765,-92.81210004
Louisiana,Lafayette,13054,177,158,1,2020-12-06,30.2049055,-92.06959876
Louisiana,Lafourche,5086,85,142,0,2020-12-06,29.52470226,-90.40976986
Louisiana,LaSalle,964,14,21,0,2020-12-06,31.67884782,-92.15907765
Louisiana,Lincoln,2765,68,61,0,2020-12-06,32.6003154,-92.6659741
Louisiana,Livingston,6541,96,97,1,2020-12-06,30.44143993,-90.73061664
Louisiana,Madison,1127,9,15,0,2020-12-06,32.36918118,-91.23973355
Louisiana,Morehouse,1577,49,35,0,2020-12-06,32.81686191,-91.80421614
Louisiana,Natchitoches,2233,70,50,-1,2020-12-06,31.72321584,-93.09816516
Louisiana,Orleans,17013,280,649,0,2020-12-06,30.06971951,-89.92660315
Louisiana,Ouachita,10861,213,218,1,2020-12-06,32.47645559,-92.15704172
Louisiana,Plaquemines,1321,43,20,0,2020-12-06,29.42245447,-89.60322085
Louisiana,Pointe Coupee,1507,23,49,0,2020-12-06,30.71409502,-91.60209535
Louisiana,Rapides,6624,62,195,1,2020-12-06,31.19778499,-92.52997303
Louisiana,Red River,590,8,26,0,2020-12-06,32.09530039,-93.34213308
Louisiana,Richland,1469,20,32,0,2020-12-06,32.41391005,-91.76634876
Louisiana,Sabine,1664,45,24,3,2020-12-06,31.56388699,-93.55433981
Louisiana,St. Bernard,1946,25,34,0,2020-12-06,29.87761636,-89.51887093
Louisiana,St. Charles,2848,36,70,0,2020-12-06,29.90709658,-90.35555967
Louisiana,St. Helena,562,6,4,0,2020-12-06,30.82210324,-90.71013176
Louisiana,St. James,1073,38,40,0,2020-12-06,30.02531716,-90.80212061
Louisiana,St. John the Baptist,2118,24,116,0,2020-12-06,30.12597499,-90.4753503
Louisiana,St. Landry,5430,98,165,0,2020-12-06,30.59724262,-92.00135806
Louisiana,St. Martin,2924,45,74,1,2020-12-06,30.13112107,-91.61403569
Louisiana,St. Mary,2484,43,97,1,2020-12-06,29.69262097,-91.44702164
Louisiana,St. Tammany,11305,177,300,2,2020-12-06,30.40942847,-89.95642711
Louisiana,Tangipahoa,7162,110,147,2,2020-12-06,30.62888673,-90.40664996
Louisiana,Tensas,224,3,3,0,2020-12-06,32.00760749,-91.32915234
Louisiana,Terrebonne,4824,81,140,1,2020-12-06,29.37343766,-90.82626855
Louisiana,Union,1489,18,59,0,2020-12-06,32.83121059,-92.3749373
Louisiana,Vermilion,2796,55,77,1,2020-12-06,29.83517605,-92.30292538
Louisiana,Vernon,1554,46,66,0,2020-12-06,31.10884837,-93.18153838
Louisiana,Washington,2405,38,79,-1,2020-12-06,30.85288548,-90.03866652
Louisiana,Webster,2194,56,59,0,2020-12-06,32.70847669,-93.33121835
Louisiana,West Baton Rouge,1451,26,45,1,2020-12-06,30.46058217,-91.30989571
Louisiana,West Carroll,729,11,22,1,2020-12-06,32.78550125,-91.461201
Louisiana,West Feliciana,817,-3,25,0,2020-12-06,30.87882871,-91.4148538
Louisiana,Winn,1052,22,26,0,2020-12-06,31.94449367,-92.63789413
Maine,Androscoggin,1692,19,30,0,2020-12-06,44.1664747,-70.20380627
Maine,Aroostook,188,10,1,0,2020-12-06,46.65926321,-68.59841248
Maine,Cumberland,4173,76,71,-1,2020-12-06,43.8370751,-70.37226999
Maine,Franklin,258,7,4,0,2020-12-06,44.97330019,-70.44381045
Maine,Hancock,311,1,3,0,2020-12-06,44.59816444,-68.38401854
Maine,Kennebec,986,24,18,0,2020-12-06,44.40759555,-69.76738544
Maine,Knox,225,-1,4,0,2020-12-06,44.11486325,-69.10529169
Maine,Lincoln,180,2,2,0,2020-12-06,44.05996956,-69.54227124
Maine,Oxford,465,14,5,0,2020-12-06,44.49952995,-70.75682123
Maine,Penobscot,1087,30,14,0,2020-12-06,45.40194593,-68.65020455
Maine,Piscataquis,60,0,1,0,2020-12-06,45.83839062,-69.2860223
Maine,Sagadahoc,181,1,0,0,2020-12-06,43.95415864,-69.85074999
Maine,Somerset,492,5,20,0,2020-12-06,45.51229767,-69.95995554
Maine,Waldo,259,3,17,0,2020-12-06,44.4858305,-69.12061935
Maine,Washington,197,0,2,0,2020-12-06,45.01607142,-67.62813524
Maine,York,2592,33,35,1,2020-12-06,43.47808377,-70.71052375
Maryland,Allegany,4071,138,87,0,2020-12-06,39.62357628,-78.69280486
Maryland,Anne Arundel,18193,235,303,0,2020-12-06,39.00670238,-76.60329337
Maryland,Baltimore,31416,339,772,8,2020-12-06,39.45784712,-76.62911955
Maryland,Calvert,1724,19,39,0,2020-12-06,38.53961642,-76.56820632
Maryland,Caroline,1047,8,10,0,2020-12-06,38.87172293,-75.82904158
Maryland,Carroll,3681,87,142,0,2020-12-06,39.56453592,-77.02373735
Maryland,Cecil,2391,44,52,1,2020-12-06,39.56647682,-75.94627411
Maryland,Charles,4717,51,105,0,2020-12-06,38.51092331,-76.98580666
Maryland,Dorchester,1085,24,17,0,2020-12-06,38.45413522,-76.02752426
Maryland,Frederick,7719,142,154,0,2020-12-06,39.47296601,-77.39999394
Maryland,Garrett,976,33,9,0,2020-12-06,39.52786077,-79.27355126
Maryland,Harford,6574,55,111,2,2020-12-06,39.55010644,-76.30775940000002
Maryland,Howard,8813,94,155,2,2020-12-06,39.25305293,-76.93126208
Maryland,Kent,507,7,25,0,2020-12-06,39.24976208,-76.04741541
Maryland,Montgomery,35998,460,983,3,2020-12-06,39.13676329,-77.20358245
Maryland,Prince George's,44057,422,954,5,2020-12-06,38.83070039,-76.8496441
Maryland,Queen Anne's,1205,14,27,0,2020-12-06,39.06198912,-76.03530977
Maryland,St. Mary's,2395,60,66,0,2020-12-06,38.30058422,-76.60629279999998
Maryland,Somerset,1171,20,9,0,2020-12-06,38.1163542,-75.75118623
Maryland,Talbot,880,8,7,0,2020-12-06,38.76618159,-76.10882561
Maryland,Washington,4991,101,82,0,2020-12-06,39.60835778,-77.82002295
Maryland,Wicomico,3640,21,60,0,2020-12-06,38.37301947,-75.62705831
Maryland,Worcester,1582,19,39,0,2020-12-06,38.21274277,-75.33200012
Maryland,Baltimore,31416,339,772,8,2020-12-06,39.45784712,-76.62911955
Massachusetts,Barnstable,3477,48,197,0,2020-12-06,41.72980578,-70.28854339
Massachusetts,Berkshire,1954,51,73,5,2020-12-06,42.37428441,-73.20524838
Massachusetts,Bristol,22719,409,890,5,2020-12-06,41.79228404,-71.10872211
Massachusetts,Essex,40305,936,1489,4,2020-12-06,42.6687626,-70.94687179
Massachusetts,Franklin,756,17,78,2,2020-12-06,42.58119713,-72.58602547
Massachusetts,Hampden,18325,343,931,5,2020-12-06,42.13440424,-72.63235561
Massachusetts,Hampshire,2567,31,166,1,2020-12-06,42.33997957,-72.65898478
Massachusetts,Middlesex,52345,1035,2468,13,2020-12-06,42.48607732,-71.39049229
Massachusetts,Norfolk,18180,363,1196,3,2020-12-06,42.16073095,-71.20530408
Massachusetts,Plymouth,16383,241,917,6,2020-12-06,41.94070556,-70.80802823
Massachusetts,Suffolk,40646,601,1275,2,2020-12-06,42.3279514,-71.07850442
Massachusetts,Worcester,28452,638,1316,5,2020-12-06,42.35026951,-71.90493363
Michigan,Alcona,257,0,6,0,2020-12-06,44.6846864,-83.59507875
Michigan,Alger,248,0,2,0,2020-12-06,46.41292944,-86.60260122
Michigan,Allegan,4496,0,40,0,2020-12-06,42.59147037,-85.89102866
Michigan,Alpena,827,0,17,0,2020-12-06,45.03477666,-83.62212411
Michigan,Antrim,497,0,6,0,2020-12-06,44.99690221,-85.15503082
Michigan,Arenac,495,0,19,0,2020-12-06,44.0636262,-83.89277559
Michigan,Baraga,504,0,24,0,2020-12-06,46.6720582,-88.36363591
Michigan,Barry,2442,0,16,0,2020-12-06,42.59513984,-85.30834519
Michigan,Bay,4969,0,119,0,2020-12-06,43.70639106,-83.98731479
Michigan,Benzie,501,0,8,0,2020-12-06,44.63899297,-86.01608482
Michigan,Berrien,7486,0,127,0,2020-12-06,41.95447397,-86.41313079999998
Michigan,Branch,2505,0,41,0,2020-12-06,41.91600556,-85.05929476
Michigan,Calhoun,6542,0,130,0,2020-12-06,42.24633834,-85.00493569
Michigan,Cass,2449,0,31,0,2020-12-06,41.91522292,-85.99405727
Michigan,Charlevoix,689,0,7,0,2020-12-06,45.37790017,-85.19614053
Michigan,Cheboygan,571,0,22,0,2020-12-06,45.44787015,-84.50122149
Michigan,Chippewa,941,0,7,0,2020-12-06,46.29552653,-84.54353449
Michigan,Clare,876,0,26,0,2020-12-06,43.98794227,-84.84819859999998
Michigan,Clinton,3099,0,27,0,2020-12-06,42.94400871,-84.60145248
Michigan,Crawford,388,0,5,0,2020-12-06,44.68255561,-84.61006219
Michigan,Delta,2626,0,64,0,2020-12-06,45.90484910000001,-86.9080745
Michigan,Dickinson,1884,0,56,0,2020-12-06,46.00999672,-87.86961634
Michigan,Eaton,3585,0,52,0,2020-12-06,42.59599185,-84.83740035
Michigan,Emmet,1044,0,28,0,2020-12-06,45.52625509,-84.89083249
Michigan,Genesee,16694,0,463,0,2020-12-06,43.02244215,-83.70589709
Michigan,Gladwin,924,0,14,0,2020-12-06,43.98901072,-84.38774817
Michigan,Gogebic,866,0,24,0,2020-12-06,46.40862701,-89.69377193
Michigan,Grand Traverse,2209,0,24,0,2020-12-06,44.69565625,-85.55585247
Michigan,Gratiot,1814,0,40,0,2020-12-06,43.29265605,-84.60505416
Michigan,Hillsdale,1916,0,43,0,2020-12-06,41.88753639,-84.59312019
Michigan,Houghton,1682,0,17,0,2020-12-06,46.89988536,-88.68495385
Michigan,Huron,991,0,16,0,2020-12-06,43.83353985,-83.04078453
Michigan,Ingham,9940,0,128,0,2020-12-06,42.59716886,-84.37472069
Michigan,Ionia,2745,0,24,0,2020-12-06,42.94502238,-85.07413319
Michigan,Iosco,865,0,30,0,2020-12-06,44.35486835,-83.63484895
Michigan,Iron,752,0,36,0,2020-12-06,46.20974132,-88.53136251
Michigan,Isabella,2720,0,25,0,2020-12-06,43.64060976,-84.84664923
Michigan,Jackson,5897,0,109,0,2020-12-06,42.24807035,-84.42258681
Michigan,Kalamazoo,10238,0,181,0,2020-12-06,42.24542231,-85.53038622
Michigan,Kalkaska,395,0,7,0,2020-12-06,44.68512729,-85.09085699
Michigan,Kent,36183,0,400,0,2020-12-06,43.03197711,-85.54934642
Michigan,Keweenaw,75,0,2,0,2020-12-06,47.63197653,-88.41434263
Michigan,Lake,224,0,6,0,2020-12-06,43.99050893,-85.802173
Michigan,Lapeer,2961,0,64,0,2020-12-06,43.09052506,-83.22153148
Michigan,Leelanau,424,0,3,0,2020-12-06,44.94430054,-85.80150326
Michigan,Lenawee,2995,0,33,0,2020-12-06,41.89475156,-84.06603727
Michigan,Livingston,6263,0,52,0,2020-12-06,42.60302282,-83.91297209
Michigan,Luce,177,0,0,0,2020-12-06,46.47227431,-85.54471223
Michigan,Mackinac,324,0,1,0,2020-12-06,46.07028979,-85.04980537
Michigan,Macomb,41276,0,1336,0,2020-12-06,42.69158356,-82.92752801
Michigan,Manistee,438,0,8,0,2020-12-06,44.33352407,-86.05626916
Michigan,Marquette,3115,0,34,0,2020-12-06,46.4338914,-87.64043701
Michigan,Mason,677,0,12,0,2020-12-06,43.99509218,-86.24988902
Michigan,Mecosta,1357,0,11,0,2020-12-06,43.64064262,-85.32463223
Michigan,Menominee,1410,0,19,0,2020-12-06,45.58038692,-87.55370409
Michigan,Midland,3254,0,31,0,2020-12-06,43.64330771,-84.38804374
Michigan,Missaukee,318,0,4,0,2020-12-06,44.33772443,-85.09256478
Michigan,Monroe,5976,0,96,0,2020-12-06,41.92734151,-83.53749864
Michigan,Montcalm,2273,0,32,0,2020-12-06,43.31082541,-85.15252824
Michigan,Montmorency,220,0,2,0,2020-12-06,45.0275929,-84.12696227
Michigan,Muskegon,8006,0,195,0,2020-12-06,43.29123859,-86.15176712
Michigan,Newaygo,1829,0,21,0,2020-12-06,43.554374,-85.80070107
Michigan,Oakland,50593,0,1414,0,2020-12-06,42.66090111,-83.38595416
Michigan,Oceana,1328,0,25,0,2020-12-06,43.64124435,-86.26726673
Michigan,Ogemaw,657,0,17,0,2020-12-06,44.33481032,-84.12725175
Michigan,Ontonagon,292,0,15,0,2020-12-06,46.665226200000006,-89.31390481
Michigan,Osceola,623,0,11,0,2020-12-06,43.98992088,-85.32566756
Michigan,Oscoda,232,0,10,0,2020-12-06,44.68192279,-84.12939244
Michigan,Otsego,829,0,19,0,2020-12-06,45.02085831,-84.59898295
Michigan,Ottawa,15307,0,178,0,2020-12-06,42.95996803,-85.9969107
Michigan,Presque Isle,337,0,4,0,2020-12-06,45.34018577,-83.91498656
Michigan,Roscommon,736,0,19,0,2020-12-06,44.33473082,-84.61067651
Michigan,Saginaw,9610,0,272,0,2020-12-06,43.33433923,-84.05131209999998
Michigan,St. Clair,5260,0,106,0,2020-12-06,42.92655373,-82.67937954
Michigan,St. Joseph,2824,0,37,0,2020-12-06,41.91441767,-85.52797979
Michigan,Sanilac,1042,0,24,0,2020-12-06,43.42406072,-82.82055898
Michigan,Schoolcraft,188,0,2,0,2020-12-06,46.19235734,-86.19972234
Michigan,Shiawassee,2286,0,49,0,2020-12-06,42.95392800000001,-84.14585902
Michigan,Tuscola,1941,0,61,0,2020-12-06,43.46606813,-83.41897025
Michigan,Van Buren,3189,0,53,0,2020-12-06,42.25190229,-86.01939087
Michigan,Washtenaw,10893,0,143,0,2020-12-06,42.253105,-83.83853204
Michigan,Wayne,70231,0,3311,0,2020-12-06,42.28098405,-83.281255
Michigan,Wexford,748,0,18,0,2020-12-06,44.33853602,-85.57712739
Minnesota,Aitkin,845,16,30,0,2020-12-06,46.60962049,-93.4116826
Minnesota,Anoka,24617,363,245,4,2020-12-06,45.27476015,-93.24604565
Minnesota,Becker,2316,30,23,0,2020-12-06,46.93479392,-95.67158144
Minnesota,Beltrami,2389,26,19,0,2020-12-06,47.97373527,-94.93732139
Minnesota,Benton,3370,51,57,1,2020-12-06,45.69804958,-93.99514135
Minnesota,Big Stone,355,4,2,0,2020-12-06,45.42712824,-96.41403739
Minnesota,Blue Earth,4452,37,17,0,2020-12-06,44.03554215,-94.06699781
Minnesota,Brown,1659,40,16,1,2020-12-06,44.24205652,-94.72562874
Minnesota,Carlton,2146,41,21,1,2020-12-06,46.59180601,-92.67601019
Minnesota,Carver,5395,89,16,0,2020-12-06,44.82017001,-93.8009918
Minnesota,Cass,1611,20,13,1,2020-12-06,46.95043611,-94.32603968
Minnesota,Chippewa,1038,17,14,2,2020-12-06,45.02343421,-95.56403693
Minnesota,Chisago,3463,32,18,1,2020-12-06,45.5021011,-92.90861945
Minnesota,Clay,5453,48,64,2,2020-12-06,46.89289518,-96.48761922
Minnesota,Clearwater,583,9,10,0,2020-12-06,47.57992111,-95.37790562
Minnesota,Cook,86,2,0,0,2020-12-06,47.90504893,-90.52629546
Minnesota,Cottonwood,1019,32,5,1,2020-12-06,44.00715262,-95.18138802
Minnesota,Crow Wing,4003,39,40,0,2020-12-06,46.48096553,-94.06755609
Minnesota,Dakota,24846,421,213,5,2020-12-06,44.67172617,-93.06299363
Minnesota,Dodge,980,13,1,0,2020-12-06,44.02238415,-92.86244324
Minnesota,Douglas,2966,48,44,2,2020-12-06,45.93348491,-95.45335469
Minnesota,Faribault,668,24,4,1,2020-12-06,43.67381499,-93.94787458
Minnesota,Fillmore,816,18,0,0,2020-12-06,43.67394126,-92.08980382
Minnesota,Freeborn,1692,19,9,2,2020-12-06,43.67385583,-93.34884422
Minnesota,Goodhue,2378,46,34,0,2020-12-06,44.40849741,-92.7234195
Minnesota,Grant,315,4,6,0,2020-12-06,45.93424769,-96.01139609
Minnesota,Hennepin,73512,1146,1167,6,2020-12-06,45.00761521,-93.47694895
Minnesota,Houston,854,21,4,0,2020-12-06,43.67129565,-91.49143057
Minnesota,Hubbard,1238,13,31,2,2020-12-06,47.10778564,-94.91693868
Minnesota,Isanti,2136,32,21,0,2020-12-06,45.56181234,-93.29487636
Minnesota,Itasca,2211,33,25,0,2020-12-06,47.51009045,-93.63092229
Minnesota,Jackson,582,10,1,0,2020-12-06,43.67423373,-95.15398258
Minnesota,Kanabec,742,11,16,2,2020-12-06,45.9459309,-93.29275192
Minnesota,Kandiyohi,4691,66,33,0,2020-12-06,45.1526059,-95.00586446
Minnesota,Kittson,280,13,9,0,2020-12-06,48.77754106,-96.78317184
Minnesota,Koochiching,448,5,6,0,2020-12-06,48.24539665,-93.78352843
Minnesota,Lac qui Parle,443,7,4,0,2020-12-06,44.9973857,-96.17488219
Minnesota,Lake,470,8,8,0,2020-12-06,47.64270764,-91.44557998
Minnesota,Lake of the Woods,115,1,1,0,2020-12-06,48.77217001,-94.90274472
Minnesota,Le Sueur,1664,25,12,0,2020-12-06,44.37136597,-93.72844721
Minnesota,Lincoln,403,5,1,0,2020-12-06,44.41311883,-96.26688165
Minnesota,Lyon,2433,35,17,3,2020-12-06,44.41327865,-95.83806103
Minnesota,McLeod,2532,49,23,0,2020-12-06,44.82367677,-94.27287017
Minnesota,Mahnomen,334,5,6,1,2020-12-06,47.32557075,-95.80921485
Minnesota,Marshall,568,8,10,0,2020-12-06,48.35825983,-96.37017407
Minnesota,Martin,1318,17,23,1,2020-12-06,43.67429718,-94.55099908
Minnesota,Meeker,1581,33,13,1,2020-12-06,45.12328869,-94.52839455
Minnesota,Mille Lacs,1727,23,35,1,2020-12-06,45.93705297,-93.63236823
Minnesota,Morrison,2579,17,33,1,2020-12-06,46.01265363,-94.27341528
Minnesota,Mower,2886,25,23,0,2020-12-06,43.67142874,-92.75234549
Minnesota,Murray,639,6,5,0,2020-12-06,44.02216709,-95.76328482
Minnesota,Nicollet,1803,15,27,0,2020-12-06,44.35291112,-94.24710352
Minnesota,Nobles,3234,24,35,1,2020-12-06,43.67434621,-95.75329576
Minnesota,Norman,383,4,8,0,2020-12-06,47.32628443,-96.45620947
Minnesota,Olmsted,7469,129,38,1,2020-12-06,44.00374114,-92.40209944
Minnesota,Otter Tail,3578,52,31,1,2020-12-06,46.40846929,-95.70835255
Minnesota,Pennington,782,17,9,0,2020-12-06,48.06642577,-96.0370814
Minnesota,Pine,1658,135,9,1,2020-12-06,46.12105238,-92.74070188
Minnesota,Pipestone,788,7,18,0,2020-12-06,44.02301619,-96.25841142
Minnesota,Polk,2856,63,30,0,2020-12-06,47.77372465,-96.40134647
Minnesota,Pope,599,6,2,0,2020-12-06,45.58606667,-95.44451209
Minnesota,Ramsey,31002,568,540,5,2020-12-06,45.01625271,-93.09872295
Minnesota,Red Lake,255,7,3,0,2020-12-06,47.87197525,-96.09561104
Minnesota,Redwood,1119,24,21,1,2020-12-06,44.40555844,-95.25207021
Minnesota,Renville,1071,38,32,1,2020-12-06,44.72836381,-94.94553734
Minnesota,Rice,4559,32,39,0,2020-12-06,44.3543376,-93.29658715
Minnesota,Rock,874,12,10,0,2020-12-06,43.67482683,-96.25296832
Minnesota,Roseau,1388,24,7,0,2020-12-06,48.77501878,-95.81079919
Minnesota,St. Louis,10190,207,134,3,2020-12-06,47.6048407,-92.46879855
Minnesota,Scott,9417,143,63,0,2020-12-06,44.6490231,-93.53340251
Minnesota,Sherburne,6500,121,48,0,2020-12-06,45.44447208,-93.77617511
Minnesota,Sibley,875,12,4,0,2020-12-06,44.5796592,-94.23164924
Minnesota,Stearns,15064,148,132,2,2020-12-06,45.55192576,-94.61078221
Minnesota,Steele,2218,27,8,0,2020-12-06,44.02240351,-93.22627088
Minnesota,Stevens,566,8,5,0,2020-12-06,45.58613007,-96.00163705
Minnesota,Swift,687,11,11,0,2020-12-06,45.2829032,-95.68264092
Minnesota,Todd,1983,18,15,0,2020-12-06,46.06996226,-94.89785296
Minnesota,Traverse,166,5,2,0,2020-12-06,45.77298854,-96.47062949
Minnesota,Wabasha,1185,18,1,0,2020-12-06,44.28424356,-92.23121312
Minnesota,Wadena,914,14,8,1,2020-12-06,46.58589171,-94.96968506
Minnesota,Waseca,1473,10,11,0,2020-12-06,44.02211116,-93.58720034
Minnesota,Washington,15590,283,130,3,2020-12-06,45.03864533,-92.88429635
Minnesota,Watonwan,936,11,4,0,2020-12-06,43.97823903,-94.61413846
Minnesota,Wilkin,476,27,5,0,2020-12-06,46.35721532,-96.4684375
Minnesota,Winona,3094,47,33,1,2020-12-06,43.98772283,-91.78081305
Minnesota,Wright,9006,157,50,0,2020-12-06,45.17297924,-93.96234781
Minnesota,Yellow Medicine,740,11,13,1,2020-12-06,44.71710183,-95.86842453
Mississippi,Adams,1523,8,52,0,2020-12-06,31.47669768,-91.35326037
Mississippi,Alcorn,1651,11,31,0,2020-12-06,34.88084463,-88.57996173
Mississippi,Amite,645,16,15,0,2020-12-06,31.17467303,-90.80501621
Mississippi,Attala,1299,15,37,0,2020-12-06,33.08658803,-89.57838564
Mississippi,Benton,518,6,18,0,2020-12-06,34.81681228,-89.18945516
Mississippi,Bolivar,2629,40,86,0,2020-12-06,33.79696941,-90.87372121
Mississippi,Calhoun,845,2,14,0,2020-12-06,33.93683395,-89.33686647
Mississippi,Carroll,802,7,15,0,2020-12-06,33.44834567,-89.91994479
Mississippi,Chickasaw,1155,6,33,0,2020-12-06,33.91983202,-88.9481545
Mississippi,Choctaw,388,2,7,0,2020-12-06,33.34598242,-89.24809382
Mississippi,Claiborne,598,0,16,0,2020-12-06,31.97061673,-90.90702196
Mississippi,Clarke,986,6,55,0,2020-12-06,32.04158545,-88.68896219999998
Mississippi,Clay,999,3,27,0,2020-12-06,33.65358105,-88.77784255
Mississippi,Coahoma,1618,8,46,0,2020-12-06,34.22772299,-90.60415045
Mississippi,Copiah,1805,29,41,0,2020-12-06,31.86977774,-90.44565118
Mississippi,Covington,1414,20,45,1,2020-12-06,31.63225413,-89.55389939
Mississippi,DeSoto,11051,109,106,0,2020-12-06,34.87625235,-89.99091418
Mississippi,Forrest,4139,32,90,1,2020-12-06,31.18961454,-89.25832496
Mississippi,Franklin,402,8,6,0,2020-12-06,31.47786634,-90.89672989
Mississippi,George,1396,3,26,0,2020-12-06,30.86259065,-88.64436789
Mississippi,Greene,670,4,23,0,2020-12-06,31.21444233,-88.63922281
Mississippi,Grenada,1521,14,45,0,2020-12-06,33.77036166,-89.80245083
Mississippi,Hancock,1347,6,43,0,2020-12-06,30.41830223,-89.48851033
Mississippi,Harrison,7766,34,116,1,2020-12-06,30.51359752,-89.12467576
Mississippi,Hinds,10951,96,208,0,2020-12-06,32.2656285,-90.44435448
Mississippi,Holmes,1396,17,61,0,2020-12-06,33.12345854,-90.08923538
Mississippi,Humphreys,577,8,19,0,2020-12-06,33.12825718,-90.52252707
Mississippi,Issaquena,129,1,4,0,2020-12-06,32.72531359,-90.97392828
Mississippi,Itawamba,1704,10,39,2,2020-12-06,34.27993475,-88.3606733
Mississippi,Jackson,6845,37,131,0,2020-12-06,30.54020656,-88.64184064
Mississippi,Jasper,925,10,24,1,2020-12-06,32.01922104,-89.11786866
Mississippi,Jefferson,395,2,12,0,2020-12-06,31.73397872,-91.03764977
Mississippi,Jefferson Davis,614,3,18,0,2020-12-06,31.56884708,-89.82670990000003
Mississippi,Jones,3969,42,90,0,2020-12-06,31.62257767,-89.16896899999998
Mississippi,Kemper,523,11,19,0,2020-12-06,32.75462946,-88.64105766
Mississippi,Lafayette,3503,11,60,1,2020-12-06,34.35687874,-89.48490961
Mississippi,Lamar,3182,34,50,0,2020-12-06,31.20572971,-89.5077704
Mississippi,Lauderdale,3834,32,151,1,2020-12-06,32.40419769,-88.66229662
Mississippi,Lawrence,776,2,14,0,2020-12-06,31.55147224,-90.10841127
Mississippi,Leake,1490,9,45,1,2020-12-06,32.7536828,-89.52402044
Mississippi,Lee,5701,55,98,0,2020-12-06,34.291877500000005,-88.68149954
Mississippi,Leflore,2204,8,93,0,2020-12-06,33.55545125,-90.29900733
Mississippi,Lincoln,2067,18,67,0,2020-12-06,31.53288662,-90.45391915
Mississippi,Lowndes,2721,42,68,0,2020-12-06,33.47386518,-88.44191529999998
Mississippi,Madison,5408,40,113,0,2020-12-06,32.63389156,-90.03513564
Mississippi,Marion,1300,13,50,0,2020-12-06,31.23132643,-89.8209217
Mississippi,Marshall,2345,31,51,0,2020-12-06,34.76216286,-89.50299462
Mississippi,Monroe,2217,25,78,0,2020-12-06,33.89236763,-88.4808438
Mississippi,Montgomery,823,7,26,0,2020-12-06,33.49419589,-89.61729103
Mississippi,Neshoba,2373,24,124,0,2020-12-06,32.75339664,-89.11726492
Mississippi,Newton,1172,9,29,0,2020-12-06,32.40021118,-89.11843336
Mississippi,Noxubee,761,7,17,0,2020-12-06,33.11009499,-88.56949061
Mississippi,Oktibbeha,2665,8,63,0,2020-12-06,33.42491685,-88.87905132
Mississippi,Panola,2469,14,56,1,2020-12-06,34.36398677,-89.95064249
Mississippi,Pearl River,1732,23,71,0,2020-12-06,30.77090935,-89.58677275
Mississippi,Perry,705,1,27,0,2020-12-06,31.17161885,-88.99281835
Mississippi,Pike,1739,14,60,0,2020-12-06,31.17507789,-90.40392572
Mississippi,Pontotoc,2254,52,32,0,2020-12-06,34.226046000000004,-89.03636807
Mississippi,Prentiss,1619,11,35,1,2020-12-06,34.61810501,-88.51986294
Mississippi,Quitman,519,9,7,0,2020-12-06,34.25157572,-90.28908
Mississippi,Rankin,6544,122,116,1,2020-12-06,32.26469147,-89.94537876
Mississippi,Scott,1691,7,30,0,2020-12-06,32.406704100000006,-89.53789439
Mississippi,Sharkey,341,3,17,0,2020-12-06,32.88149103,-90.8159538
Mississippi,Simpson,1586,7,54,0,2020-12-06,31.91282117,-89.91716179
Mississippi,Smith,780,6,16,0,2020-12-06,32.01744532,-89.50644846
Mississippi,Stone,867,8,15,0,2020-12-06,30.79187949,-89.11547539
Mississippi,Sunflower,2018,7,56,0,2020-12-06,33.60192578,-90.58882684
Mississippi,Tallahatchie,1021,5,27,0,2020-12-06,33.95339918,-90.1729398
Mississippi,Tate,1902,15,51,0,2020-12-06,34.65133709,-89.94485778
Mississippi,Tippah,1386,16,30,0,2020-12-06,34.76872156,-88.90988194
Mississippi,Tishomingo,1200,15,45,0,2020-12-06,34.74023475,-88.23917219
Mississippi,Tunica,644,3,19,0,2020-12-06,34.64967704,-90.37481167
Mississippi,Union,1867,42,26,0,2020-12-06,34.49162015,-89.00776006
Mississippi,Walthall,821,9,30,0,2020-12-06,31.14971548,-90.10446654
Mississippi,Warren,1949,19,59,0,2020-12-06,32.35810271,-90.83352619
Mississippi,Washington,3453,11,108,0,2020-12-06,33.28392041,-90.94196237
Mississippi,Wayne,1301,17,24,0,2020-12-06,31.64135687,-88.69573913
Mississippi,Webster,511,7,14,0,2020-12-06,33.61300486,-89.28392912
Mississippi,Wilkinson,441,7,22,0,2020-12-06,31.16078225,-91.31018819
Mississippi,Winston,1369,9,29,0,2020-12-06,33.08747908,-89.03391385
Mississippi,Yalobusha,769,5,29,0,2020-12-06,34.02824175,-89.70762049999998
Mississippi,Yazoo,1696,8,41,0,2020-12-06,32.77890365,-90.39656148
Missouri,Adair,1168,7,3,0,2020-12-06,40.19058551,-92.60078167
Missouri,Andrew,888,6,11,0,2020-12-06,39.98492163,-94.80163024
Missouri,Atchison,228,2,3,0,2020-12-06,40.43238737,-95.42970639
Missouri,Audrain,1222,27,15,0,2020-12-06,39.215877,-91.84242683
Missouri,Barry,1538,11,29,0,2020-12-06,36.70978521,-93.82919888
Missouri,Barton,659,2,5,0,2020-12-06,37.50207671,-94.34757022
Missouri,Bates,603,8,9,0,2020-12-06,38.25271289,-94.34113157
Missouri,Benton,885,2,11,0,2020-12-06,38.29503305,-93.28756116
Missouri,Bollinger,869,6,10,0,2020-12-06,37.32449052,-90.02725304
Missouri,Boone,11046,102,25,0,2020-12-06,38.99186229,-92.30723575
Missouri,Buchanan,5128,68,66,0,2020-12-06,39.65816401,-94.80138942
Missouri,Butler,2359,32,9,0,2020-12-06,36.71462476,-90.40421163
Missouri,Caldwell,433,6,3,0,2020-12-06,39.65620858,-93.98308093
Missouri,Callaway,3110,36,11,0,2020-12-06,38.83674754,-91.92186505
Missouri,Camden,2626,18,49,0,2020-12-06,38.02199522,-92.76083747
Missouri,Cape Girardeau,5465,81,66,0,2020-12-06,37.38489388,-89.6843587
Missouri,Carroll,490,21,7,0,2020-12-06,39.42762566,-93.50626255
Missouri,Carter,321,1,6,0,2020-12-06,36.94160441,-90.96051322
Missouri,Cass,4215,67,40,0,2020-12-06,38.64789422,-94.353399
Missouri,Cedar,456,1,7,0,2020-12-06,37.72391475,-93.85445441
Missouri,Chariton,264,3,0,0,2020-12-06,39.51499357,-92.9629191
Missouri,Christian,4172,62,24,0,2020-12-06,36.9711783,-93.18537118
Missouri,Clark,324,4,4,0,2020-12-06,40.41040752,-91.73661677
Missouri,Clay,5045,75,76,0,2020-12-06,39.31132056,-94.41850862
Missouri,Clinton,984,16,47,0,2020-12-06,39.6013098,-94.40465394
Missouri,Cole,6674,60,60,0,2020-12-06,38.50455671,-92.27860244
Missouri,Cooper,1247,7,9,0,2020-12-06,38.844478,-92.80896081
Missouri,Crawford,1294,17,14,0,2020-12-06,37.97663738,-91.30528104
Missouri,Dade,305,2,8,0,2020-12-06,37.431814,-93.8503345
Missouri,Dallas,626,6,10,0,2020-12-06,37.6811355,-93.02127031
Missouri,Daviess,374,6,8,0,2020-12-06,39.96145298,-93.98519678
Missouri,DeKalb,640,10,15,0,2020-12-06,39.89201062,-94.40476508
Missouri,Dent,576,11,4,0,2020-12-06,37.60663134,-91.50790473
Missouri,Douglas,466,5,15,0,2020-12-06,36.9325593,-92.49905109
Missouri,Dunklin,1777,15,14,0,2020-12-06,36.27167174,-90.09122243
Missouri,Franklin,5221,58,91,1,2020-12-06,38.41127108,-91.07522826
Missouri,Gasconade,526,10,25,0,2020-12-06,38.43947277,-91.50847147
Missouri,Gentry,471,5,13,0,2020-12-06,40.21097916,-94.40944419
Missouri,Greene,15045,203,212,0,2020-12-06,37.2575872,-93.34230916
Missouri,Grundy,548,8,14,0,2020-12-06,40.11406587,-93.56509276
Missouri,Harrison,453,16,3,0,2020-12-06,40.35570088,-93.99222144
Missouri,Henry,1187,6,12,0,2020-12-06,38.38482826,-93.79293734
Missouri,Hickory,384,0,6,0,2020-12-06,37.94163617,-93.3203037
Missouri,Holt,288,1,4,0,2020-12-06,40.09799248,-95.2163888
Missouri,Howard,537,6,2,0,2020-12-06,39.1435761,-92.69756691
Missouri,Howell,1661,7,31,0,2020-12-06,36.77383887,-91.88683935
Missouri,Iron,258,2,1,0,2020-12-06,37.55487945,-90.7735296
Missouri,Jackson,18944,290,190,0,2020-12-06,39.01002188,-94.34724536
Missouri,Jasper,8677,50,124,2,2020-12-06,37.20351921,-94.34050458
Missouri,Jefferson,12170,169,108,0,2020-12-06,38.25926778,-90.53870896
Missouri,Johnson,2697,24,16,0,2020-12-06,38.74719601,-93.80691168
Missouri,Knox,137,0,1,0,2020-12-06,40.12699751,-92.14780832
Missouri,Laclede,2010,26,33,0,2020-12-06,37.65896829,-92.5888493
Missouri,Lafayette,1657,23,30,0,2020-12-06,39.06986886,-93.78076396
Missouri,Lawrence,2019,9,39,0,2020-12-06,37.10626634,-93.83293097
Missouri,Lewis,464,21,2,0,2020-12-06,40.09673161,-91.72070156
Missouri,Lincoln,2723,28,13,0,2020-12-06,39.05345619,-90.95588181
Missouri,Linn,346,6,11,0,2020-12-06,39.87001769,-93.10704106
Missouri,Livingston,831,20,16,0,2020-12-06,39.78110272,-93.54645978
Missouri,McDonald,1453,6,16,0,2020-12-06,36.62869595,-94.34867205
Missouri,Macon,734,10,3,0,2020-12-06,39.83049768,-92.56453089
Missouri,Madison,960,7,9,0,2020-12-06,37.47865134,-90.3467143
Missouri,Maries,396,6,4,0,2020-12-06,38.16193985,-91.92249662
Missouri,Marion,1957,31,18,0,2020-12-06,39.80601912,-91.62203062
Missouri,Mercer,92,1,1,0,2020-12-06,40.42212303,-93.5682959
Missouri,Miller,1653,20,26,0,2020-12-06,38.21450288,-92.42610898
Missouri,Mississippi,976,19,7,0,2020-12-06,36.82516239,-89.29505753
Missouri,Moniteau,1316,8,15,0,2020-12-06,38.63571781,-92.57976951
Missouri,Monroe,414,2,3,0,2020-12-06,39.49593978,-92.00043978
Missouri,Montgomery,369,3,6,0,2020-12-06,38.94022054,-91.47000721
Missouri,Morgan,1174,16,13,0,2020-12-06,38.4181765,-92.88791859
Missouri,New Madrid,1417,8,24,0,2020-12-06,36.59666326,-89.66070007
Missouri,Newton,3068,5,38,0,2020-12-06,36.90519407,-94.3394104
Missouri,Nodaway,2107,17,14,0,2020-12-06,40.36079813,-94.88133008
Missouri,Oregon,402,1,2,0,2020-12-06,36.68710164,-91.4033755
Missouri,Osage,1011,7,4,0,2020-12-06,38.46036182,-91.8613635
Missouri,Ozark,311,2,3,0,2020-12-06,36.64916339,-92.44459066
Missouri,Pemiscot,1151,3,19,0,2020-12-06,36.2130572,-89.78742322
Missouri,Perry,1632,12,12,0,2020-12-06,37.70660776,-89.82741088
Missouri,Pettis,2970,14,36,0,2020-12-06,38.72798918,-93.28471706
Missouri,Phelps,1982,35,50,-1,2020-12-06,37.87736118,-91.79351727
Missouri,Pike,1029,11,10,0,2020-12-06,39.34310674,-91.16980779
Missouri,Platte,1856,31,17,0,2020-12-06,39.38154439,-94.77068479
Missouri,Polk,1513,11,15,0,2020-12-06,37.6162296,-93.39828174
Missouri,Pulaski,1941,53,24,0,2020-12-06,37.82462075,-92.20783203
Missouri,Putnam,175,2,1,0,2020-12-06,40.47942497,-93.02042674
