State,County,Total Cases,New Cases,Total Deaths,New Deaths,Date,Latitude,Longitude
Alabama,Autauga,2529,23,37,0,2020-11-18,32.53952745,-86.64408227
Alabama,Baldwin,7849,77,84,0,2020-11-18,30.72774991,-87.72207058
Alabama,Barbour,1137,3,10,1,2020-11-18,31.868263,-85.3871286
Alabama,Bibb,1008,4,18,1,2020-11-18,32.99642064,-87.12511459999997
Alabama,Blount,2648,54,35,1,2020-11-18,33.98210918,-86.56790593
Alabama,Bullock,678,0,19,0,2020-11-18,32.10030533,-85.71265535
Alabama,Butler,1102,3,41,0,2020-11-18,31.75300095,-86.68057478
Alabama,Calhoun,5764,62,95,18,2020-11-18,33.77483727,-85.82630386
Alabama,Chambers,1620,25,48,0,2020-11-18,32.91360079,-85.39072749
Alabama,Cherokee,935,16,16,1,2020-11-18,34.17805983,-85.60638968
Alabama,Chilton,2104,11,36,-1,2020-11-18,32.85044126,-86.7173256
Alabama,Choctaw,411,0,12,0,2020-11-18,32.02227341,-88.26564429999998
Alabama,Clarke,1511,4,19,0,2020-11-18,31.68099859,-87.83548597
Alabama,Clay,859,7,15,0,2020-11-18,33.26984193,-85.85836077
Alabama,Cleburne,689,5,12,0,2020-11-18,33.67679204,-85.52005899
Alabama,Coffee,2223,28,14,0,2020-11-18,31.39932826,-85.98901039
Alabama,Colbert,2820,28,39,0,2020-11-18,34.69847452,-87.80168544
Alabama,Conecuh,655,8,14,0,2020-11-18,31.43401703,-86.99320044
Alabama,Coosa,282,9,4,0,2020-11-18,32.93690146,-86.24847739
Alabama,Covington,2057,10,32,0,2020-11-18,31.2477854,-86.45050893
Alabama,Crenshaw,683,3,30,0,2020-11-18,31.72941803,-86.31593104
Alabama,Cullman,3907,108,31,1,2020-11-18,34.13020303,-86.86888037
Alabama,Dale,2224,27,54,0,2020-11-18,31.43037123,-85.61095742
Alabama,Dallas,2107,20,30,0,2020-11-18,32.32688101,-87.10866709999998
Alabama,DeKalb,4352,92,34,0,2020-11-18,34.45946862,-85.80782906
Alabama,Elmore,3759,39,61,0,2020-11-18,32.59785413,-86.14415284
Alabama,Escambia,1908,25,31,0,2020-11-18,31.1256789,-87.15918694
Alabama,Etowah,5562,122,61,0,2020-11-18,34.04567266,-86.04051873
Alabama,Fayette,766,9,16,1,2020-11-18,33.72076938,-87.73886638
Alabama,Franklin,2362,11,33,0,2020-11-18,34.44235334,-87.84289505
Alabama,Geneva,1124,6,8,0,2020-11-18,31.09389027,-85.83572839
Alabama,Greene,382,3,17,0,2020-11-18,32.85504247,-87.95684022
Alabama,Hale,889,10,31,0,2020-11-18,32.76039258,-87.63284988
Alabama,Henry,819,2,6,0,2020-11-18,31.51148016,-85.24267944
Alabama,Houston,4856,56,37,0,2020-11-18,31.15197924,-85.29939599
Alabama,Jackson,2769,28,24,0,2020-11-18,34.78144169,-85.99750489
Alabama,Jefferson,28781,361,481,5,2020-11-18,33.55554728,-86.89506300000002
Alabama,Lamar,596,8,7,0,2020-11-18,33.77995024,-88.09668032
Alabama,Lauderdale,3487,56,53,1,2020-11-18,34.90171875,-87.65624729
Alabama,Lawrence,1124,26,35,0,2020-11-18,34.52041498,-87.31069453
Alabama,Lee,7331,53,64,-1,2020-11-18,32.60154883,-85.35132246
Alabama,Limestone,3759,36,42,0,2020-11-18,34.81185586,-86.98310072
Alabama,Lowndes,770,3,29,0,2020-11-18,32.1597283,-86.65158371
Alabama,Macon,666,4,20,0,2020-11-18,32.38759944,-85.69267724
Alabama,Madison,11693,170,121,1,2020-11-18,34.76327133,-86.55069633
Alabama,Marengo,1146,7,23,0,2020-11-18,32.24767634,-87.78796182
Alabama,Marion,1300,6,33,0,2020-11-18,34.13697363,-87.88704173
Alabama,Marshall,5516,132,53,0,2020-11-18,34.36975964,-86.30486727
Alabama,Mobile,18834,138,354,12,2020-11-18,30.78472347,-88.20842409
Alabama,Monroe,743,10,11,0,2020-11-18,31.56729412,-87.36995001
Alabama,Montgomery,11789,80,227,0,2020-11-18,32.2206831,-86.20969272
Alabama,Morgan,5640,105,44,2,2020-11-18,34.45500589,-86.85475946
Alabama,Perry,645,3,6,0,2020-11-18,32.64048341,-87.29770589
Alabama,Pickens,1094,11,19,1,2020-11-18,33.28094866,-88.08818103
Alabama,Pike,1515,4,14,0,2020-11-18,31.80396383,-85.9408295
Alabama,Randolph,966,8,20,0,2020-11-18,33.29526734,-85.45708831
Alabama,Russell,2096,9,3,0,2020-11-18,32.28725256,-85.18415324
Alabama,St. Clair,3820,56,55,0,2020-11-18,33.71902176,-86.31029372
Alabama,Shelby,9317,157,75,1,2020-11-18,33.26879845,-86.66232561
Alabama,Sumter,542,5,22,0,2020-11-18,32.59117397,-88.19916205
Alabama,Talladega,3227,39,41,0,2020-11-18,33.37823223,-86.16886178
Alabama,Tallapoosa,1642,28,89,1,2020-11-18,32.86698258,-85.79833053
Alabama,Tuscaloosa,12052,103,149,0,2020-11-18,33.28726072,-87.52556818
Alabama,Walker,3377,51,96,0,2020-11-18,33.80270512,-87.30027177
Alabama,Washington,878,-2,17,0,2020-11-18,31.4092794,-88.20689944
Alabama,Wilcox,612,4,18,0,2020-11-18,31.98773215,-87.30891118
Alabama,Winston,1178,29,22,0,2020-11-18,34.15030532,-87.37325922
Alaska,Aleutians East,22,0,0,0,2020-11-18,55.32222414,-161.9722021
Alaska,Bristol Bay,0,0,0,0,2020-11-18,58.74513976,-156.701064
Alaska,Denali,39,0,0,0,2020-11-18,63.67264044,-150.0076108
Alaska,Fairbanks North Star,2968,36,17,0,2020-11-18,64.80726247,-146.5692662
Alaska,Haines,16,0,0,0,2020-11-18,59.09893571,-135.4679843
Alaska,Kenai Peninsula,1898,67,6,0,2020-11-18,60.24429722,-151.53888840000005
Alaska,Ketchikan Gateway,182,1,0,0,2020-11-18,55.57445008,-130.975561
Alaska,Kodiak Island,186,11,0,0,2020-11-18,57.65529415,-153.7493579
Alaska,Matanuska-Susitna,2427,42,5,0,2020-11-18,62.31305045,-149.5741743
Alaska,North Slope,390,7,0,0,2020-11-18,69.31479216,-153.4836093
Alaska,Northwest Arctic,314,3,0,0,2020-11-18,67.04919196,-159.7503946
Arizona,Apache,4564,76,189,0,2020-11-18,35.39465006,-109.4892383
Arizona,Cochise,2807,30,77,0,2020-11-18,31.87934684,-109.7516088
Arizona,Coconino,6537,61,161,2,2020-11-18,35.83883429,-111.7707178
Arizona,Gila,2435,47,81,3,2020-11-18,33.80190085,-110.8132779
Arizona,Graham,1745,25,33,1,2020-11-18,32.93166885,-109.8882178
Arizona,Greenlee,142,10,2,0,2020-11-18,33.21498827,-109.2405279
Arizona,La Paz,707,20,18,0,2020-11-18,33.72854224,-113.9810029
Arizona,Maricopa,180608,1969,3837,28,2020-11-18,33.34835867,-112.4918154
Arizona,Mohave,5271,63,246,3,2020-11-18,35.70471703,-113.7577902
Arizona,Navajo,7295,64,263,2,2020-11-18,35.3997715,-110.3218983
Arizona,Pima,33822,378,674,4,2020-11-18,32.0971334,-111.7890033
Arizona,Pinal,14154,218,246,7,2020-11-18,32.90525627,-111.3449483
Arizona,Santa Cruz,3363,26,66,0,2020-11-18,31.52508998,-110.8479088
Arizona,Yavapai,3864,73,104,0,2020-11-18,34.59933926,-112.5538588
Arizona,Yuma,15788,146,368,3,2020-11-18,32.76895712,-113.90666740000002
Arkansas,Arkansas,866,8,20,0,2020-11-18,34.29145151,-91.37277296
Arkansas,Ashley,702,6,13,0,2020-11-18,33.19153461,-91.7698471
Arkansas,Baxter,1143,18,24,2,2020-11-18,36.28784385,-92.33782872
Arkansas,Benton,10618,75,138,3,2020-11-18,36.33644656,-94.25680817
Arkansas,Boone,1442,25,41,1,2020-11-18,36.3084504,-93.09374925
Arkansas,Bradley,409,8,8,0,2020-11-18,33.46755808,-92.15980837
Arkansas,Calhoun,113,2,0,0,2020-11-18,33.55598792,-92.49974403
Arkansas,Carroll,1205,10,21,0,2020-11-18,36.34038560000001,-93.54270261
Arkansas,Chicot,1108,4,24,0,2020-11-18,33.26458973,-91.29539209
Arkansas,Clark,705,10,8,0,2020-11-18,34.04613432,-93.17484713
Arkansas,Clay,728,15,18,0,2020-11-18,36.36826212,-90.4148172
Arkansas,Cleburne,609,4,20,0,2020-11-18,35.53864922,-92.02640019
Arkansas,Cleveland,314,7,14,0,2020-11-18,33.89723187,-92.18537045
Arkansas,Columbia,913,23,23,1,2020-11-18,33.21230701,-93.22642793
Arkansas,Conway,532,11,6,0,2020-11-18,35.26205537,-92.70506566
Arkansas,Craighead,6207,83,70,1,2020-11-18,35.83018283,-90.63235729
Arkansas,Crawford,2731,20,34,0,2020-11-18,35.58928601,-94.2446814
Arkansas,Crittenden,2964,32,55,0,2020-11-18,35.21247318,-90.30839406
Arkansas,Cross,715,9,24,0,2020-11-18,35.29631396,-90.77185818
Arkansas,Dallas,252,10,6,0,2020-11-18,33.97042763,-92.65167437
Arkansas,Desha,492,4,8,0,2020-11-18,33.83011025,-91.25500948
Arkansas,Drew,535,3,7,0,2020-11-18,33.59035001,-91.71777921
Arkansas,Faulkner,4234,53,47,3,2020-11-18,35.14719007,-92.33717519
Arkansas,Franklin,682,6,7,1,2020-11-18,35.51202821,-93.89299569
Arkansas,Fulton,465,6,12,0,2020-11-18,36.38177105,-91.81729127
Arkansas,Garland,3271,23,96,3,2020-11-18,34.57692074,-93.14921604
Arkansas,Grant,485,12,5,0,2020-11-18,34.29017991,-92.42320562
Arkansas,Greene,2330,53,26,0,2020-11-18,36.11735460000001,-90.55832668
Arkansas,Hempstead,742,9,6,0,2020-11-18,33.73325583,-93.66935133
Arkansas,Hot Spring,2660,25,41,0,2020-11-18,34.31709259,-92.95396325
Arkansas,Howard,736,8,15,0,2020-11-18,34.09007427,-93.9934871
Arkansas,Independence,1897,17,69,1,2020-11-18,35.74242707,-91.57001641
Arkansas,Izard,926,3,4,0,2020-11-18,36.09604046,-91.90847954
Arkansas,Jackson,1358,71,6,0,2020-11-18,35.59802983,-91.21494602
Arkansas,Jefferson,4853,22,106,1,2020-11-18,34.26767081,-91.92619839
Arkansas,Johnson,1169,9,11,0,2020-11-18,35.56759135,-93.46036368
Arkansas,Lafayette,236,2,3,0,2020-11-18,33.24116713,-93.60677071
Arkansas,Lawrence,1041,7,27,0,2020-11-18,36.04188196,-91.10867198
Arkansas,Lee,1145,3,18,0,2020-11-18,34.78498904,-90.78383866
Arkansas,Lincoln,2377,12,18,0,2020-11-18,33.95317155,-91.74002806
Arkansas,Little River,579,7,39,0,2020-11-18,33.70375665,-94.23468591
Arkansas,Logan,781,5,6,0,2020-11-18,35.21413234,-93.71951016
Arkansas,Lonoke,2360,40,42,0,2020-11-18,34.75392199,-91.88742357
Arkansas,Madison,537,1,6,0,2020-11-18,36.01038185,-93.72524943
Arkansas,Marion,333,7,5,2,2020-11-18,36.26844485,-92.68451899
Arkansas,Miller,1947,16,22,0,2020-11-18,33.31403423,-93.89285258
Arkansas,Mississippi,2892,23,79,2,2020-11-18,35.76271485,-90.05194370000002
Arkansas,Monroe,273,2,4,0,2020-11-18,34.6815935,-91.20540287
Arkansas,Montgomery,223,2,10,0,2020-11-18,34.53704874,-93.65824478
Arkansas,Nevada,400,9,14,0,2020-11-18,33.66340119,-93.30632432
Arkansas,Newton,388,4,22,0,2020-11-18,35.91947491,-93.21612969
Arkansas,Ouachita,547,21,11,0,2020-11-18,33.58839816,-92.87795984
Arkansas,Perry,210,5,3,0,2020-11-18,34.9459153,-92.94372564
Arkansas,Phillips,851,5,16,0,2020-11-18,34.43268455,-90.84800154
Arkansas,Pike,330,4,1,0,2020-11-18,34.16250414,-93.65789349
Arkansas,Poinsett,1514,19,37,0,2020-11-18,35.57433534,-90.66268713
Arkansas,Polk,618,9,6,0,2020-11-18,34.48254879,-94.22728802
Arkansas,Pope,3319,49,40,1,2020-11-18,35.44871474,-93.03212219
Arkansas,Prairie,329,5,5,0,2020-11-18,34.83624419,-91.55162157
Arkansas,Pulaski,14832,148,244,3,2020-11-18,34.77054088,-92.31355101
Arkansas,Randolph,874,13,28,0,2020-11-18,36.3415714,-91.02455531
Arkansas,St. Francis,1933,4,12,0,2020-11-18,35.02201976,-90.74828138
Arkansas,Saline,4004,47,48,0,2020-11-18,34.64916145,-92.67583224
Arkansas,Scott,307,5,2,0,2020-11-18,34.85588887,-94.0632176
Arkansas,Searcy,262,4,1,0,2020-11-18,35.9109364,-92.69936482
Arkansas,Sebastian,6267,49,118,3,2020-11-18,35.19605503,-94.27162713
Arkansas,Sevier,1607,6,16,0,2020-11-18,33.99780401,-94.2424869
Arkansas,Sharp,560,5,13,0,2020-11-18,36.16258158,-91.47819342
Arkansas,Stone,434,3,22,0,2020-11-18,35.86251946,-92.15684085
Arkansas,Union,1380,22,56,1,2020-11-18,33.16887091,-92.59746952
Arkansas,Van Buren,288,10,3,0,2020-11-18,35.58095779,-92.51295036
Arkansas,Washington,13934,152,168,1,2020-11-18,35.976844,-94.21800746
Arkansas,White,2518,99,44,0,2020-11-18,35.25688493,-91.74908296
Arkansas,Woodruff,176,4,0,0,2020-11-18,35.18902527,-91.2439489
Arkansas,Yell,1521,12,33,0,2020-11-18,35.00292371,-93.41171338
California,Alameda,26655,195,494,1,2020-11-18,37.64629437,-121.8929271
California,Alpine,36,0,0,0,2020-11-18,38.59678594,-119.8223594
California,Amador,423,9,16,0,2020-11-18,38.44583082,-120.65696
California,Butte,3501,11,57,0,2020-11-18,39.66727762,-121.6005252
California,Calaveras,405,3,21,0,2020-11-18,38.20537103,-120.552913
California,Colusa,608,5,6,0,2020-11-18,39.17881957,-122.2331726
California,Contra Costa,21630,172,253,0,2020-11-18,37.91923498,-121.9289527
California,Del Norte,242,7,1,0,2020-11-18,41.74228275,-123.8974063
California,El Dorado,1798,97,4,0,2020-11-18,38.77965956,-120.5233166
California,Fresno,34765,172,463,0,2020-11-18,36.75733899,-119.6466953
California,Glenn,795,9,6,0,2020-11-18,39.59875897,-122.3938452
California,Humboldt,699,4,9,-1,2020-11-18,40.69923009,-123.876044
California,Imperial,14431,130,353,2,2020-11-18,33.0393082,-115.3669042
California,Inyo,265,2,16,0,2020-11-18,36.51112084,-117.41119779999998
California,Kern,37141,222,432,0,2020-11-18,35.34329425,-118.7277796
California,Kings,9653,52,87,0,2020-11-18,36.07409056,-119.8159973
California,Lake,802,14,18,0,2020-11-18,39.10124298,-122.7536244
California,Lassen,1177,42,2,1,2020-11-18,40.67311306,-120.59350990000002
California,Los Angeles,348336,3813,7335,36,2020-11-18,34.30828379,-118.2282411
California,Madera,5602,41,79,3,2020-11-18,37.21513971,-119.76655890000002
California,Marin,7448,39,128,0,2020-11-18,38.07122463,-122.7210631
California,Mariposa,93,1,2,0,2020-11-18,37.57978556,-119.9073334
California,Mendocino,1311,0,22,0,2020-11-18,39.4381191,-123.3911313
California,Merced,10662,110,174,2,2020-11-18,37.18922369,-120.7209035
California,Modoc,100,2,0,0,2020-11-18,41.58965602,-120.7244817
California,Mono,493,0,2,0,2020-11-18,37.93899289,-118.8872409
California,Monterey,13220,110,111,1,2020-11-18,36.21862405,-121.2413397
California,Napa,2568,32,17,0,2020-11-18,38.50735751,-122.332839
California,Nevada,929,28,9,0,2020-11-18,39.30394768,-120.7627281
California,Orange,66585,628,1528,2,2020-11-18,33.70147516,-117.76459979999998
California,Placer,5543,54,65,1,2020-11-18,39.06167234,-120.7240569
California,Plumas,153,6,0,0,2020-11-18,40.00355989,-120.8395236
California,Riverside,77636,912,1383,9,2020-11-18,33.74314981,-115.9933578
California,Sacramento,31387,388,533,6,2020-11-18,38.45106826,-121.3425374
California,San Benito,1652,9,15,0,2020-11-18,36.60308176,-121.069975
California,San Bernardino,78298,1613,1118,20,2020-11-18,34.84060306,-116.1774685
California,San Diego,67241,922,945,12,2020-11-18,33.03484597,-116.7365326
California,San Joaquin,24171,437,504,3,2020-11-18,37.93433732,-121.2730061
California,San Luis Obispo,5321,71,34,0,2020-11-18,35.38822029,-120.4039028
California,San Mateo,12780,96,168,0,2020-11-18,37.4228808,-122.32755459999998
California,Santa Barbara,10612,35,133,0,2020-11-18,34.65329488,-120.0188492
California,Santa Clara,29297,274,453,6,2020-11-18,37.23104908,-121.6970462
California,Santa Cruz,3557,15,26,0,2020-11-18,37.05580291,-122.0066524
California,Shasta,3483,0,36,0,2020-11-18,40.76391419,-122.0396884
California,Sierra,15,0,0,0,2020-11-18,39.57713498,-120.52007009999998
California,Siskiyou,429,26,1,0,2020-11-18,41.59198861,-122.5407434
California,Solano,9161,73,80,0,2020-11-18,38.26827353,-121.9357113
California,Sonoma,11169,36,150,0,2020-11-18,38.52746429,-122.8862506
California,Stanislaus,19658,148,413,0,2020-11-18,37.55862499,-120.9970722
California,Sutter,2456,57,13,0,2020-11-18,39.03417539,-121.6945899
California,Tehama,1290,29,19,0,2020-11-18,40.12570935,-122.2370171
California,Trinity,98,15,0,0,2020-11-18,40.64917670000001,-123.114713
California,Tulare,19320,266,301,1,2020-11-18,36.22026558,-118.8020203
California,Tuolumne,615,46,8,0,2020-11-18,38.02644018,-119.9525093
California,Ventura,16797,106,173,0,2020-11-18,34.44465746,-119.0910613
California,Yolo,3933,41,71,1,2020-11-18,38.68278902,-121.9018288
California,Yuba,1643,25,10,0,2020-11-18,39.26255932,-121.3535644
Colorado,Adams,23832,493,294,5,2020-11-18,39.87432092,-104.3362578
Colorado,Alamosa,472,7,11,0,2020-11-18,37.57250606,-105.7885451
Colorado,Arapahoe,21540,570,420,3,2020-11-18,39.64977461,-104.3353617
Colorado,Archuleta,107,1,0,0,2020-11-18,37.19474156,-107.0476867
Colorado,Baca,47,2,0,0,2020-11-18,37.31940883,-102.5603223
Colorado,Bent,40,3,0,0,2020-11-18,37.95474293,-103.0720195
Colorado,Boulder,8982,191,107,4,2020-11-18,40.09313619,-105.3546767
Colorado,Chaffee,510,2,21,1,2020-11-18,38.74745778,-106.19265729999998
Colorado,Cheyenne,33,4,0,0,2020-11-18,38.82777431,-102.6032558
Colorado,Clear Creek,146,1,1,0,2020-11-18,39.68864463,-105.6463118
Colorado,Conejos,132,2,2,0,2020-11-18,37.201606,-106.19174879999998
Colorado,Costilla,61,0,1,0,2020-11-18,37.27732493,-105.4276548
Colorado,Crowley,711,14,1,0,2020-11-18,38.32608609,-103.7844965
Colorado,Custer,53,3,0,0,2020-11-18,38.10883162,-105.3683478
Colorado,Delta,393,18,7,0,2020-11-18,38.86246243,-107.8631342
Colorado,Dolores,4,0,0,0,2020-11-18,37.75208676,-108.5211585
Colorado,Douglas,7835,232,91,7,2020-11-18,39.33133796,-104.930001
Colorado,Eagle,1968,38,11,0,2020-11-18,39.62754308,-106.6933637
Colorado,Elbert,431,12,4,0,2020-11-18,39.28656773,-104.1358721
Colorado,El Paso,19849,631,232,1,2020-11-18,38.83240149,-104.5251411
Colorado,Fremont,1707,88,2,0,2020-11-18,38.47362326,-105.4399667
Colorado,Garfield,1695,29,6,0,2020-11-18,39.59921777,-107.902708
Colorado,Gilpin,65,2,0,0,2020-11-18,39.85646523,-105.5252597
Colorado,Grand,241,12,1,0,2020-11-18,40.10603347,-106.1178042
Colorado,Gunnison,427,1,7,0,2020-11-18,38.66611652,-107.0320729
Colorado,Hinsdale,6,0,0,0,2020-11-18,37.82247444,-107.3004345
Colorado,Huerfano,96,2,4,0,2020-11-18,37.68473101,-104.9612585
Colorado,Jackson,14,0,0,0,2020-11-18,40.66593870000001,-106.3408905
Colorado,Jefferson,15717,430,393,5,2020-11-18,39.58635604,-105.2517692
Colorado,Kiowa,17,1,0,0,2020-11-18,38.43260896,-102.7392145
Colorado,Kit Carson,240,4,3,0,2020-11-18,39.30497777,-102.6022199
Colorado,Lake,209,7,0,0,2020-11-18,39.20278823,-106.3555697
Colorado,La Plata,682,22,3,0,2020-11-18,37.28632032,-107.8429014
Colorado,Larimer,7662,247,64,0,2020-11-18,40.66671597,-105.4625784
Colorado,Las Animas,128,5,0,0,2020-11-18,37.3153406,-104.0376458
Colorado,Lincoln,91,3,0,0,2020-11-18,38.98749519,-103.5136649
Colorado,Logan,1862,91,22,4,2020-11-18,40.7249637,-103.110817
Colorado,Mesa,4020,161,41,2,2020-11-18,39.01787888,-108.469799
Colorado,Mineral,21,0,0,0,2020-11-18,37.66954283,-106.9281698
Colorado,Moffat,171,20,1,0,2020-11-18,40.61810999,-108.2070876
Colorado,Montezuma,448,11,5,0,2020-11-18,37.33859579,-108.5958857
Colorado,Montrose,682,12,15,1,2020-11-18,38.40214114,-108.26390220000002
Colorado,Morgan,1325,24,51,0,2020-11-18,40.26279810000001,-103.8093302
Colorado,Otero,334,8,6,0,2020-11-18,37.9014485,-103.7173385
Colorado,Ouray,104,0,2,0,2020-11-18,38.14717457,-107.7675136
Colorado,Park,181,6,3,0,2020-11-18,39.120926,-105.7182065
Colorado,Phillips,131,0,1,0,2020-11-18,40.59414277,-102.3577703
Colorado,Pitkin,399,4,2,0,2020-11-18,39.21720112,-106.9310027
Colorado,Prowers,401,20,11,0,2020-11-18,37.95544985,-102.3926052
Colorado,Pueblo,5516,241,70,1,2020-11-18,38.17359144,-104.5127437
Colorado,Rio Blanco,72,5,0,0,2020-11-18,39.97913541,-108.2179009
Colorado,Rio Grande,180,1,4,0,2020-11-18,37.5836865,-106.3847838
Colorado,Routt,443,25,9,0,2020-11-18,40.48596505,-106.9905548
Colorado,Saguache,193,-1,2,0,2020-11-18,38.08054629,-106.282466
Colorado,San Juan,18,2,0,0,2020-11-18,37.76248981,-107.67632890000002
Colorado,San Miguel,168,2,0,0,2020-11-18,38.00450883,-108.4020725
Colorado,Sedgwick,85,8,1,0,2020-11-18,40.87595412,-102.3519227
Colorado,Summit,1188,15,4,0,2020-11-18,39.63803232,-106.1150762
Colorado,Teller,435,16,4,0,2020-11-18,38.88133511,-105.1614893
Colorado,Washington,170,5,4,1,2020-11-18,39.97015535,-103.202587
Colorado,Weld,10669,267,176,3,2020-11-18,40.55499405,-104.3929621
Colorado,Yuma,274,7,1,0,2020-11-18,40.00346839,-102.4258673
Connecticut,Fairfield,32369,596,1463,3,2020-11-18,41.26809896,-73.3881171
Connecticut,Hartford,24154,518,1544,3,2020-11-18,41.80283011,-72.73103891
Connecticut,Litchfield,3381,82,155,0,2020-11-18,41.7937534,-73.2451475
Connecticut,Middlesex,2935,72,197,0,2020-11-18,41.45949668,-72.53714864
Connecticut,New Haven,24115,522,1172,4,2020-11-18,41.4080325,-72.93620426
Connecticut,New London,5112,144,157,2,2020-11-18,41.48896435,-72.10430976
Connecticut,Tolland,2495,77,71,1,2020-11-18,41.85853803,-72.3308481
Connecticut,Windham,2059,59,25,0,2020-11-18,41.82972709,-71.98182316
Delaware,Kent,4172,32,122,0,2020-11-18,39.08646628,-75.56884914
Delaware,New Castle,16240,117,369,2,2020-11-18,39.57992638,-75.64054974
Delaware,Sussex,9247,53,251,1,2020-11-18,38.66143781,-75.39031349
Florida,Alachua,11994,140,91,3,2020-11-18,29.67866525,-82.35928158
Florida,Baker,1932,17,29,0,2020-11-18,30.33060121,-82.28467476
Florida,Bay,7855,90,145,0,2020-11-18,30.26548745,-85.62122584
Florida,Bradford,1336,13,16,1,2020-11-18,29.95079741,-82.16611613
Florida,Brevard,13948,146,416,3,2020-11-18,28.29409504,-80.73091022
Florida,Broward,97475,775,1608,10,2020-11-18,26.15184651,-80.48725556
Florida,Calhoun,813,4,21,0,2020-11-18,30.40666734,-85.19394153
Florida,Charlotte,4425,42,176,1,2020-11-18,26.90131002,-81.92949121
Florida,Citrus,4086,67,150,1,2020-11-18,28.84804315,-82.47614748
Florida,Clay,7081,82,139,0,2020-11-18,29.98319144,-81.85609986
Florida,Collier,16308,191,268,0,2020-11-18,26.11091986,-81.34687065
Florida,Columbia,4538,10,87,1,2020-11-18,30.22509788,-82.62160164
Florida,DeSoto,1882,29,33,0,2020-11-18,27.18677893,-81.80941373
Florida,Dixie,937,-1,11,0,2020-11-18,29.60631086,-83.15724673
Florida,Duval,39305,253,563,6,2020-11-18,30.33225875,-81.66976468
Florida,Escambia,15436,138,290,1,2020-11-18,30.67652764,-87.37284571
Florida,Flagler,2466,37,41,0,2020-11-18,29.45933576,-81.31508595
Florida,Franklin,809,0,4,0,2020-11-18,29.83791238,-84.82731662
Florida,Gadsden,3156,6,56,0,2020-11-18,30.57796289,-84.61915825
Florida,Gilchrist,700,21,19,0,2020-11-18,29.72856978,-82.79880657
Florida,Glades,643,2,8,1,2020-11-18,26.95635849,-81.18996211
Florida,Gulf,1024,3,18,0,2020-11-18,29.93543004,-85.24270990000002
Florida,Hamilton,950,10,11,0,2020-11-18,30.49673973,-82.94998918
Florida,Hardee,1708,7,18,0,2020-11-18,27.49293939,-81.80956574
Florida,Hendry,2391,17,45,0,2020-11-18,26.55386945,-81.16469006
Florida,Hernando,4366,54,187,1,2020-11-18,28.55364461,-82.42700204
Florida,Highlands,3325,40,133,1,2020-11-18,27.34254618,-81.34071957
Florida,Hillsborough,53900,468,877,11,2020-11-18,27.9276559,-82.32013172
Florida,Holmes,1055,15,14,0,2020-11-18,30.86747479,-85.81319222
Florida,Indian River,4580,57,127,0,2020-11-18,27.69308961,-80.60556721
Florida,Jackson,3603,45,89,1,2020-11-18,30.7954597,-85.21500423
Florida,Jefferson,725,1,11,0,2020-11-18,30.43669112,-83.89442308
Florida,Lafayette,1294,2,19,0,2020-11-18,29.98484137,-83.18166636
Florida,Lake,9815,94,243,0,2020-11-18,28.76202069,-81.7125123
Florida,Lee,26989,287,549,0,2020-11-18,26.58410348,-81.88399313
Florida,Leon,13799,121,127,-1,2020-11-18,30.45955727,-84.27491114
Florida,Levy,1284,14,12,0,2020-11-18,29.31829741,-82.74007147
Florida,Liberty,558,1,14,1,2020-11-18,30.23766008,-84.8829258
Florida,Madison,1193,6,25,0,2020-11-18,30.44396917,-83.47398594
Florida,Manatee,15147,107,362,3,2020-11-18,27.47196942,-82.31831044
Florida,Marion,11952,81,371,3,2020-11-18,29.21227113,-82.05803627
Florida,Martin,5828,49,170,0,2020-11-18,27.0772071,-80.43109784
Florida,Miami-Dade,207221,1685,3731,8,2020-11-18,25.6112362,-80.55170587
Florida,Monroe,2892,38,25,0,2020-11-18,25.20904673,-81.07812416
Florida,Nassau,2819,33,53,0,2020-11-18,30.61037141,-81.80297522
Florida,Okaloosa,7864,107,139,0,2020-11-18,30.69143028,-86.59267105
Florida,Okeechobee,1905,17,43,0,2020-11-18,27.386336199999995,-80.88944347
Florida,Orange,52862,564,613,1,2020-11-18,28.51367621,-81.31799498
Florida,Osceola,16491,225,229,0,2020-11-18,28.06312234,-81.14882926
Florida,Palm Beach,59656,502,1641,6,2020-11-18,26.64676272,-80.46536002
Florida,Pasco,12968,197,263,3,2020-11-18,28.30810945,-82.40227529
Florida,Pinellas,29737,228,862,3,2020-11-18,27.93130349,-82.72239666
Florida,Polk,25696,165,657,3,2020-11-18,27.95027105,-81.69732947
Florida,Putnam,2574,25,55,0,2020-11-18,29.60779729,-81.74230285
Florida,St. Johns,7699,55,89,0,2020-11-18,29.90096506,-81.43589967
Florida,St. Lucie,9985,56,352,1,2020-11-18,27.37763908,-80.47106649
Florida,Santa Rosa,6740,67,96,1,2020-11-18,30.693414500000006,-87.02458128
Florida,Sarasota,11620,92,364,6,2020-11-18,27.18546175,-82.33174248
Florida,Seminole,11786,120,259,1,2020-11-18,28.7158582,-81.24060348
Florida,Sumter,3212,28,91,1,2020-11-18,28.70181754,-82.0794267
Florida,Suwannee,3150,8,83,1,2020-11-18,30.19746066,-82.99099670000003
Florida,Taylor,1586,3,20,0,2020-11-18,30.04848048,-83.60445406
Florida,Union,1199,2,53,0,2020-11-18,30.04412971,-82.37497443
Florida,Volusia,14563,103,350,4,2020-11-18,29.05858895,-81.18263252
Florida,Wakulla,1502,9,12,0,2020-11-18,30.16548905,-84.39895211
Florida,Walton,3333,29,34,0,2020-11-18,30.64204028,-86.16935664
Florida,Washington,1417,7,24,0,2020-11-18,30.61359259,-85.66002461
Georgia,Appling,1306,1,39,0,2020-11-18,31.74847232,-82.28909114
Georgia,Atkinson,567,-1,8,0,2020-11-18,31.29633502,-82.87545866
Georgia,Bacon,742,-1,22,1,2020-11-18,31.55456473,-82.45936528
Georgia,Baker,120,0,6,0,2020-11-18,31.32669878,-84.44218806
Georgia,Baldwin,2573,14,69,0,2020-11-18,33.06882326,-83.24701748
Georgia,Banks,684,7,11,1,2020-11-18,34.35607081,-83.49644388
Georgia,Barrow,3133,23,56,0,2020-11-18,33.99148694,-83.71436292
Georgia,Bartow,4670,61,105,2,2020-11-18,34.23732119,-84.83887523
Georgia,Ben Hill,974,1,38,0,2020-11-18,31.76095874,-83.22145359
Georgia,Berrien,641,5,27,0,2020-11-18,31.27590016,-83.22529920000002
Georgia,Bibb,7304,49,228,1,2020-11-18,32.80904227,-83.70489165
Georgia,Bleckley,695,2,31,1,2020-11-18,32.43829035,-83.33035166
Georgia,Brantley,734,3,15,0,2020-11-18,31.19576557,-81.97743999
Georgia,Brooks,620,3,30,1,2020-11-18,30.83922642,-83.58303423
Georgia,Bryan,1422,7,17,0,2020-11-18,32.00979311,-81.44002948
Georgia,Bulloch,3649,5,51,0,2020-11-18,32.39577406,-81.74811421
Georgia,Burke,1181,5,14,0,2020-11-18,33.05917989,-81.99928721
Georgia,Butts,978,-1,46,0,2020-11-18,33.283094500000004,-83.95435040000002
Georgia,Calhoun,295,2,10,0,2020-11-18,31.53169785,-84.62725131
Georgia,Camden,1677,13,20,0,2020-11-18,30.92951916,-81.66601818
Georgia,Candler,602,0,29,0,2020-11-18,32.40209349,-82.07702563
Georgia,Carroll,5014,38,90,0,2020-11-18,33.58138199,-85.07976677
Georgia,Catoosa,1836,31,26,0,2020-11-18,34.89872298,-85.13757014
Georgia,Charlton,767,7,17,0,2020-11-18,30.78371028,-82.13951596
Georgia,Chatham,10324,39,204,0,2020-11-18,32.00043026,-81.12489526
Georgia,Chattahoochee,1933,0,3,1,2020-11-18,32.34341231,-84.78809239
Georgia,Chattooga,1169,3,32,0,2020-11-18,34.47197698,-85.34535662
Georgia,Cherokee,9401,98,114,1,2020-11-18,34.24393976,-84.47431861
Georgia,Clarke,7520,43,52,1,2020-11-18,33.95436462,-83.37124007
Georgia,Clay,145,1,3,0,2020-11-18,31.62221166,-84.97713865
Georgia,Clayton,9819,78,195,2,2020-11-18,33.54187245,-84.35594188
Georgia,Clinch,527,0,13,0,2020-11-18,30.91395822,-82.70432472
Georgia,Cobb,27415,263,500,3,2020-11-18,33.94243204,-84.5761255
Georgia,Coffee,2758,17,72,0,2020-11-18,31.54892966,-82.85492059999999
Georgia,Colquitt,2587,11,47,1,2020-11-18,31.18810588,-83.7677946
Georgia,Columbia,5914,40,75,2,2020-11-18,33.54534185,-82.263524
Georgia,Cook,802,9,17,0,2020-11-18,31.16068491,-83.42947229
Georgia,Coweta,4622,57,69,1,2020-11-18,33.35334302,-84.76129976
Georgia,Crawford,236,2,6,0,2020-11-18,32.71391813,-83.98061238
Georgia,Crisp,894,4,32,0,2020-11-18,31.92289565,-83.76811843
Georgia,Dade,464,6,7,1,2020-11-18,34.854916700000004,-85.50490424
Georgia,Dawson,1047,18,11,0,2020-11-18,34.44244079,-84.16964071
Georgia,Decatur,1540,6,45,1,2020-11-18,30.87967778,-84.57619536
Georgia,DeKalb,25468,225,445,4,2020-11-18,33.76944049,-84.22396017
Georgia,Dodge,1039,9,43,1,2020-11-18,32.17265114,-83.16948926
Georgia,Dooly,459,3,19,0,2020-11-18,32.15630737,-83.79746561
Georgia,Dougherty,3613,15,202,0,2020-11-18,31.53328528,-84.21722377
Georgia,Douglas,5158,58,84,0,2020-11-18,33.70291126,-84.77026156
Georgia,Early,638,1,36,0,2020-11-18,31.32155345,-84.90255207
Georgia,Echols,268,1,2,0,2020-11-18,30.71101099,-82.89687287
Georgia,Effingham,2091,20,30,0,2020-11-18,32.36616021,-81.34280942
Georgia,Elbert,1074,11,19,1,2020-11-18,34.11302332,-82.83936148
Georgia,Emanuel,1400,2,47,0,2020-11-18,32.59221302,-82.30239915
Georgia,Evans,536,0,12,0,2020-11-18,32.15328841,-81.8870105
Georgia,Fannin,960,10,36,0,2020-11-18,34.86430205,-84.316964
Georgia,Fayette,2820,17,62,0,2020-11-18,33.41357794,-84.49089434
Georgia,Floyd,5098,63,71,2,2020-11-18,34.26268279,-85.21577392
Georgia,Forsyth,6116,90,58,0,2020-11-18,34.22604035,-84.12315129999998
Georgia,Franklin,1132,12,20,0,2020-11-18,34.37525597,-83.23159927
Georgia,Fulton,37381,227,679,1,2020-11-18,33.79216944,-84.46319413
Georgia,Gilmer,1201,7,30,-1,2020-11-18,34.69316688,-84.45802506
Georgia,Glascock,76,1,2,0,2020-11-18,33.22879932,-82.61297636
Georgia,Glynn,4125,20,116,0,2020-11-18,31.23279254,-81.53811412
Georgia,Gordon,3165,39,59,0,2020-11-18,34.50487351,-84.87296253
Georgia,Grady,968,0,30,1,2020-11-18,30.87454847,-84.23418364
Georgia,Greene,689,2,28,0,2020-11-18,33.5769205,-83.17139104
Georgia,Gwinnett,36713,228,500,3,2020-11-18,33.96044201,-84.02137802
Georgia,Habersham,2094,14,78,0,2020-11-18,34.63331566,-83.53094677
Georgia,Hall,11913,79,196,2,2020-11-18,34.32207823,-83.81896936
Georgia,Hancock,453,6,45,0,2020-11-18,33.2721566,-82.99766919
Georgia,Haralson,1180,17,20,0,2020-11-18,33.79602175,-85.21005667
Georgia,Harris,977,5,27,0,2020-11-18,32.73709786,-84.90538572
Georgia,Hart,737,10,25,0,2020-11-18,34.34626973,-82.96567682
Georgia,Heard,340,2,7,0,2020-11-18,33.29686567,-85.12886832
Georgia,Henry,7908,61,131,0,2020-11-18,33.4533428,-84.14814659999998
Georgia,Houston,4486,29,103,1,2020-11-18,32.45802497,-83.66879087
Georgia,Irwin,410,5,12,1,2020-11-18,31.60213036,-83.27501387
Georgia,Jackson,3045,21,52,1,2020-11-18,34.13794553,-83.56814788
Georgia,Jasper,421,7,6,0,2020-11-18,33.31535543,-83.68844964
Georgia,Jeff Davis,941,4,31,0,2020-11-18,31.80405727,-82.63724870000001
Georgia,Jefferson,961,5,40,1,2020-11-18,33.05867328,-82.41609057
Georgia,Jenkins,495,0,33,0,2020-11-18,32.79248718,-81.96040187
Georgia,Johnson,515,1,29,0,2020-11-18,32.70211082,-82.66166794
Georgia,Jones,748,8,18,0,2020-11-18,33.02512137,-83.56019163
Georgia,Lamar,612,1,25,0,2020-11-18,33.07841647,-84.14263877
Georgia,Lanier,384,1,10,0,2020-11-18,31.038285700000007,-83.06472457
Georgia,Laurens,2505,6,110,0,2020-11-18,32.46325233,-82.92221316
Georgia,Lee,888,15,33,0,2020-11-18,31.779330600000005,-84.14324253
Georgia,Liberty,1462,7,28,0,2020-11-18,31.82588896,-81.49251135
Georgia,Lincoln,295,3,10,0,2020-11-18,33.79201475,-82.45024131
Georgia,Long,315,1,5,0,2020-11-18,31.75218791,-81.74952375
Georgia,Lowndes,5889,68,123,1,2020-11-18,30.83568832,-83.27056716
Georgia,Lumpkin,1203,14,20,0,2020-11-18,34.57286511,-84.00425681
Georgia,McDuffie,893,16,20,0,2020-11-18,33.47851918,-82.48252774
Georgia,McIntosh,357,0,8,0,2020-11-18,31.49683595,-81.40163426
Georgia,Macon,317,5,15,0,2020-11-18,32.35207048,-84.04234127
Georgia,Madison,1018,4,17,0,2020-11-18,34.12920917,-83.21218732
Georgia,Marion,240,0,10,0,2020-11-18,32.3483402,-84.52733571
Georgia,Meriwether,748,1,19,0,2020-11-18,33.04163534,-84.68859732
Georgia,Miller,401,0,3,0,2020-11-18,31.16568912,-84.73151117
Georgia,Mitchell,947,4,48,0,2020-11-18,31.22483255,-84.19381821
Georgia,Monroe,978,10,61,0,2020-11-18,33.014289,-83.92097166
Georgia,Montgomery,415,3,10,0,2020-11-18,32.17201038,-82.53527476
Georgia,Morgan,772,10,8,1,2020-11-18,33.59232073,-83.49129491
Georgia,Murray,1492,52,18,1,2020-11-18,34.78897608,-84.74993177
Georgia,Muscogee,7002,20,188,1,2020-11-18,32.50931999,-84.87142262
Georgia,Newton,3569,25,108,3,2020-11-18,33.55514538,-83.84547140000002
Georgia,Oconee,1274,5,34,0,2020-11-18,33.83749973,-83.43679568
Georgia,Oglethorpe,514,1,14,0,2020-11-18,33.878629600000004,-83.08278123
Georgia,Paulding,4426,54,73,0,2020-11-18,33.91969522,-84.86848792
Georgia,Peach,992,6,27,0,2020-11-18,32.56934316,-83.82937
Georgia,Pickens,1031,14,15,0,2020-11-18,34.46589159,-84.46406611
Georgia,Pierce,1178,4,29,0,2020-11-18,31.35928155,-82.21598442
Georgia,Pike,719,1,16,0,2020-11-18,33.09310242,-84.38790389
Georgia,Polk,2205,25,33,2,2020-11-18,34.00267074,-85.18677781
Georgia,Pulaski,429,1,24,0,2020-11-18,32.23334561,-83.47549959999998
Georgia,Putnam,948,2,28,0,2020-11-18,33.32056115,-83.37552891
Georgia,Quitman,75,1,1,0,2020-11-18,31.86728114,-85.01773177
Georgia,Rabun,518,7,11,0,2020-11-18,34.88389445,-83.40304637
Georgia,Randolph,364,0,30,0,2020-11-18,31.76622818,-84.75732369
Georgia,Richmond,9514,46,212,0,2020-11-18,33.35777107,-82.07026432
Georgia,Rockdale,2531,13,48,0,2020-11-18,33.65145002,-84.02202167
Georgia,Schley,156,2,2,0,2020-11-18,32.2654021,-84.31258912
Georgia,Screven,493,1,12,0,2020-11-18,32.74976524,-81.60779441
Georgia,Seminole,499,3,12,0,2020-11-18,30.93464824,-84.86823924
Georgia,Spalding,2165,13,74,0,2020-11-18,33.26310031,-84.28013991
Georgia,Stephens,1407,9,47,0,2020-11-18,34.55151201,-83.29405315
Georgia,Stewart,617,0,17,0,2020-11-18,32.07996777,-84.83208037
Georgia,Sumter,1186,3,71,0,2020-11-18,32.03650571,-84.19821492
Georgia,Talbot,223,-1,8,0,2020-11-18,32.69642758,-84.53351366
Georgia,Taliaferro,37,0,0,0,2020-11-18,33.56543317,-82.88136816
Georgia,Tattnall,1050,1,24,0,2020-11-18,32.04785085,-82.05539188
Georgia,Taylor,324,2,13,0,2020-11-18,32.55792548,-84.25077141
Georgia,Telfair,640,1,28,0,2020-11-18,31.92829517,-82.93491155
Georgia,Terrell,389,2,33,0,2020-11-18,31.77527543,-84.44069698
Georgia,Thomas,1844,7,78,0,2020-11-18,30.86392347,-83.91847289
Georgia,Tift,2316,17,75,1,2020-11-18,31.45743864,-83.5236119
Georgia,Toombs,1648,11,62,0,2020-11-18,32.12059861,-82.32957247
Georgia,Towns,539,3,24,2,2020-11-18,34.91369188,-83.74107459999998
Georgia,Treutlen,379,2,14,0,2020-11-18,32.40422134,-82.56904553
Georgia,Troup,3756,15,117,1,2020-11-18,33.03349196,-85.02812115
Georgia,Turner,415,5,26,0,2020-11-18,31.71612656,-83.62069378
Georgia,Twiggs,246,2,14,0,2020-11-18,32.67435595,-83.43078662
Georgia,Union,1023,9,32,0,2020-11-18,34.82995757,-83.98967069
Georgia,Upson,1429,21,77,0,2020-11-18,32.87920671,-84.30024826
Georgia,Walker,2361,37,51,1,2020-11-18,34.73376362,-85.30165174
Georgia,Walton,2979,20,78,0,2020-11-18,33.78017694,-83.73552314
Georgia,Ware,2523,18,78,2,2020-11-18,31.05449097,-82.42224148
Georgia,Warren,207,3,8,0,2020-11-18,33.41146451,-82.67795848
Georgia,Washington,1028,3,22,0,2020-11-18,32.96711864,-82.79357039
Georgia,Wayne,1525,5,45,2,2020-11-18,31.5521809,-81.91894878
Georgia,Webster,60,1,2,0,2020-11-18,32.04066113,-84.54742852
Georgia,Wheeler,420,0,18,0,2020-11-18,32.12009104,-82.72574721
Georgia,White,1161,21,26,0,2020-11-18,34.64624278,-83.74905525
Georgia,Whitfield,6932,56,76,1,2020-11-18,34.80987459,-84.96093476
Georgia,Wilcox,346,5,28,0,2020-11-18,31.97496928,-83.43438555
Georgia,Wilkes,412,5,7,0,2020-11-18,33.78290391,-82.74286107
Georgia,Wilkinson,423,2,18,0,2020-11-18,32.80291082,-83.17140684
Georgia,Worth,699,5,36,0,2020-11-18,31.55162306,-83.85090513
Idaho,Ada,22316,284,215,0,2020-11-18,43.4526575,-116.24155159999998
Idaho,Adams,86,0,2,0,2020-11-18,44.89333571,-116.4545247
Idaho,Bannock,3597,67,25,0,2020-11-18,42.67002716,-112.2233311
Idaho,Bear Lake,153,12,1,0,2020-11-18,42.28269683,-111.32892379999998
Idaho,Benewah,228,0,3,0,2020-11-18,47.21754179,-116.6586851
Idaho,Bingham,2273,45,27,0,2020-11-18,43.21672879999999,-112.3978437
Idaho,Blaine,1148,31,7,0,2020-11-18,43.4085812,-113.9752658
Idaho,Boise,119,3,2,0,2020-11-18,43.98829931,-115.7309284
Idaho,Bonner,789,10,3,1,2020-11-18,48.29996017,-116.6017932
Idaho,Bonneville,6413,115,53,1,2020-11-18,43.38713372,-111.6161537
Idaho,Boundary,304,9,1,0,2020-11-18,48.76684761,-116.4630179
Idaho,Butte,116,3,0,0,2020-11-18,43.72592209,-113.1735463
Idaho,Camas,51,0,0,0,2020-11-18,43.46665742,-114.8065892
Idaho,Canyon,13000,126,132,0,2020-11-18,43.61970148,-116.7095499
Idaho,Caribou,391,3,8,0,2020-11-18,42.77149116,-111.5597683
Idaho,Cassia,1925,23,15,0,2020-11-18,42.28347888,-113.6012409
Idaho,Clark,47,0,0,0,2020-11-18,44.28496071,-112.3505704
Idaho,Clearwater,329,6,0,0,2020-11-18,46.67459924,-115.6622393
Idaho,Custer,125,3,1,0,2020-11-18,44.24186819,-114.2855494
Idaho,Elmore,775,22,5,1,2020-11-18,43.3507101,-115.4701578
Idaho,Franklin,543,15,4,0,2020-11-18,42.18332217,-111.8149666
Idaho,Fremont,633,3,7,0,2020-11-18,44.22800938,-111.4809943
Idaho,Gem,668,17,5,0,2020-11-18,44.06482372,-116.398376
Idaho,Gooding,862,17,9,0,2020-11-18,42.96927962,-114.8108306
Idaho,Idaho,581,17,5,1,2020-11-18,45.84721541,-115.4634436
Idaho,Jefferson,1333,25,10,4,2020-11-18,43.82078483,-112.3131749
Idaho,Jerome,1693,25,11,0,2020-11-18,42.68891267,-114.2655033
Idaho,Kootenai,6221,106,66,3,2020-11-18,47.67282258,-116.7020872
Idaho,Latah,1486,36,1,0,2020-11-18,46.81587887,-116.7113698
Idaho,Lemhi,405,5,7,1,2020-11-18,44.9438088,-113.9309747
Idaho,Lewis,158,1,3,0,2020-11-18,46.23315327,-116.434146
Idaho,Lincoln,322,4,8,0,2020-11-18,43.0012336,-114.1358773
Idaho,Madison,3544,46,7,0,2020-11-18,43.78141028,-111.65384740000002
Idaho,Minidoka,1585,20,13,0,2020-11-18,42.85518524,-113.6357257
Idaho,Nez Perce,1934,53,27,0,2020-11-18,46.32638236,-116.7500975
Idaho,Oneida,110,2,0,0,2020-11-18,42.19494279999999,-112.5407838
Idaho,Owyhee,518,10,5,0,2020-11-18,42.58016894,-116.1693871
Idaho,Payette,1410,13,13,0,2020-11-18,44.00545243,-116.7647695
Idaho,Power,421,0,4,1,2020-11-18,42.69254894,-112.83957420000002
Idaho,Shoshone,425,6,22,0,2020-11-18,47.35364087,-115.8916749
Idaho,Teton,461,11,2,0,2020-11-18,43.75303583,-111.2056773
Idaho,Twin Falls,6102,106,72,0,2020-11-18,42.35440512,-114.6685381
Idaho,Valley,202,1,1,0,2020-11-18,44.76728382,-115.5676773
Idaho,Washington,632,9,10,1,2020-11-18,44.45275475,-116.7847688
Illinois,Adams,3965,77,41,1,2020-11-18,39.98815591,-91.18786813
Illinois,Alexander,222,2,2,0,2020-11-18,37.18049267,-89.32910838
Illinois,Bond,863,21,10,0,2020-11-18,38.88829622,-89.43534887
Illinois,Boone,3295,63,29,0,2020-11-18,42.32359279,-88.82345779
Illinois,Brown,248,12,3,0,2020-11-18,39.96209138,-90.75068024
Illinois,Bureau,1791,65,30,1,2020-11-18,41.40385234,-89.5283051
Illinois,Calhoun,188,21,0,0,2020-11-18,39.16840183,-90.66330078
Illinois,Carroll,930,19,23,0,2020-11-18,42.06823429,-89.93395545
Illinois,Cass,778,21,15,0,2020-11-18,39.96991073,-90.24734436
Illinois,Champaign,9429,119,41,0,2020-11-18,40.13919438,-88.20046615
Illinois,Christian,1591,33,33,0,2020-11-18,39.54581621,-89.27780482
Illinois,Clark,647,14,19,0,2020-11-18,39.33425789,-87.78705622
Illinois,Clay,636,20,16,0,2020-11-18,38.75388572,-88.48914513
Illinois,Clinton,2727,80,55,3,2020-11-18,38.60704876,-89.42385254
Illinois,Coles,2921,33,56,1,2020-11-18,39.51949084,-88.22358557
Illinois,Cook,262429,2425,6120,85,2020-11-18,41.84144849,-87.81658794
Illinois,Crawford,934,37,9,0,2020-11-18,39.0032229,-87.75954624
Illinois,Cumberland,503,7,7,0,2020-11-18,39.27432424,-88.2401158
Illinois,DeKalb,4220,74,44,0,2020-11-18,41.89373302,-88.76958483
Illinois,De Witt,522,12,11,1,2020-11-18,40.17514519,-88.90959682
Illinois,Douglas,1166,22,12,1,2020-11-18,39.76768052,-88.21854195
Illinois,DuPage,37632,691,716,8,2020-11-18,41.85116968,-88.08642662
Illinois,Edgar,617,11,15,0,2020-11-18,39.6809186,-87.74759563
Illinois,Edwards,176,4,3,0,2020-11-18,38.41353228,-88.05720863
Illinois,Effingham,2186,25,11,2,2020-11-18,39.05935711,-88.58969584
Illinois,Fayette,1287,64,27,1,2020-11-18,39.00072038,-89.02452658
Illinois,Ford,581,23,21,0,2020-11-18,40.59706922,-88.22350769
Illinois,Franklin,1717,44,18,1,2020-11-18,37.99189086,-88.92567818
Illinois,Fulton,1116,36,7,0,2020-11-18,40.47289135,-90.20862357
Illinois,Gallatin,166,2,3,0,2020-11-18,37.76430935,-88.22953869
Illinois,Greene,678,24,22,1,2020-11-18,39.35907414,-90.388865
Illinois,Grundy,2201,75,10,0,2020-11-18,41.28569601,-88.41905692
Illinois,Hamilton,315,7,3,0,2020-11-18,38.08163641,-88.53883373
Illinois,Hancock,819,21,8,0,2020-11-18,40.40423981,-91.16313899
Illinois,Hardin,103,4,0,0,2020-11-18,37.51810645,-88.26873022
Illinois,Henderson,238,8,0,0,2020-11-18,40.81908672,-90.92491462
Illinois,Henry,1999,71,12,0,2020-11-18,41.3533994,-90.13296166
Illinois,Iroquois,1306,46,24,0,2020-11-18,40.74717633,-87.82466784
Illinois,Jackson,2281,53,31,1,2020-11-18,37.78595185,-89.38232563
Illinois,Jasper,534,10,11,1,2020-11-18,39.01054275,-88.15437049
Illinois,Jefferson,1530,29,57,0,2020-11-18,38.29980057,-88.9240025
Illinois,Jersey,1001,36,23,0,2020-11-18,39.08869046,-90.35393073
Illinois,Jo Daviess,920,11,14,0,2020-11-18,42.36542373,-90.21094405
Illinois,Johnson,596,9,2,0,2020-11-18,37.45939802,-88.88165419
Illinois,Kane,26982,326,417,2,2020-11-18,41.93842729,-88.42861412
Illinois,Kankakee,6971,166,90,0,2020-11-18,41.13746989,-87.86205334
Illinois,Kendall,5149,83,37,2,2020-11-18,41.59081014,-88.42869583
Illinois,Knox,2233,49,49,1,2020-11-18,40.93148779,-90.21330340000002
Illinois,Lake,32063,310,578,1,2020-11-18,42.3224907,-88.00367925
Illinois,LaSalle,5059,174,107,7,2020-11-18,41.34426129999999,-88.88633881
Illinois,Lawrence,665,31,8,0,2020-11-18,38.71987914,-87.72884035
Illinois,Lee,1532,12,14,0,2020-11-18,41.74583951,-89.29977132
Illinois,Livingston,1788,63,16,1,2020-11-18,40.89188292,-88.55784752
Illinois,Logan,1281,42,9,1,2020-11-18,40.12581572,-89.36638784
Illinois,McDonough,1356,19,32,2,2020-11-18,40.45674722,-90.67775541
Illinois,McHenry,11937,191,133,3,2020-11-18,42.32451172,-88.45248227
Illinois,McLean,7065,127,45,0,2020-11-18,40.48996987,-88.84621113
Illinois,Macon,5584,124,100,2,2020-11-18,39.86064913,-88.96342505
Illinois,Macoupin,1630,57,16,0,2020-11-18,39.26119767,-89.92424028
Illinois,Madison,11826,326,201,1,2020-11-18,38.83042506,-89.90422563
Illinois,Marion,1979,58,40,0,2020-11-18,38.64963204,-88.91899208
Illinois,Marshall,298,17,5,0,2020-11-18,41.0327901,-89.34510444
Illinois,Mason,537,16,14,0,2020-11-18,40.23917274,-89.91824452
Illinois,Massac,362,22,2,0,2020-11-18,37.22078441,-88.71036614
Illinois,Menard,340,6,1,0,2020-11-18,40.02742725,-89.80246001
Illinois,Mercer,603,15,7,0,2020-11-18,41.20596782,-90.74290052
Illinois,Monroe,1659,28,43,0,2020-11-18,38.27594376,-90.17761038
Illinois,Montgomery,960,22,18,0,2020-11-18,39.23198845,-89.47809254
Illinois,Morgan,1796,93,32,0,2020-11-18,39.71654544,-90.20255104
Illinois,Moultrie,740,17,9,0,2020-11-18,39.64187451,-88.62099969
Illinois,Ogle,2356,30,18,2,2020-11-18,42.04165196,-89.32184679
Illinois,Peoria,7483,202,112,2,2020-11-18,40.78702156,-89.76078901
Illinois,Perry,827,34,16,0,2020-11-18,38.08510853,-89.36856219
Illinois,Piatt,634,13,5,0,2020-11-18,40.01360584,-88.59319339
Illinois,Pike,861,1,17,0,2020-11-18,39.62265059,-90.8877017
Illinois,Pope,66,2,1,0,2020-11-18,37.41391284,-88.56152109
Illinois,Pulaski,330,5,2,0,2020-11-18,37.22631423,-89.13085001
Illinois,Putnam,189,14,0,0,2020-11-18,41.2013541,-89.2869272
Illinois,Randolph,1846,17,21,0,2020-11-18,38.05095369,-89.82512254
Illinois,Richland,549,13,19,0,2020-11-18,38.71240969,-88.08475366
Illinois,Rock Island,7186,129,114,0,2020-11-18,41.46613806,-90.57042164
Illinois,St. Clair,11018,139,247,1,2020-11-18,38.46996033,-89.93063427
Illinois,Saline,941,18,18,0,2020-11-18,37.75332999,-88.54119706
Illinois,Sangamon,8137,90,80,1,2020-11-18,39.75836914,-89.65872023
Illinois,Schuyler,190,10,1,0,2020-11-18,40.1571798,-90.61114163
Illinois,Scott,199,5,0,0,2020-11-18,39.6429169,-90.47814431
Illinois,Shelby,1117,16,23,0,2020-11-18,39.39133527,-88.80611122
Illinois,Stark,176,6,3,0,2020-11-18,41.09309773,-89.79745866
Illinois,Stephenson,2093,26,19,1,2020-11-18,42.35129217,-89.662598
Illinois,Tazewell,5206,208,74,1,2020-11-18,40.50716185,-89.51404662
Illinois,Union,1006,18,26,0,2020-11-18,37.47119609,-89.25548938
Illinois,Vermilion,3051,55,33,1,2020-11-18,40.18417171,-87.73384359
Illinois,Wabash,410,11,6,0,2020-11-18,38.44272901,-87.84922065
Illinois,Warren,875,20,14,1,2020-11-18,40.84925021,-90.6147432
Illinois,Washington,540,13,2,0,2020-11-18,38.35309213,-89.40982703
Illinois,Wayne,746,7,29,0,2020-11-18,38.42955355,-88.42586459
Illinois,White,454,5,8,0,2020-11-18,38.08706198,-88.17657461
Illinois,Whiteside,3115,32,79,4,2020-11-18,41.75509713,-89.91556058
Illinois,Will,31913,624,513,3,2020-11-18,41.44619267,-87.97862712
Illinois,Williamson,2980,61,75,1,2020-11-18,37.73033511,-88.92994027
Illinois,Winnebago,16225,180,233,2,2020-11-18,42.33641854,-89.16085327
Illinois,Woodford,1341,43,23,0,2020-11-18,40.78579374,-89.20973757
Indiana,Adams,1431,55,18,1,2020-11-18,40.7457653,-84.93671406
Indiana,Allen,15343,488,279,8,2020-11-18,41.09194313,-85.06800636
Indiana,Bartholomew,2573,84,62,0,2020-11-18,39.20744865,-85.89558181
Indiana,Benton,262,9,1,0,2020-11-18,40.60626947,-87.31093999
Indiana,Blackford,417,7,10,0,2020-11-18,40.47388153,-85.32499702
Indiana,Boone,2076,36,53,0,2020-11-18,40.0509304,-86.46841646
Indiana,Brown,292,7,3,0,2020-11-18,39.19605589,-86.22868909
Indiana,Carroll,591,14,13,0,2020-11-18,40.580783200000006,-86.56198812
Indiana,Cass,2802,22,29,2,2020-11-18,40.76135835,-86.34830753
Indiana,Clark,4440,70,74,0,2020-11-18,38.48015445,-85.70510334
Indiana,Clay,908,13,21,0,2020-11-18,39.39561833,-87.11723506
Indiana,Clinton,1561,49,20,1,2020-11-18,40.30319754,-86.47277257
Indiana,Crawford,244,5,1,0,2020-11-18,38.28814402,-86.44518825
Indiana,Daviess,1321,37,42,0,2020-11-18,38.70186039,-87.07185406
Indiana,Dearborn,1816,50,29,1,2020-11-18,39.14647946,-84.97333539
Indiana,Decatur,1085,15,42,1,2020-11-18,39.30712658,-85.50087166
Indiana,DeKalb,1508,60,23,2,2020-11-18,41.39804622,-84.99906934
Indiana,Delaware,4332,88,99,0,2020-11-18,40.22787247,-85.39732772
Indiana,Dubois,2143,39,29,0,2020-11-18,38.36597551,-86.87924170000002
Indiana,Elkhart,15176,298,197,3,2020-11-18,41.59761169,-85.85875695
Indiana,Fayette,1317,28,31,3,2020-11-18,39.63684962,-85.17797541
Indiana,Floyd,2772,57,77,0,2020-11-18,38.32117957,-85.90385377
Indiana,Fountain,647,9,7,0,2020-11-18,40.12361933,-87.24217689
Indiana,Franklin,571,12,25,0,2020-11-18,39.4142482,-85.06062647
Indiana,Fulton,714,8,17,1,2020-11-18,41.0469907,-86.26252745
Indiana,Gibson,1561,48,19,0,2020-11-18,38.30393723,-87.58054938
Indiana,Grant,2212,69,46,0,2020-11-18,40.51587228,-85.65468702
Indiana,Greene,899,10,52,1,2020-11-18,39.03630547,-86.96223202
Indiana,Hamilton,10904,256,155,1,2020-11-18,40.07306535,-86.05244729
Indiana,Hancock,2170,68,48,0,2020-11-18,39.82304555,-85.77566351
Indiana,Harrison,1229,27,24,0,2020-11-18,38.19467379,-86.10948271
Indiana,Hendricks,5113,140,152,-1,2020-11-18,39.76719009,-86.51037283
Indiana,Henry,2130,26,35,1,2020-11-18,39.93029017,-85.39625719
Indiana,Howard,2603,69,73,0,2020-11-18,40.48527731,-86.11351892
Indiana,Huntington,994,65,7,0,2020-11-18,40.82907273,-85.48822092
Indiana,Jackson,1823,43,31,0,2020-11-18,38.90915820000001,-86.03851889
Indiana,Jasper,1217,21,8,0,2020-11-18,41.02078733,-87.11553319
Indiana,Jay,803,30,10,0,2020-11-18,40.43781032,-85.00576229
Indiana,Jefferson,906,62,14,1,2020-11-18,38.78576239,-85.43633383
Indiana,Jennings,713,28,13,0,2020-11-18,38.99588883,-85.62710784
Indiana,Johnson,5387,142,160,0,2020-11-18,39.48994426,-86.10149107
Indiana,Knox,1545,41,14,1,2020-11-18,38.68861576,-87.4194665
Indiana,Kosciusko,3765,103,39,0,2020-11-18,41.24521668,-85.86312322
Indiana,LaGrange,1267,22,24,0,2020-11-18,41.64232188,-85.42674232
Indiana,Lake,23953,365,430,7,2020-11-18,41.41874274,-87.38277575
Indiana,LaPorte,4001,103,84,1,2020-11-18,41.54366008,-86.74072188
Indiana,Lawrence,1583,36,43,0,2020-11-18,38.84112637,-86.48361629
Indiana,Madison,4183,114,118,5,2020-11-18,40.16143691,-85.71964711
Indiana,Marion,37552,678,828,1,2020-11-18,39.78163624,-86.13826325
Indiana,Marshall,2637,79,38,0,2020-11-18,41.32467367,-86.26185087
Indiana,Martin,304,11,2,0,2020-11-18,38.7099921,-86.80373186
Indiana,Miami,1289,59,11,1,2020-11-18,40.76940965,-86.04525048
Indiana,Monroe,4713,120,43,1,2020-11-18,39.16130004,-86.52414358
Indiana,Montgomery,1154,10,24,0,2020-11-18,40.04034823,-86.89335024
Indiana,Morgan,1787,40,42,0,2020-11-18,39.47899078,-86.44573375
Indiana,Newton,484,8,12,0,2020-11-18,40.95610449,-87.39635768
Indiana,Noble,2186,57,44,0,2020-11-18,41.39672484,-85.41966713
Indiana,Ohio,209,8,7,0,2020-11-18,38.955305,-84.96515993
Indiana,Orange,601,9,28,0,2020-11-18,38.54118920000001,-86.49523093
Indiana,Owen,495,15,6,2,2020-11-18,39.31145587,-86.83900724
Indiana,Parke,442,17,6,0,2020-11-18,39.77202286,-87.20375833
Indiana,Perry,762,10,21,1,2020-11-18,38.07809328,-86.63741946
Indiana,Pike,471,7,18,0,2020-11-18,38.40112197,-87.23574907
Indiana,Porter,6992,146,69,1,2020-11-18,41.45986947,-87.06848888
Indiana,Posey,1096,20,13,0,2020-11-18,38.02097333,-87.86480429
Indiana,Pulaski,335,8,10,0,2020-11-18,41.04166107,-86.69890683
Indiana,Putnam,1046,9,24,0,2020-11-18,39.66437981,-86.84517605
Indiana,Randolph,1024,31,13,0,2020-11-18,40.15734772,-85.01139319
Indiana,Ripley,1054,36,13,0,2020-11-18,39.10235626,-85.26212744
Indiana,Rush,455,5,6,0,2020-11-18,39.62002287,-85.4655599
Indiana,St. Joseph,14965,265,204,5,2020-11-18,41.61756781,-86.29040834
Indiana,Scott,823,22,17,0,2020-11-18,38.68672078,-85.74627859
Indiana,Shelby,1550,30,49,0,2020-11-18,39.52305623,-85.79158570000001
Indiana,Spencer,718,12,7,0,2020-11-18,38.01519732,-87.0079644
Indiana,Starke,804,16,19,2,2020-11-18,41.27890281,-86.64686895
Indiana,Steuben,1233,49,13,0,2020-11-18,41.64423868,-85.00101094
Indiana,Sullivan,733,27,15,0,2020-11-18,39.08952258,-87.41414469
Indiana,Switzerland,225,8,3,2,2020-11-18,38.82767338,-85.03022429
Indiana,Tippecanoe,7153,172,24,1,2020-11-18,40.38872739,-86.89413959
Indiana,Tipton,468,11,25,0,2020-11-18,40.31123252,-86.05234925
Indiana,Union,235,4,1,0,2020-11-18,39.62550777,-84.92497066
Indiana,Vanderburgh,8637,115,108,1,2020-11-18,38.02658833,-87.58763124
Indiana,Vermillion,478,8,2,0,2020-11-18,39.8523352,-87.46160542
Indiana,Vigo,5087,94,69,0,2020-11-18,39.42944561,-87.39169027
Indiana,Wabash,1243,62,17,0,2020-11-18,40.84704239,-85.79328272
Indiana,Warren,193,8,2,0,2020-11-18,40.34728141,-87.35602659
Indiana,Warrick,2900,36,71,0,2020-11-18,38.08922676,-87.2716085
Indiana,Washington,602,12,5,0,2020-11-18,38.60219804,-86.1049363
Indiana,Wayne,2577,78,52,1,2020-11-18,39.8633444,-85.01044989
Indiana,Wells,1048,88,21,1,2020-11-18,40.72934187,-85.22132966
Indiana,White,1052,22,19,0,2020-11-18,40.74911165,-86.86492015
Indiana,Whitley,1107,45,8,0,2020-11-18,41.13863784,-85.50791236
Iowa,Adair,377,18,5,0,2020-11-18,41.33075609,-94.47105874
Iowa,Adams,143,3,1,0,2020-11-18,41.02903567,-94.69932645
Iowa,Allamakee,663,23,9,0,2020-11-18,43.28383218,-91.37860922
Iowa,Appanoose,665,18,5,1,2020-11-18,40.74324454,-92.86865906
Iowa,Audubon,270,1,1,0,2020-11-18,41.6844628,-94.90581859
Iowa,Benton,1456,36,12,0,2020-11-18,42.08011739,-92.06463573
Iowa,Black Hawk,9615,200,124,2,2020-11-18,42.4704581,-92.30524729
Iowa,Boone,1180,47,10,0,2020-11-18,42.03657094,-93.9313999
Iowa,Bremer,1611,36,12,0,2020-11-18,42.77461496,-92.31795937
Iowa,Buchanan,997,34,7,0,2020-11-18,42.4709188,-91.83510825
Iowa,Buena Vista,2790,27,14,1,2020-11-18,42.73545875,-95.15100162
Iowa,Butler,827,27,3,0,2020-11-18,42.73172833,-92.79015971
Iowa,Calhoun,927,14,7,1,2020-11-18,42.38521079,-94.64046046
Iowa,Carroll,1792,18,15,1,2020-11-18,42.03617207,-94.86032705
Iowa,Cass,678,13,18,1,2020-11-18,41.33149454,-94.92792482
Iowa,Cedar,903,15,13,0,2020-11-18,41.77233777,-91.13246684
Iowa,Cerro Gordo,2924,97,37,2,2020-11-18,43.08177563,-93.2612239
Iowa,Cherokee,680,9,4,0,2020-11-18,42.73538914,-95.62389402
Iowa,Chickasaw,701,46,2,0,2020-11-18,43.06001295,-92.31773347
Iowa,Clarke,446,9,4,0,2020-11-18,41.02868181,-93.78499767
Iowa,Clay,949,16,4,0,2020-11-18,43.08247182,-95.15096481
Iowa,Clayton,914,26,4,0,2020-11-18,42.84443388,-91.34133693
Iowa,Clinton,2791,73,37,1,2020-11-18,41.89981633,-90.53275096
Iowa,Crawford,1641,14,15,0,2020-11-18,42.03718237,-95.3819718
Iowa,Dallas,5578,92,54,0,2020-11-18,41.68560356,-94.04127625
Iowa,Davis,389,14,4,0,2020-11-18,40.74773536,-92.41005468
Iowa,Decatur,279,7,0,0,2020-11-18,40.73742757,-93.78645949
Iowa,Delaware,1276,35,20,0,2020-11-18,42.47104597,-91.3664492
Iowa,Des Moines,2477,85,15,0,2020-11-18,40.92012606,-91.18326592
Iowa,Dickinson,1133,9,9,0,2020-11-18,43.37787725,-95.1510206
Iowa,Dubuque,8200,132,88,2,2020-11-18,42.46815349,-90.88181925
Iowa,Emmet,647,9,23,0,2020-11-18,43.37782951,-94.67858943
Iowa,Fayette,884,26,8,0,2020-11-18,42.86271799,-91.8441231
Iowa,Floyd,826,27,13,1,2020-11-18,43.06000529999999,-92.78940097
Iowa,Franklin,634,38,19,0,2020-11-18,42.73270384,-93.26256925
Iowa,Fremont,321,8,2,0,2020-11-18,40.74542720000001,-95.60129045
Iowa,Greene,446,18,0,0,2020-11-18,42.03614551,-94.39658081
Iowa,Grundy,709,17,10,3,2020-11-18,42.40183723,-92.78829551
Iowa,Guthrie,648,10,15,0,2020-11-18,41.68378965,-94.50111014
Iowa,Hamilton,877,35,6,0,2020-11-18,42.38382428,-93.70197703
Iowa,Hancock,733,32,6,0,2020-11-18,43.08178477,-93.73454884
Iowa,Hardin,972,37,10,0,2020-11-18,42.38353877,-93.23654611
Iowa,Harrison,952,16,26,0,2020-11-18,41.68330137,-95.81558439
Iowa,Henry,1608,36,7,0,2020-11-18,40.98767962,-91.54436349
Iowa,Howard,449,26,9,0,2020-11-18,43.35671042,-92.31702714
Iowa,Humboldt,616,19,4,0,2020-11-18,42.7764426,-94.20722537
Iowa,Ida,411,7,8,1,2020-11-18,42.38696136,-95.51355387
Iowa,Iowa,799,15,11,0,2020-11-18,41.68630265,-92.0643373
Iowa,Jackson,1270,26,8,1,2020-11-18,42.17178824,-90.57354837
Iowa,Jasper,1919,43,37,1,2020-11-18,41.68576082,-93.05567785
Iowa,Jefferson,552,25,1,0,2020-11-18,41.03192394,-91.94849466
Iowa,Johnson,8556,123,35,0,2020-11-18,41.67169354,-91.58754744
Iowa,Jones,2048,50,9,1,2020-11-18,42.12118609,-91.13139641
Iowa,Keokuk,467,18,5,2,2020-11-18,41.33649833,-92.1785067
Iowa,Kossuth,831,28,3,0,2020-11-18,43.20405458,-94.20691791
Iowa,Lee,1757,61,14,0,2020-11-18,40.64181461,-91.48183025
Iowa,Linn,12407,245,150,0,2020-11-18,42.07923082,-91.59809485
Iowa,Louisa,748,13,16,0,2020-11-18,41.21842119,-91.26102611
Iowa,Lucas,291,3,6,0,2020-11-18,41.02958964,-93.32780803
Iowa,Lyon,874,15,8,0,2020-11-18,43.38107862,-96.20926845
Iowa,Madison,598,14,4,0,2020-11-18,41.33081904,-94.01554631
Iowa,Mahaska,1119,13,26,0,2020-11-18,41.33521503,-92.64083907
Iowa,Marion,1763,49,17,0,2020-11-18,41.33445101,-93.09934783
Iowa,Marshall,3114,37,40,1,2020-11-18,42.03586837,-92.9990819
Iowa,Mills,886,23,6,1,2020-11-18,41.03299766,-95.61920963
Iowa,Mitchell,641,19,4,0,2020-11-18,43.35638371,-92.78887719
Iowa,Monona,354,7,2,0,2020-11-18,42.05220391,-95.95743843
Iowa,Monroe,392,8,12,0,2020-11-18,41.02988815,-92.8690667
Iowa,Montgomery,389,20,10,0,2020-11-18,41.03018714,-95.15642896
Iowa,Muscatine,2469,60,62,0,2020-11-18,41.48370744,-91.1121697
Iowa,O'Brien,1132,16,26,0,2020-11-18,43.08310673,-95.62474482
Iowa,Osceola,461,12,0,0,2020-11-18,43.37824276,-95.62422844
Iowa,Page,1031,17,3,0,2020-11-18,40.7393172,-95.1497813
Iowa,Palo Alto,565,45,3,0,2020-11-18,43.08193849,-94.67824621
Iowa,Plymouth,2458,44,36,2,2020-11-18,42.737633,-96.21366621
Iowa,Pocahontas,485,10,2,0,2020-11-18,42.73420133,-94.67862564
Iowa,Polk,29223,513,315,5,2020-11-18,41.68679484,-93.57767461
Iowa,Pottawattamie,5234,154,61,3,2020-11-18,41.33640314,-95.53907776
Iowa,Poweshiek,854,15,12,0,2020-11-18,41.68625425,-92.53155731
Iowa,Ringgold,154,2,2,0,2020-11-18,40.73518949,-94.24368535
Iowa,Sac,717,23,7,0,2020-11-18,42.38624071,-95.10547892
Iowa,Scott,9208,246,66,2,2020-11-18,41.63935978,-90.61959493
Iowa,Shelby,679,19,3,0,2020-11-18,41.6850066,-95.31015553
Iowa,Sioux,3350,61,22,0,2020-11-18,43.08221074,-96.1767568
Iowa,Story,5905,172,19,0,2020-11-18,42.03621213,-93.46499005
Iowa,Tama,1388,22,39,0,2020-11-18,42.07991767,-92.53266945
Iowa,Taylor,393,9,2,0,2020-11-18,40.73710579,-94.69778563
Iowa,Union,611,33,6,0,2020-11-18,41.0277278,-94.24234847
Iowa,Van Buren,310,11,4,0,2020-11-18,40.75326764,-91.95017958
Iowa,Wapello,2240,28,70,0,2020-11-18,41.03064984,-92.40954728
Iowa,Warren,2328,50,9,0,2020-11-18,41.33559454,-93.56007641
Iowa,Washington,1182,36,12,0,2020-11-18,41.33577126,-91.71725711
Iowa,Wayne,268,3,6,0,2020-11-18,40.73969028,-93.32752197
Iowa,Webster,3119,66,27,0,2020-11-18,42.42853483,-94.17987389
Iowa,Winnebago,805,21,23,1,2020-11-18,43.37751174,-93.73407298
Iowa,Winneshiek,805,20,9,0,2020-11-18,43.29094334,-91.84422722
Iowa,Woodbury,9488,126,109,0,2020-11-18,42.38979414,-96.0459439
Iowa,Worth,291,8,0,0,2020-11-18,43.37750768,-93.26087602
Iowa,Wright,1088,39,4,1,2020-11-18,42.73305373,-93.73515113
Kansas,Allen,283,27,1,0,2020-11-18,37.88582951,-95.30030847
Kansas,Anderson,329,6,0,0,2020-11-18,38.21413251,-95.29272815
Kansas,Atchison,736,24,9,0,2020-11-18,39.53185661,-95.30870026
Kansas,Barber,164,6,0,0,2020-11-18,37.2288586,-98.68460053
Kansas,Barton,1372,69,13,0,2020-11-18,38.47889676,-98.75636726
Kansas,Bourbon,438,43,3,0,2020-11-18,37.85508555,-94.84865997
Kansas,Brown,554,48,6,0,2020-11-18,39.82652589,-95.56421698
Kansas,Butler,2654,119,7,1,2020-11-18,37.78134351,-96.83878537
Kansas,Chase,139,0,3,0,2020-11-18,38.30292938,-96.59563862
Kansas,Chautauqua,54,9,0,0,2020-11-18,37.14994405,-96.2454192
Kansas,Cherokee,999,68,8,0,2020-11-18,37.16928494,-94.8462897
Kansas,Cheyenne,189,6,8,0,2020-11-18,39.78580976,-101.7318201
Kansas,Clark,95,4,4,0,2020-11-18,37.23577007,-99.81883015
Kansas,Clay,381,70,9,1,2020-11-18,39.34948772,-97.16518128
Kansas,Cloud,469,30,4,0,2020-11-18,39.48028352,-97.64925343
Kansas,Coffey,258,7,9,0,2020-11-18,38.2365018,-95.73379515
Kansas,Comanche,35,4,0,0,2020-11-18,37.19114520000001,-99.27113247
Kansas,Cowley,1198,94,10,0,2020-11-18,37.23781842,-96.83776647
Kansas,Crawford,2026,82,14,0,2020-11-18,37.50675523,-94.85245778
Kansas,Decatur,189,1,1,0,2020-11-18,39.78468441,-100.4594081
Kansas,Dickinson,634,38,6,0,2020-11-18,38.86600962,-97.15532383
Kansas,Doniphan,363,19,2,0,2020-11-18,39.79067154,-95.14056866
Kansas,Douglas,4035,56,20,0,2020-11-18,38.88503636,-95.2925121
Kansas,Edwards,149,20,0,0,2020-11-18,37.88735543,-99.31263309
Kansas,Elk,36,3,0,0,2020-11-18,37.45338105,-96.24369667
Kansas,Ellis,1981,73,21,1,2020-11-18,38.91458712,-99.31751551
Kansas,Ellsworth,523,21,4,1,2020-11-18,38.69677695,-98.20462799
Kansas,Finney,4243,81,23,0,2020-11-18,38.04340344,-100.7381938
Kansas,Ford,4336,111,13,0,2020-11-18,37.69200114,-99.88825298
Kansas,Franklin,919,32,13,0,2020-11-18,38.56443815,-95.28644341
Kansas,Geary,748,22,5,0,2020-11-18,38.99871131,-96.7577178
Kansas,Gove,260,9,19,0,2020-11-18,38.91588178,-100.4829321
Kansas,Graham,117,4,2,0,2020-11-18,39.34987223,-99.88332493
Kansas,Grant,632,10,10,0,2020-11-18,37.56227336,-101.3079758
Kansas,Gray,383,70,4,0,2020-11-18,37.73836671,-100.4369088
Kansas,Greeley,79,10,0,0,2020-11-18,38.4808095,-101.8061079
Kansas,Greenwood,161,0,0,0,2020-11-18,37.8774388,-96.23250453
Kansas,Hamilton,115,14,0,0,2020-11-18,37.99978709,-101.7921066
Kansas,Harper,262,9,5,1,2020-11-18,37.19175361,-98.07578384
Kansas,Harvey,1482,109,8,0,2020-11-18,38.04293782,-97.42747573
Kansas,Haskell,229,6,1,0,2020-11-18,37.5620394,-100.8710738
Kansas,Hodgeman,118,6,0,0,2020-11-18,38.08780079,-99.89829881
Kansas,Jackson,539,24,4,0,2020-11-18,39.41673394,-95.79356799
Kansas,Jefferson,568,43,6,0,2020-11-18,39.2347941,-95.38289232
Kansas,Jewell,43,0,1,0,2020-11-18,39.78470589,-98.21820662
Kansas,Johnson,22826,845,252,-1,2020-11-18,38.88548175,-94.82250877
Kansas,Kearny,280,21,8,0,2020-11-18,38.00017981,-101.321681
Kansas,Kingman,268,14,3,0,2020-11-18,37.55909527,-98.13638678
Kansas,Kiowa,100,0,0,0,2020-11-18,37.55848695,-99.2856537
Kansas,Labette,721,49,6,0,2020-11-18,37.19113093,-95.29849679
Kansas,Lane,55,3,0,0,2020-11-18,38.48119447,-100.4660754
Kansas,Leavenworth,3297,89,27,1,2020-11-18,39.20183497,-95.03620809
Kansas,Lincoln,47,8,1,0,2020-11-18,39.04549684,-98.20756994
Kansas,Linn,237,20,1,0,2020-11-18,38.21267844,-94.84254089
Kansas,Logan,199,6,0,0,2020-11-18,38.91735806,-101.148475
Kansas,Lyon,2118,141,41,0,2020-11-18,38.45576156,-96.15275715
Kansas,McPherson,1063,0,8,0,2020-11-18,38.39184858,-97.64769869
Kansas,Marion,357,23,1,0,2020-11-18,38.35855394,-97.0985251
Kansas,Marshall,321,31,0,0,2020-11-18,39.78359669,-96.52278974
Kansas,Meade,261,32,2,0,2020-11-18,37.23859987,-100.364831
Kansas,Miami,823,37,2,0,2020-11-18,38.56383358,-94.83832189
Kansas,Mitchell,157,21,0,0,2020-11-18,39.39331582,-98.20906732
Kansas,Montgomery,940,61,6,0,2020-11-18,37.19236568,-95.74329258
Kansas,Morris,143,7,1,0,2020-11-18,38.68827511,-96.65128437
Kansas,Morton,105,0,3,0,2020-11-18,37.19141121,-101.79925190000002
Kansas,Nemaha,826,12,6,0,2020-11-18,39.78345387,-96.01392079
Kansas,Neosho,558,7,0,0,2020-11-18,37.55862897,-95.30670046
Kansas,Ness,217,13,10,0,2020-11-18,38.47974157,-99.91547333
Kansas,Norton,1025,11,21,0,2020-11-18,39.78443827,-99.90286639
Kansas,Osage,390,29,6,0,2020-11-18,38.65235984,-95.72707998
Kansas,Osborne,56,8,0,0,2020-11-18,39.3503437,-98.76753828
Kansas,Ottawa,184,15,0,0,2020-11-18,39.13237408,-97.65020313
Kansas,Pawnee,549,21,1,0,2020-11-18,38.18108732,-99.23692334
Kansas,Phillips,338,15,10,0,2020-11-18,39.78465501,-99.34668865
Kansas,Pottawatomie,590,16,2,2,2020-11-18,39.37925655,-96.34564657
Kansas,Pratt,416,26,1,0,2020-11-18,37.64780729,-98.73922153
Kansas,Rawlins,159,1,0,0,2020-11-18,39.78525843,-101.0761617
Kansas,Reno,3969,245,37,0,2020-11-18,37.95230263,-98.08607292
Kansas,Republic,207,19,1,0,2020-11-18,39.82799632,-97.65036709
Kansas,Rice,314,30,1,0,2020-11-18,38.34616184,-98.19992118
Kansas,Riley,2987,0,14,0,2020-11-18,39.28935726,-96.73420026
Kansas,Rooks,284,23,7,0,2020-11-18,39.35022773,-99.32484567
Kansas,Rush,166,10,0,0,2020-11-18,38.52275276,-99.30863983
Kansas,Russell,391,12,8,0,2020-11-18,38.91462787,-98.76254297
Kansas,Saline,1850,121,17,0,2020-11-18,38.78369175,-97.65185177
Kansas,Scott,312,22,2,0,2020-11-18,38.48222076,-100.9066539
Kansas,Sedgwick,22390,1135,141,1,2020-11-18,37.6842718,-97.4608198
Kansas,Seward,2566,0,13,0,2020-11-18,37.19324632,-100.8507201
Kansas,Shawnee,6097,305,97,2,2020-11-18,39.04100763,-95.7557264
Kansas,Sheridan,283,9,0,0,2020-11-18,39.35018161,-100.4418259
Kansas,Sherman,371,15,7,0,2020-11-18,39.35147699,-101.7197624
Kansas,Smith,95,9,1,1,2020-11-18,39.78516566,-98.78566062
Kansas,Stafford,168,12,1,0,2020-11-18,38.03100851,-98.71762001
Kansas,Stanton,125,4,2,0,2020-11-18,37.56304714,-101.7843534
Kansas,Stevens,379,15,2,0,2020-11-18,37.1923008,-101.3118967
Kansas,Sumner,627,27,4,0,2020-11-18,37.23682549,-97.47721621
Kansas,Thomas,572,5,2,0,2020-11-18,39.35107575,-101.0553705
Kansas,Trego,175,5,3,0,2020-11-18,38.91467218,-99.87284448
Kansas,Wabaunsee,266,14,1,0,2020-11-18,38.95471985,-96.20350509
Kansas,Wallace,128,4,0,0,2020-11-18,38.91686134,-101.7638876
Kansas,Washington,239,8,5,0,2020-11-18,39.78420784,-97.0875323
Kansas,Wichita,104,8,1,0,2020-11-18,38.48178252,-101.3471509
Kansas,Wilson,220,0,4,0,2020-11-18,37.55937174,-95.74323255
Kansas,Woodson,53,5,0,0,2020-11-18,37.8865336,-95.74006277
Kansas,Wyandotte,10235,271,167,0,2020-11-18,39.11727348,-94.76378225
Kentucky,Adair,630,7,23,0,2020-11-18,37.10459774,-85.28129668
Kentucky,Allen,634,3,12,0,2020-11-18,36.75197631,-86.19457544
Kentucky,Anderson,397,6,1,0,2020-11-18,38.00671029,-84.99171713
Kentucky,Ballard,117,1,2,1,2020-11-18,37.05842757,-88.99427697
Kentucky,Barren,1733,25,24,1,2020-11-18,36.96469836,-85.93338945
Kentucky,Bath,208,3,1,0,2020-11-18,38.14735938,-83.74588932
Kentucky,Bell,1099,13,18,0,2020-11-18,36.73355174,-83.67766671
Kentucky,Boone,3496,101,25,0,2020-11-18,38.97065142,-84.72615357
Kentucky,Bourbon,455,16,1,0,2020-11-18,38.2054607,-84.21827874
Kentucky,Boyd,1089,37,23,0,2020-11-18,38.36176608,-82.68652187
Kentucky,Boyle,714,10,0,0,2020-11-18,37.62680923,-84.8633779
Kentucky,Bracken,114,2,3,0,2020-11-18,38.69158994,-84.08532444
Kentucky,Breathitt,274,17,3,0,2020-11-18,37.52333168,-83.31959161
Kentucky,Breckinridge,389,12,3,0,2020-11-18,37.77377239,-86.42885017
Kentucky,Bullitt,2341,69,21,0,2020-11-18,37.97162523,-85.68955617
Kentucky,Butler,487,7,16,0,2020-11-18,37.20946153,-86.68748787
Kentucky,Caldwell,449,9,1,1,2020-11-18,37.14749129,-87.86948214
Kentucky,Calloway,1410,14,12,1,2020-11-18,36.62093411,-88.2731593
Kentucky,Campbell,2215,71,15,0,2020-11-18,38.94384345,-84.37875208
Kentucky,Carlisle,161,5,1,0,2020-11-18,36.85372876,-88.96692220000001
Kentucky,Carroll,280,7,6,0,2020-11-18,38.66599534,-85.12601074
Kentucky,Carter,552,14,4,0,2020-11-18,38.31690743,-83.05092385
Kentucky,Casey,422,17,16,0,2020-11-18,37.32533118,-84.92726209
Kentucky,Christian,2574,87,37,2,2020-11-18,36.89267803,-87.49055367
Kentucky,Clark,711,6,12,0,2020-11-18,37.9689263,-84.14615986
Kentucky,Clay,825,14,8,1,2020-11-18,37.16451126,-83.712575
Kentucky,Clinton,334,6,4,0,2020-11-18,36.72581156,-85.13377529
Kentucky,Crittenden,210,2,1,0,2020-11-18,37.35839237,-88.08826090000002
Kentucky,Cumberland,197,6,0,0,2020-11-18,36.78926125,-85.39050034
Kentucky,Daviess,2846,59,39,0,2020-11-18,37.73028906,-87.09019479999998
Kentucky,Edmonson,296,16,12,0,2020-11-18,37.21218923,-86.23955613
Kentucky,Elliott,527,9,0,0,2020-11-18,38.11624059,-83.09771563
Kentucky,Estill,389,7,0,0,2020-11-18,37.69241417,-83.95956369
Kentucky,Fayette,14485,185,100,1,2020-11-18,38.0368225,-84.45576892
Kentucky,Fleming,256,6,0,0,2020-11-18,38.36758311,-83.69657514
Kentucky,Floyd,929,13,5,0,2020-11-18,37.56213922,-82.74750924
Kentucky,Franklin,1146,11,14,0,2020-11-18,38.2379395,-84.87962551
Kentucky,Fulton,266,4,3,0,2020-11-18,36.55238827,-89.20140068
Kentucky,Gallatin,173,1,8,0,2020-11-18,38.75398691,-84.8558382
Kentucky,Garrard,459,8,4,0,2020-11-18,37.6388668,-84.53289319
Kentucky,Grant,494,21,6,0,2020-11-18,38.64962758,-84.62415957
Kentucky,Graves,1396,13,33,0,2020-11-18,36.72292505,-88.65143315
Kentucky,Grayson,779,11,19,0,2020-11-18,37.46231118,-86.34248968
Kentucky,Green,423,8,10,0,2020-11-18,37.26484328,-85.5540745
Kentucky,Greenup,987,20,12,0,2020-11-18,38.54332505,-82.9215658
Kentucky,Hancock,254,6,8,1,2020-11-18,37.83766422,-86.78280584
Kentucky,Hardin,3405,63,24,0,2020-11-18,37.6976111,-85.96319251
Kentucky,Harlan,759,9,15,0,2020-11-18,36.85699301,-83.21899516
Kentucky,Harrison,366,7,1,0,2020-11-18,38.44188174,-84.32869741
Kentucky,Hart,642,10,3,0,2020-11-18,37.29943898,-85.88461055
Kentucky,Henderson,1782,47,33,0,2020-11-18,37.79344553,-87.57392021
Kentucky,Henry,417,4,3,0,2020-11-18,38.44942688,-85.11587507
Kentucky,Hickman,133,1,1,0,2020-11-18,36.67948079999999,-88.97875928
Kentucky,Hopkins,1510,45,44,0,2020-11-18,37.30939025,-87.54670406
Kentucky,Jackson,594,13,17,0,2020-11-18,37.41866422,-83.99825483
Kentucky,Jefferson,30695,525,414,2,2020-11-18,38.18664655,-85.65931031
Kentucky,Jessamine,1429,32,27,0,2020-11-18,37.87119786,-84.58252003
Kentucky,Johnson,621,9,2,0,2020-11-18,37.85106355,-82.8264322
Kentucky,Kenton,4246,91,52,0,2020-11-18,38.93950319,-84.53241199
Kentucky,Knott,477,7,9,0,2020-11-18,37.35388197,-82.94981134
Kentucky,Knox,1066,20,10,0,2020-11-18,36.89225732,-83.85403396
Kentucky,Larue,452,8,1,0,2020-11-18,37.54567114,-85.70138352
Kentucky,Laurel,2124,47,11,0,2020-11-18,37.10975748,-84.11321779
Kentucky,Lawrence,299,13,1,0,2020-11-18,38.07136018,-82.72882223
Kentucky,Lee,604,34,11,0,2020-11-18,37.59645942,-83.71513901
Kentucky,Leslie,176,4,1,0,2020-11-18,37.09246661,-83.37999606
Kentucky,Letcher,422,4,2,0,2020-11-18,37.12306748,-82.85346474
Kentucky,Lewis,428,6,18,0,2020-11-18,38.53184419,-83.37735618
Kentucky,Lincoln,501,7,20,0,2020-11-18,37.45475628,-84.6565327
Kentucky,Livingston,222,4,2,0,2020-11-18,37.21137452,-88.34797529
Kentucky,Logan,1014,16,33,0,2020-11-18,36.85949479,-86.877635
Kentucky,Lyon,161,0,5,0,2020-11-18,37.02080035,-88.07886257
Kentucky,McCracken,2008,54,13,1,2020-11-18,37.05350953,-88.70445755
Kentucky,McCreary,321,6,1,0,2020-11-18,36.73874143,-84.48102924
Kentucky,McLean,326,6,12,0,2020-11-18,37.5301951,-87.26803443
Kentucky,Madison,3164,77,16,0,2020-11-18,37.71659336,-84.27220275
Kentucky,Magoffin,343,11,1,0,2020-11-18,37.70820545,-83.0657714
Kentucky,Marion,771,18,12,0,2020-11-18,37.55218078,-85.26898542
Kentucky,Marshall,777,22,10,1,2020-11-18,36.88007070000001,-88.32803576
Kentucky,Martin,340,3,5,0,2020-11-18,37.79990579,-82.51247478
Kentucky,Mason,291,3,2,0,2020-11-18,38.59471935,-83.82151043
Kentucky,Meade,562,4,4,0,2020-11-18,37.96163597,-86.21028219
Kentucky,Menifee,108,0,1,0,2020-11-18,37.94090733,-83.59985712
Kentucky,Mercer,541,9,6,0,2020-11-18,37.81474237,-84.87488475
Kentucky,Metcalfe,324,4,2,0,2020-11-18,36.99459295,-85.63123699
Kentucky,Monroe,625,15,6,0,2020-11-18,36.71225341,-85.71596443
Kentucky,Montgomery,747,15,8,0,2020-11-18,38.03253032,-83.9145241
Kentucky,Morgan,232,2,0,0,2020-11-18,37.92465657,-83.25558245
Kentucky,Muhlenberg,1193,34,19,0,2020-11-18,37.21425819,-87.14632053
Kentucky,Nelson,1736,30,5,1,2020-11-18,37.80335779,-85.4657193
Kentucky,Nicholas,146,0,3,0,2020-11-18,38.33342292,-84.01889177
Kentucky,Ohio,800,11,14,0,2020-11-18,37.47751843,-86.85368087
Kentucky,Oldham,1844,33,30,0,2020-11-18,38.39791089,-85.448222
Kentucky,Owen,162,1,3,0,2020-11-18,38.51679143,-84.82404619
Kentucky,Owsley,150,6,1,0,2020-11-18,37.42823949,-83.68811419
Kentucky,Pendleton,249,14,1,0,2020-11-18,38.69607718,-84.35599463
Kentucky,Perry,804,14,10,0,2020-11-18,37.25023553,-83.22922731
Kentucky,Pike,1499,19,12,1,2020-11-18,37.47088263,-82.39487445
Kentucky,Powell,335,11,0,0,2020-11-18,37.83218794,-83.82553961
Kentucky,Pulaski,1294,35,13,0,2020-11-18,37.10466131,-84.57629079
Kentucky,Robertson,63,0,2,0,2020-11-18,38.51923469,-84.05055616
Kentucky,Rockcastle,451,0,5,0,2020-11-18,37.36642393,-84.31176452
Kentucky,Rowan,611,7,2,0,2020-11-18,38.19484205,-83.42088935
Kentucky,Russell,480,4,7,0,2020-11-18,36.99308373,-85.06070117
Kentucky,Scott,1470,18,20,0,2020-11-18,38.29622293,-84.5816631
Kentucky,Shelby,1919,26,25,0,2020-11-18,38.21476019,-85.194223
Kentucky,Simpson,500,10,8,0,2020-11-18,36.74058474,-86.58047435
Kentucky,Spencer,508,4,1,0,2020-11-18,38.03223971,-85.32749335
Kentucky,Taylor,746,15,7,0,2020-11-18,37.3677562,-85.3329931
Kentucky,Todd,362,4,13,0,2020-11-18,36.8381152,-87.17878374
Kentucky,Trigg,337,14,1,0,2020-11-18,36.80767017,-87.87333656
Kentucky,Trimble,134,0,0,0,2020-11-18,38.61056487,-85.33775972
Kentucky,Union,647,22,6,0,2020-11-18,37.66166713,-87.94300009
Kentucky,Warren,6388,88,61,0,2020-11-18,36.99903045,-86.42672751
Kentucky,Washington,396,6,2,0,2020-11-18,37.75599461,-85.17407732
Kentucky,Wayne,423,4,2,0,2020-11-18,36.80310688,-84.8251971
Kentucky,Webster,486,10,5,0,2020-11-18,37.52168356,-87.67989953
Kentucky,Whitley,1250,20,8,0,2020-11-18,36.75700531,-84.14541217
Kentucky,Wolfe,145,7,1,0,2020-11-18,37.73941626,-83.49303612
Kentucky,Woodford,578,18,0,0,2020-11-18,38.04178222,-84.7417556
Louisiana,Acadia,3600,13,112,0,2020-11-18,30.2950649,-92.41419698
Louisiana,Allen,1986,5,67,0,2020-11-18,30.65385745,-92.82442028
Louisiana,Ascension,5173,105,104,1,2020-11-18,30.20406249,-90.91328409999998
Louisiana,Assumption,942,6,25,0,2020-11-18,29.89946234,-91.06461642
Louisiana,Avoyelles,1952,10,67,0,2020-11-18,31.07796211,-92.00079449
Louisiana,Beauregard,1216,-7,47,0,2020-11-18,30.64836518,-93.34173616
Louisiana,Bienville,706,13,37,0,2020-11-18,32.34569994,-93.05398492
Louisiana,Bossier,5424,129,141,0,2020-11-18,32.67932307,-93.60460152
Louisiana,Caddo,11799,94,428,1,2020-11-18,32.57991587,-93.88375652
Louisiana,Calcasieu,9743,79,239,0,2020-11-18,30.22931235,-93.35400434
Louisiana,Caldwell,528,11,5,0,2020-11-18,32.0902519,-92.11752148
Louisiana,Cameron,265,-3,3,0,2020-11-18,29.87592238,-93.19310676
Louisiana,Catahoula,543,10,17,0,2020-11-18,31.66778967,-91.84526385
Louisiana,Claiborne,697,1,29,0,2020-11-18,32.82308512,-92.99526883
Louisiana,Concordia,814,10,25,1,2020-11-18,31.44817835,-91.63814433
Louisiana,De Soto,1154,12,37,0,2020-11-18,32.05457447,-93.74130302
Louisiana,East Baton Rouge,18329,204,490,2,2020-11-18,30.53842039,-91.09777565
Louisiana,East Carroll,653,5,7,1,2020-11-18,32.73926954,-91.23425694
Louisiana,East Feliciana,2016,1,83,0,2020-11-18,30.84425359,-91.04976723
Louisiana,Evangeline,1673,5,41,0,2020-11-18,30.72985248,-92.39915924
Louisiana,Franklin,1532,2,55,0,2020-11-18,32.13675181,-91.67589857
Louisiana,Grant,648,11,32,0,2020-11-18,31.59882456,-92.56124347
Louisiana,Iberia,3405,13,103,0,2020-11-18,29.86803617,-91.75871777
Louisiana,Iberville,1696,12,63,1,2020-11-18,30.25734305,-91.3499598
Louisiana,Jackson,1045,7,26,1,2020-11-18,32.30251776,-92.55692092
Louisiana,Jefferson,20543,186,622,1,2020-11-18,29.74075478,-90.11115756
Louisiana,Jefferson Davis,1522,1,47,0,2020-11-18,30.26896765,-92.81210004
Louisiana,Lafayette,10782,102,143,0,2020-11-18,30.2049055,-92.06959876
Louisiana,Lafourche,4372,30,134,-1,2020-11-18,29.52470226,-90.40976986
Louisiana,LaSalle,794,16,20,4,2020-11-18,31.67884782,-92.15907765
Louisiana,Lincoln,2224,55,54,0,2020-11-18,32.6003154,-92.6659741
Louisiana,Livingston,5264,96,87,0,2020-11-18,30.44143993,-90.73061664
Louisiana,Madison,974,4,12,0,2020-11-18,32.36918118,-91.23973355
Louisiana,Morehouse,1102,19,30,0,2020-11-18,32.81686191,-91.80421614
Louisiana,Natchitoches,1811,18,41,1,2020-11-18,31.72321584,-93.09816516
Louisiana,Orleans,14786,75,644,0,2020-11-18,30.06971951,-89.92660315
Louisiana,Ouachita,8617,144,196,2,2020-11-18,32.47645559,-92.15704172
Louisiana,Plaquemines,1036,14,19,0,2020-11-18,29.42245447,-89.60322085
Louisiana,Pointe Coupee,1267,9,48,0,2020-11-18,30.71409502,-91.60209535
Louisiana,Rapides,5780,81,180,1,2020-11-18,31.19778499,-92.52997303
Louisiana,Red River,547,2,26,0,2020-11-18,32.09530039,-93.34213308
Louisiana,Richland,1205,15,24,0,2020-11-18,32.41391005,-91.76634876
Louisiana,Sabine,1276,27,19,1,2020-11-18,31.56388699,-93.55433981
Louisiana,St. Bernard,1697,9,34,0,2020-11-18,29.87761636,-89.51887093
Louisiana,St. Charles,2312,18,70,0,2020-11-18,29.90709658,-90.35555967
Louisiana,St. Helena,494,-2,4,0,2020-11-18,30.82210324,-90.71013176
Louisiana,St. James,922,2,40,0,2020-11-18,30.02531716,-90.80212061
Louisiana,St. John the Baptist,1829,13,114,0,2020-11-18,30.12597499,-90.4753503
Louisiana,St. Landry,4410,55,146,3,2020-11-18,30.59724262,-92.00135806
Louisiana,St. Martin,2513,17,70,0,2020-11-18,30.13112107,-91.61403569
Louisiana,St. Mary,2247,8,94,0,2020-11-18,29.69262097,-91.44702164
Louisiana,St. Tammany,9193,173,285,1,2020-11-18,30.40942847,-89.95642711
Louisiana,Tangipahoa,6009,128,139,2,2020-11-18,30.62888673,-90.40664996
Louisiana,Tensas,203,1,3,0,2020-11-18,32.00760749,-91.32915234
Louisiana,Terrebonne,4223,18,134,2,2020-11-18,29.37343766,-90.82626855
Louisiana,Union,1314,16,56,0,2020-11-18,32.83121059,-92.3749373
Louisiana,Vermilion,2362,15,71,0,2020-11-18,29.83517605,-92.30292538
Louisiana,Vernon,1266,10,61,0,2020-11-18,31.10884837,-93.18153838
Louisiana,Washington,2094,33,74,0,2020-11-18,30.85288548,-90.03866652
Louisiana,Webster,1746,31,49,1,2020-11-18,32.70847669,-93.33121835
Louisiana,West Baton Rouge,1195,25,43,0,2020-11-18,30.46058217,-91.30989571
Louisiana,West Carroll,476,3,19,1,2020-11-18,32.78550125,-91.461201
Louisiana,West Feliciana,777,-6,25,0,2020-11-18,30.87882871,-91.4148538
Louisiana,Winn,861,6,24,1,2020-11-18,31.94449367,-92.63789413
Maine,Androscoggin,1248,17,14,0,2020-11-18,44.1664747,-70.20380627
Maine,Aroostook,88,0,1,0,2020-11-18,46.65926321,-68.59841248
Maine,Cumberland,3361,31,70,0,2020-11-18,43.8370751,-70.37226999
Maine,Franklin,170,7,2,0,2020-11-18,44.97330019,-70.44381045
Maine,Hancock,188,11,1,0,2020-11-18,44.59816444,-68.38401854
Maine,Kennebec,619,16,14,1,2020-11-18,44.40759555,-69.76738544
Maine,Knox,172,0,3,1,2020-11-18,44.11486325,-69.10529169
Maine,Lincoln,117,4,1,0,2020-11-18,44.05996956,-69.54227124
Maine,Oxford,252,4,2,0,2020-11-18,44.49952995,-70.75682123
Maine,Penobscot,533,17,7,0,2020-11-18,45.40194593,-68.65020455
Maine,Piscataquis,28,4,0,0,2020-11-18,45.83839062,-69.2860223
Maine,Sagadahoc,123,1,0,0,2020-11-18,43.95415864,-69.85074999
Maine,Somerset,366,5,12,0,2020-11-18,45.51229767,-69.95995554
Maine,Waldo,199,5,16,0,2020-11-18,44.4858305,-69.12061935
Maine,Washington,159,3,0,0,2020-11-18,45.01607142,-67.62813524
Maine,York,1890,30,27,2,2020-11-18,43.47808377,-70.71052375
Maryland,Allegany,1889,118,39,4,2020-11-18,39.62357628,-78.69280486
Maryland,Anne Arundel,14660,180,288,0,2020-11-18,39.00670238,-76.60329337
Maryland,Baltimore,25253,356,698,3,2020-11-18,39.45784712,-76.62911955
Maryland,Calvert,1402,14,31,1,2020-11-18,38.53961642,-76.56820632
Maryland,Caroline,825,2,9,0,2020-11-18,38.87172293,-75.82904158
Maryland,Carroll,2845,65,132,1,2020-11-18,39.56453592,-77.02373735
Maryland,Cecil,1694,25,37,0,2020-11-18,39.56647682,-75.94627411
Maryland,Charles,3831,41,104,0,2020-11-18,38.51092331,-76.98580666
Maryland,Dorchester,919,1,14,0,2020-11-18,38.45413522,-76.02752426
Maryland,Frederick,5778,75,142,1,2020-11-18,39.47296601,-77.39999394
Maryland,Garrett,366,38,1,0,2020-11-18,39.52786077,-79.27355126
Maryland,Harford,4959,131,88,1,2020-11-18,39.55010644,-76.30775940000002
Maryland,Howard,7005,60,132,0,2020-11-18,39.25305293,-76.93126208
Maryland,Kent,377,1,26,0,2020-11-18,39.24976208,-76.04741541
Maryland,Montgomery,29833,262,916,1,2020-11-18,39.13676329,-77.20358245
Maryland,Prince George's,37184,279,899,5,2020-11-18,38.83070039,-76.8496441
Maryland,Queen Anne's,946,9,27,0,2020-11-18,39.06198912,-76.03530977
Maryland,St. Mary's,1786,15,60,0,2020-11-18,38.30058422,-76.60629279999998
Maryland,Somerset,584,9,8,0,2020-11-18,38.1163542,-75.75118623
Maryland,Talbot,723,4,7,0,2020-11-18,38.76618159,-76.10882561
Maryland,Washington,3187,75,55,1,2020-11-18,39.60835778,-77.82002295
Maryland,Wicomico,2992,36,55,0,2020-11-18,38.37301947,-75.62705831
Maryland,Worcester,1376,-1,33,1,2020-11-18,38.21274277,-75.33200012
Maryland,Baltimore,25253,356,698,3,2020-11-18,39.45784712,-76.62911955
Massachusetts,Barnstable,2426,52,190,2,2020-11-18,41.72980578,-70.28854339
Massachusetts,Berkshire,1151,50,52,0,2020-11-18,42.37428441,-73.20524838
Massachusetts,Bristol,16791,394,815,8,2020-11-18,41.79228404,-71.10872211
Massachusetts,Essex,29983,425,1403,8,2020-11-18,42.6687626,-70.94687179
Massachusetts,Franklin,562,7,75,0,2020-11-18,42.58119713,-72.58602547
Massachusetts,Hampden,13557,239,866,7,2020-11-18,42.13440424,-72.63235561
Massachusetts,Hampshire,1979,61,160,0,2020-11-18,42.33997957,-72.65898478
Massachusetts,Middlesex,39666,549,2366,6,2020-11-18,42.48607732,-71.39049229
Massachusetts,Norfolk,14223,159,1153,2,2020-11-18,42.16073095,-71.20530408
Massachusetts,Plymouth,13260,114,878,4,2020-11-18,41.94070556,-70.80802823
Massachusetts,Suffolk,33695,329,1215,5,2020-11-18,42.3279514,-71.07850442
Massachusetts,Worcester,21240,329,1225,5,2020-11-18,42.35026951,-71.90493363
Michigan,Alcona,120,11,3,0,2020-11-18,44.6846864,-83.59507875
Michigan,Alger,192,15,2,0,2020-11-18,46.41292944,-86.60260122
Michigan,Allegan,3020,75,17,0,2020-11-18,42.59147037,-85.89102866
Michigan,Alpena,381,19,16,0,2020-11-18,45.03477666,-83.62212411
Michigan,Antrim,295,9,4,1,2020-11-18,44.99690221,-85.15503082
Michigan,Arenac,273,17,9,3,2020-11-18,44.0636262,-83.89277559
Michigan,Baraga,354,13,5,0,2020-11-18,46.6720582,-88.36363591
Michigan,Barry,1559,51,11,1,2020-11-18,42.59513984,-85.30834519
Michigan,Bay,3315,129,79,0,2020-11-18,43.70639106,-83.98731479
Michigan,Benzie,249,7,3,0,2020-11-18,44.63899297,-86.01608482
Michigan,Berrien,5046,137,103,0,2020-11-18,41.95447397,-86.41313079999998
Michigan,Branch,1789,59,24,3,2020-11-18,41.91600556,-85.05929476
Michigan,Calhoun,5060,86,105,0,2020-11-18,42.24633834,-85.00493569
Michigan,Cass,1763,30,27,0,2020-11-18,41.91522292,-85.99405727
Michigan,Charlevoix,406,24,5,0,2020-11-18,45.37790017,-85.19614053
Michigan,Cheboygan,362,18,15,0,2020-11-18,45.44787015,-84.50122149
Michigan,Chippewa,597,34,2,0,2020-11-18,46.29552653,-84.54353449
Michigan,Clare,575,11,22,0,2020-11-18,43.98794227,-84.84819859999998
Michigan,Clinton,2232,39,18,0,2020-11-18,42.94400871,-84.60145248
Michigan,Crawford,253,9,5,0,2020-11-18,44.68255561,-84.61006219
Michigan,Delta,2150,42,55,0,2020-11-18,45.90484910000001,-86.9080745
Michigan,Dickinson,1419,28,30,0,2020-11-18,46.00999672,-87.86961634
Michigan,Eaton,2348,78,24,0,2020-11-18,42.59599185,-84.83740035
Michigan,Emmet,785,18,22,0,2020-11-18,45.52625509,-84.89083249
Michigan,Genesee,11498,319,378,0,2020-11-18,43.02244215,-83.70589709
Michigan,Gladwin,559,21,8,1,2020-11-18,43.98901072,-84.38774817
Michigan,Gogebic,678,14,19,0,2020-11-18,46.40862701,-89.69377193
Michigan,Grand Traverse,1424,35,17,0,2020-11-18,44.69565625,-85.55585247
Michigan,Gratiot,1196,21,23,2,2020-11-18,43.29265605,-84.60505416
Michigan,Hillsdale,1171,30,32,0,2020-11-18,41.88753639,-84.59312019
Michigan,Houghton,1348,22,10,0,2020-11-18,46.89988536,-88.68495385
Michigan,Huron,528,29,11,0,2020-11-18,43.83353985,-83.04078453
Michigan,Ingham,7168,130,91,1,2020-11-18,42.59716886,-84.37472069
Michigan,Ionia,1693,53,13,1,2020-11-18,42.94502238,-85.07413319
Michigan,Iosco,564,42,19,0,2020-11-18,44.35486835,-83.63484895
Michigan,Iron,646,13,31,-1,2020-11-18,46.20974132,-88.53136251
Michigan,Isabella,1958,36,17,0,2020-11-18,43.64060976,-84.84664923
Michigan,Jackson,3698,67,84,0,2020-11-18,42.24807035,-84.42258681
Michigan,Kalamazoo,7725,71,149,2,2020-11-18,42.24542231,-85.53038622
Michigan,Kalkaska,269,6,4,0,2020-11-18,44.68512729,-85.09085699
Michigan,Kent,26307,608,267,10,2020-11-18,43.03197711,-85.54934642
Michigan,Keweenaw,55,8,1,0,2020-11-18,47.63197653,-88.41434263
Michigan,Lake,150,12,1,0,2020-11-18,43.99050893,-85.802173
Michigan,Lapeer,1764,65,47,2,2020-11-18,43.09052506,-83.22153148
Michigan,Leelanau,288,6,2,0,2020-11-18,44.94430054,-85.80150326
Michigan,Lenawee,1870,35,22,0,2020-11-18,41.89475156,-84.06603727
Michigan,Livingston,3990,66,39,2,2020-11-18,42.60302282,-83.91297209
Michigan,Luce,146,2,0,0,2020-11-18,46.47227431,-85.54471223
Michigan,Mackinac,233,5,0,0,2020-11-18,46.07028979,-85.04980537
Michigan,Macomb,29617,554,1176,2,2020-11-18,42.69158356,-82.92752801
Michigan,Manistee,276,13,5,0,2020-11-18,44.33352407,-86.05626916
Michigan,Marquette,2321,81,23,0,2020-11-18,46.4338914,-87.64043701
Michigan,Mason,478,11,6,0,2020-11-18,43.99509218,-86.24988902
Michigan,Mecosta,981,9,7,0,2020-11-18,43.64064262,-85.32463223
Michigan,Menominee,1122,26,11,0,2020-11-18,45.58038692,-87.55370409
Michigan,Midland,2371,74,19,1,2020-11-18,43.64330771,-84.38804374
Michigan,Missaukee,214,1,2,0,2020-11-18,44.33772443,-85.09256478
Michigan,Monroe,3892,138,55,0,2020-11-18,41.92734151,-83.53749864
Michigan,Montcalm,1405,28,21,2,2020-11-18,43.31082541,-85.15252824
Michigan,Montmorency,99,5,1,0,2020-11-18,45.0275929,-84.12696227
Michigan,Muskegon,5591,124,123,2,2020-11-18,43.29123859,-86.15176712
Michigan,Newaygo,1220,18,10,1,2020-11-18,43.554374,-85.80070107
Michigan,Oakland,37587,604,1287,2,2020-11-18,42.66090111,-83.38595416
Michigan,Oceana,982,15,10,1,2020-11-18,43.64124435,-86.26726673
Michigan,Ogemaw,339,17,10,1,2020-11-18,44.33481032,-84.12725175
Michigan,Ontonagon,251,5,7,0,2020-11-18,46.665226200000006,-89.31390481
Michigan,Osceola,380,12,2,0,2020-11-18,43.98992088,-85.32566756
Michigan,Oscoda,107,7,2,0,2020-11-18,44.68192279,-84.12939244
Michigan,Otsego,588,20,15,0,2020-11-18,45.02085831,-84.59898295
Michigan,Ottawa,10706,327,111,4,2020-11-18,42.95996803,-85.9969107
Michigan,Presque Isle,177,9,2,0,2020-11-18,45.34018577,-83.91498656
Michigan,Roscommon,419,20,7,0,2020-11-18,44.33473082,-84.61067651
Michigan,Saginaw,6842,156,187,5,2020-11-18,43.33433923,-84.05131209999998
Michigan,St. Clair,3223,83,74,0,2020-11-18,42.92655373,-82.67937954
Michigan,St. Joseph,2118,23,29,1,2020-11-18,41.91441767,-85.52797979
Michigan,Sanilac,467,19,11,1,2020-11-18,43.42406072,-82.82055898
Michigan,Schoolcraft,158,2,2,0,2020-11-18,46.19235734,-86.19972234
Michigan,Shiawassee,1451,22,36,1,2020-11-18,42.95392800000001,-84.14585902
Michigan,Tuscola,1318,32,43,0,2020-11-18,43.46606813,-83.41897025
Michigan,Van Buren,2136,51,29,4,2020-11-18,42.25190229,-86.01939087
Michigan,Washtenaw,8057,122,125,0,2020-11-18,42.253105,-83.83853204
Michigan,Wayne,53764,806,3136,4,2020-11-18,42.28098405,-83.281255
Michigan,Wexford,427,10,11,1,2020-11-18,44.33853602,-85.57712739
Minnesota,Aitkin,548,11,15,2,2020-11-18,46.60962049,-93.4116826
Minnesota,Anoka,17374,393,196,3,2020-11-18,45.27476015,-93.24604565
Minnesota,Becker,1444,40,5,1,2020-11-18,46.93479392,-95.67158144
Minnesota,Beltrami,1628,44,13,0,2020-11-18,47.97373527,-94.93732139
Minnesota,Benton,2225,38,35,3,2020-11-18,45.69804958,-93.99514135
Minnesota,Big Stone,251,6,1,0,2020-11-18,45.42712824,-96.41403739
Minnesota,Blue Earth,3304,34,12,1,2020-11-18,44.03554215,-94.06699781
Minnesota,Brown,909,30,6,0,2020-11-18,44.24205652,-94.72562874
Minnesota,Carlton,1250,22,9,1,2020-11-18,46.59180601,-92.67601019
Minnesota,Carver,3443,94,10,1,2020-11-18,44.82017001,-93.8009918
Minnesota,Cass,1015,19,8,0,2020-11-18,46.95043611,-94.32603968
Minnesota,Chippewa,691,8,7,0,2020-11-18,45.02343421,-95.56403693
Minnesota,Chisago,2465,67,5,1,2020-11-18,45.5021011,-92.90861945
Minnesota,Clay,3955,53,51,1,2020-11-18,46.89289518,-96.48761922
Minnesota,Clearwater,372,27,3,0,2020-11-18,47.57992111,-95.37790562
Minnesota,Cook,48,2,0,0,2020-11-18,47.90504893,-90.52629546
Minnesota,Cottonwood,552,7,0,0,2020-11-18,44.00715262,-95.18138802
Minnesota,Crow Wing,2688,85,26,1,2020-11-18,46.48096553,-94.06755609
Minnesota,Dakota,16897,428,165,5,2020-11-18,44.67172617,-93.06299363
Minnesota,Dodge,699,11,0,0,2020-11-18,44.02238415,-92.86244324
Minnesota,Douglas,1833,39,21,3,2020-11-18,45.93348491,-95.45335469
Minnesota,Faribault,414,10,0,0,2020-11-18,43.67381499,-93.94787458
Minnesota,Fillmore,511,11,0,0,2020-11-18,43.67394126,-92.08980382
Minnesota,Freeborn,1193,25,5,0,2020-11-18,43.67385583,-93.34884422
Minnesota,Goodhue,1498,61,23,2,2020-11-18,44.40849741,-92.7234195
Minnesota,Grant,193,4,6,1,2020-11-18,45.93424769,-96.01139609
Minnesota,Hennepin,53486,797,1061,6,2020-11-18,45.00761521,-93.47694895
Minnesota,Houston,524,10,2,0,2020-11-18,43.67129565,-91.49143057
Minnesota,Hubbard,826,20,15,0,2020-11-18,47.10778564,-94.91693868
Minnesota,Isanti,1408,59,11,0,2020-11-18,45.56181234,-93.29487636
Minnesota,Itasca,1489,37,19,0,2020-11-18,47.51009045,-93.63092229
Minnesota,Jackson,356,6,1,0,2020-11-18,43.67423373,-95.15398258
Minnesota,Kanabec,446,10,11,0,2020-11-18,45.9459309,-93.29275192
Minnesota,Kandiyohi,2956,83,9,0,2020-11-18,45.1526059,-95.00586446
Minnesota,Kittson,148,4,2,1,2020-11-18,48.77754106,-96.78317184
Minnesota,Koochiching,293,8,5,0,2020-11-18,48.24539665,-93.78352843
Minnesota,Lac qui Parle,266,18,3,0,2020-11-18,44.9973857,-96.17488219
Minnesota,Lake,266,11,1,0,2020-11-18,47.64270764,-91.44557998
Minnesota,Lake of the Woods,78,0,1,0,2020-11-18,48.77217001,-94.90274472
Minnesota,Le Sueur,1113,22,8,1,2020-11-18,44.37136597,-93.72844721
Minnesota,Lincoln,275,5,1,0,2020-11-18,44.41311883,-96.26688165
Minnesota,Lyon,1677,33,9,0,2020-11-18,44.41327865,-95.83806103
Minnesota,McLeod,1465,50,8,1,2020-11-18,44.82367677,-94.27287017
Minnesota,Mahnomen,210,12,3,0,2020-11-18,47.32557075,-95.80921485
Minnesota,Marshall,352,2,7,1,2020-11-18,48.35825983,-96.37017407
Minnesota,Martin,865,13,19,0,2020-11-18,43.67429718,-94.55099908
Minnesota,Meeker,828,28,6,1,2020-11-18,45.12328869,-94.52839455
Minnesota,Mille Lacs,1139,29,30,1,2020-11-18,45.93705297,-93.63236823
Minnesota,Morrison,1507,27,16,0,2020-11-18,46.01265363,-94.27341528
Minnesota,Mower,2081,16,22,0,2020-11-18,43.67142874,-92.75234549
Minnesota,Murray,469,5,3,0,2020-11-18,44.02216709,-95.76328482
Minnesota,Nicollet,1261,15,22,1,2020-11-18,44.35291112,-94.24710352
Minnesota,Nobles,2840,10,27,0,2020-11-18,43.67434621,-95.75329576
Minnesota,Norman,269,7,6,1,2020-11-18,47.32628443,-96.45620947
Minnesota,Olmsted,5538,110,30,0,2020-11-18,44.00374114,-92.40209944
Minnesota,Otter Tail,2197,60,12,0,2020-11-18,46.40846929,-95.70835255
Minnesota,Pennington,439,12,4,0,2020-11-18,48.06642577,-96.0370814
Minnesota,Pine,996,26,5,0,2020-11-18,46.12105238,-92.74070188
Minnesota,Pipestone,575,9,17,0,2020-11-18,44.02301619,-96.25841142
Minnesota,Polk,1845,37,20,3,2020-11-18,47.77372465,-96.40134647
Minnesota,Pope,406,17,0,0,2020-11-18,45.58606667,-95.44451209
Minnesota,Ramsey,22497,337,441,7,2020-11-18,45.01625271,-93.09872295
Minnesota,Red Lake,163,4,3,0,2020-11-18,47.87197525,-96.09561104
Minnesota,Redwood,622,31,17,1,2020-11-18,44.40555844,-95.25207021
Minnesota,Renville,552,21,16,1,2020-11-18,44.72836381,-94.94553734
Minnesota,Rice,3071,117,27,2,2020-11-18,44.3543376,-93.29658715
Minnesota,Rock,549,8,9,0,2020-11-18,43.67482683,-96.25296832
Minnesota,Roseau,807,43,1,0,2020-11-18,48.77501878,-95.81079919
Minnesota,St. Louis,6192,181,85,1,2020-11-18,47.6048407,-92.46879855
Minnesota,Scott,6467,171,51,0,2020-11-18,44.6490231,-93.53340251
Minnesota,Sherburne,4328,137,33,2,2020-11-18,45.44447208,-93.77617511
Minnesota,Sibley,554,23,4,0,2020-11-18,44.5796592,-94.23164924
Minnesota,Stearns,10739,215,76,2,2020-11-18,45.55192576,-94.61078221
Minnesota,Steele,1447,24,6,1,2020-11-18,44.02240351,-93.22627088
Minnesota,Stevens,379,7,1,0,2020-11-18,45.58613007,-96.00163705
Minnesota,Swift,432,20,5,1,2020-11-18,45.2829032,-95.68264092
Minnesota,Todd,1502,24,12,0,2020-11-18,46.06996226,-94.89785296
Minnesota,Traverse,108,0,0,0,2020-11-18,45.77298854,-96.47062949
Minnesota,Wabasha,780,25,1,0,2020-11-18,44.28424356,-92.23121312
Minnesota,Wadena,590,13,6,0,2020-11-18,46.58589171,-94.96968506
Minnesota,Waseca,1175,18,10,0,2020-11-18,44.02211116,-93.58720034
Minnesota,Washington,11204,280,100,4,2020-11-18,45.03864533,-92.88429635
Minnesota,Watonwan,717,9,4,0,2020-11-18,43.97823903,-94.61413846
Minnesota,Wilkin,275,5,4,0,2020-11-18,46.35721532,-96.4684375
Minnesota,Winona,2191,21,22,0,2020-11-18,43.98772283,-91.78081305
Minnesota,Wright,5602,163,30,2,2020-11-18,45.17297924,-93.96234781
Minnesota,Yellow Medicine,491,19,8,0,2020-11-18,44.71710183,-95.86842453
Mississippi,Adams,1276,17,48,1,2020-11-18,31.47669768,-91.35326037
Mississippi,Alcorn,1375,17,23,1,2020-11-18,34.88084463,-88.57996173
Mississippi,Amite,462,2,14,0,2020-11-18,31.17467303,-90.80501621
Mississippi,Attala,1005,30,29,2,2020-11-18,33.08658803,-89.57838564
Mississippi,Benton,470,10,17,1,2020-11-18,34.81681228,-89.18945516
Mississippi,Bolivar,2294,28,83,0,2020-11-18,33.79696941,-90.87372121
Mississippi,Calhoun,694,4,13,0,2020-11-18,33.93683395,-89.33686647
Mississippi,Carroll,664,9,13,0,2020-11-18,33.44834567,-89.91994479
Mississippi,Chickasaw,986,10,32,0,2020-11-18,33.91983202,-88.9481545
Mississippi,Choctaw,280,11,7,0,2020-11-18,33.34598242,-89.24809382
Mississippi,Claiborne,568,0,16,0,2020-11-18,31.97061673,-90.90702196
Mississippi,Clarke,852,4,53,0,2020-11-18,32.04158545,-88.68896219999998
Mississippi,Clay,824,7,26,0,2020-11-18,33.65358105,-88.77784255
Mississippi,Coahoma,1421,19,40,0,2020-11-18,34.22772299,-90.60415045
Mississippi,Copiah,1538,19,39,0,2020-11-18,31.86977774,-90.44565118
Mississippi,Covington,1112,2,33,1,2020-11-18,31.63225413,-89.55389939
Mississippi,DeSoto,9117,132,92,1,2020-11-18,34.87625235,-89.99091418
Mississippi,Forrest,3490,30,85,0,2020-11-18,31.18961454,-89.25832496
Mississippi,Franklin,297,8,4,0,2020-11-18,31.47786634,-90.89672989
Mississippi,George,1173,6,23,1,2020-11-18,30.86259065,-88.64436789
Mississippi,Greene,564,4,20,0,2020-11-18,31.21444233,-88.63922281
Mississippi,Grenada,1321,3,44,0,2020-11-18,33.77036166,-89.80245083
Mississippi,Hancock,1095,13,36,1,2020-11-18,30.41830223,-89.48851033
Mississippi,Harrison,6530,54,104,0,2020-11-18,30.51359752,-89.12467576
Mississippi,Hinds,9166,121,187,1,2020-11-18,32.2656285,-90.44435448
Mississippi,Holmes,1210,7,60,0,2020-11-18,33.12345854,-90.08923538
Mississippi,Humphreys,509,3,18,0,2020-11-18,33.12825718,-90.52252707
Mississippi,Issaquena,108,0,4,0,2020-11-18,32.72531359,-90.97392828
Mississippi,Itawamba,1396,16,33,0,2020-11-18,34.27993475,-88.3606733
Mississippi,Jackson,5830,44,111,0,2020-11-18,30.54020656,-88.64184064
Mississippi,Jasper,779,6,21,0,2020-11-18,32.01922104,-89.11786866
Mississippi,Jefferson,306,4,11,0,2020-11-18,31.73397872,-91.03764977
Mississippi,Jefferson Davis,520,7,16,0,2020-11-18,31.56884708,-89.82670990000003
Mississippi,Jones,3308,32,87,1,2020-11-18,31.62257767,-89.16896899999998
Mississippi,Kemper,380,15,15,0,2020-11-18,32.75462946,-88.64105766
Mississippi,Lafayette,2946,34,45,0,2020-11-18,34.35687874,-89.48490961
Mississippi,Lamar,2630,17,48,1,2020-11-18,31.20572971,-89.5077704
Mississippi,Lauderdale,3120,36,141,0,2020-11-18,32.40419769,-88.66229662
Mississippi,Lawrence,668,17,14,0,2020-11-18,31.55147224,-90.10841127
Mississippi,Leake,1271,3,43,0,2020-11-18,32.7536828,-89.52402044
Mississippi,Lee,4579,88,90,0,2020-11-18,34.291877500000005,-88.68149954
Mississippi,Leflore,1945,16,89,0,2020-11-18,33.55545125,-90.29900733
Mississippi,Lincoln,1735,25,64,0,2020-11-18,31.53288662,-90.45391915
Mississippi,Lowndes,2162,22,62,0,2020-11-18,33.47386518,-88.44191529999998
Mississippi,Madison,4402,63,99,1,2020-11-18,32.63389156,-90.03513564
Mississippi,Marion,1056,7,46,0,2020-11-18,31.23132643,-89.8209217
Mississippi,Marshall,1974,39,41,0,2020-11-18,34.76216286,-89.50299462
Mississippi,Monroe,1810,23,76,0,2020-11-18,33.89236763,-88.4808438
Mississippi,Montgomery,690,12,24,0,2020-11-18,33.49419589,-89.61729103
Mississippi,Neshoba,2099,24,111,0,2020-11-18,32.75339664,-89.11726492
Mississippi,Newton,989,9,29,0,2020-11-18,32.40021118,-89.11843336
Mississippi,Noxubee,665,11,17,0,2020-11-18,33.11009499,-88.56949061
Mississippi,Oktibbeha,2292,14,58,0,2020-11-18,33.42491685,-88.87905132
Mississippi,Panola,2004,20,46,0,2020-11-18,34.36398677,-89.95064249
Mississippi,Pearl River,1357,18,66,1,2020-11-18,30.77090935,-89.58677275
Mississippi,Perry,616,8,24,0,2020-11-18,31.17161885,-88.99281835
Mississippi,Pike,1556,9,58,0,2020-11-18,31.17507789,-90.40392572
Mississippi,Pontotoc,1841,17,26,0,2020-11-18,34.226046000000004,-89.03636807
Mississippi,Prentiss,1334,24,25,0,2020-11-18,34.61810501,-88.51986294
Mississippi,Quitman,459,3,6,0,2020-11-18,34.25157572,-90.28908
Mississippi,Rankin,4954,121,93,2,2020-11-18,32.26469147,-89.94537876
Mississippi,Scott,1426,12,29,0,2020-11-18,32.406704100000006,-89.53789439
Mississippi,Sharkey,296,0,16,0,2020-11-18,32.88149103,-90.8159538
Mississippi,Simpson,1377,8,53,0,2020-11-18,31.91282117,-89.91716179
Mississippi,Smith,668,4,16,0,2020-11-18,32.01744532,-89.50644846
Mississippi,Stone,652,16,14,0,2020-11-18,30.79187949,-89.11547539
Mississippi,Sunflower,1817,16,54,0,2020-11-18,33.60192578,-90.58882684
Mississippi,Tallahatchie,926,5,27,0,2020-11-18,33.95339918,-90.1729398
Mississippi,Tate,1539,22,47,1,2020-11-18,34.65133709,-89.94485778
Mississippi,Tippah,1150,17,29,0,2020-11-18,34.76872156,-88.90988194
Mississippi,Tishomingo,1009,10,41,0,2020-11-18,34.74023475,-88.23917219
Mississippi,Tunica,585,6,19,1,2020-11-18,34.64967704,-90.37481167
Mississippi,Union,1508,8,25,0,2020-11-18,34.49162015,-89.00776006
Mississippi,Walthall,725,6,27,0,2020-11-18,31.14971548,-90.10446654
Mississippi,Warren,1670,7,56,0,2020-11-18,32.35810271,-90.83352619
Mississippi,Washington,2948,40,107,2,2020-11-18,33.28392041,-90.94196237
Mississippi,Wayne,1125,10,22,0,2020-11-18,31.64135687,-88.69573913
Mississippi,Webster,406,2,14,0,2020-11-18,33.61300486,-89.28392912
Mississippi,Wilkinson,364,1,22,0,2020-11-18,31.16078225,-91.31018819
Mississippi,Winston,1057,18,23,0,2020-11-18,33.08747908,-89.03391385
Mississippi,Yalobusha,646,8,26,0,2020-11-18,34.02824175,-89.70762049999998
Mississippi,Yazoo,1428,3,36,0,2020-11-18,32.77890365,-90.39656148
Missouri,Adair,925,21,0,0,2020-11-18,40.19058551,-92.60078167
Missouri,Andrew,658,14,8,0,2020-11-18,39.98492163,-94.80163024
Missouri,Atchison,157,0,1,0,2020-11-18,40.43238737,-95.42970639
Missouri,Audrain,889,11,11,0,2020-11-18,39.215877,-91.84242683
Missouri,Barry,1276,12,22,2,2020-11-18,36.70978521,-93.82919888
Missouri,Barton,573,3,4,0,2020-11-18,37.50207671,-94.34757022
Missouri,Bates,414,8,8,0,2020-11-18,38.25271289,-94.34113157
Missouri,Benton,702,5,7,0,2020-11-18,38.29503305,-93.28756116
Missouri,Bollinger,725,14,7,1,2020-11-18,37.32449052,-90.02725304
Missouri,Boone,9029,206,16,0,2020-11-18,38.99186229,-92.30723575
Missouri,Buchanan,3970,53,50,2,2020-11-18,39.65816401,-94.80138942
Missouri,Butler,1799,28,8,0,2020-11-18,36.71462476,-90.40421163
Missouri,Caldwell,320,19,1,0,2020-11-18,39.65620858,-93.98308093
Missouri,Callaway,2408,70,7,0,2020-11-18,38.83674754,-91.92186505
Missouri,Camden,2147,23,44,0,2020-11-18,38.02199522,-92.76083747
Missouri,Cape Girardeau,4220,96,59,0,2020-11-18,37.38489388,-89.6843587
Missouri,Carroll,337,6,4,0,2020-11-18,39.42762566,-93.50626255
Missouri,Carter,244,2,4,0,2020-11-18,36.94160441,-90.96051322
Missouri,Cass,3152,74,36,0,2020-11-18,38.64789422,-94.353399
Missouri,Cedar,392,4,4,0,2020-11-18,37.72391475,-93.85445441
Missouri,Chariton,199,7,0,0,2020-11-18,39.51499357,-92.9629191
Missouri,Christian,3279,44,20,0,2020-11-18,36.9711783,-93.18537118
Missouri,Clark,238,4,2,0,2020-11-18,40.41040752,-91.73661677
Missouri,Clay,3954,129,60,2,2020-11-18,39.31132056,-94.41850862
Missouri,Clinton,779,14,39,0,2020-11-18,39.6013098,-94.40465394
Missouri,Cole,5228,84,38,0,2020-11-18,38.50455671,-92.27860244
Missouri,Cooper,1031,19,6,0,2020-11-18,38.844478,-92.80896081
Missouri,Crawford,1015,10,10,0,2020-11-18,37.97663738,-91.30528104
Missouri,Dade,252,5,5,0,2020-11-18,37.431814,-93.8503345
Missouri,Dallas,534,4,5,0,2020-11-18,37.6811355,-93.02127031
Missouri,Daviess,294,-1,6,0,2020-11-18,39.96145298,-93.98519678
Missouri,DeKalb,486,2,9,0,2020-11-18,39.89201062,-94.40476508
Missouri,Dent,402,6,4,0,2020-11-18,37.60663134,-91.50790473
Missouri,Douglas,367,3,14,0,2020-11-18,36.9325593,-92.49905109
Missouri,Dunklin,1540,30,13,0,2020-11-18,36.27167174,-90.09122243
Missouri,Franklin,4067,33,58,0,2020-11-18,38.41127108,-91.07522826
Missouri,Gasconade,390,0,24,0,2020-11-18,38.43947277,-91.50847147
Missouri,Gentry,335,3,11,0,2020-11-18,40.21097916,-94.40944419
Missouri,Greene,12192,161,162,3,2020-11-18,37.2575872,-93.34230916
Missouri,Grundy,430,8,12,0,2020-11-18,40.11406587,-93.56509276
Missouri,Harrison,329,4,1,0,2020-11-18,40.35570088,-93.99222144
Missouri,Henry,878,12,9,0,2020-11-18,38.38482826,-93.79293734
Missouri,Hickory,332,0,4,0,2020-11-18,37.94163617,-93.3203037
Missouri,Holt,208,4,2,0,2020-11-18,40.09799248,-95.2163888
Missouri,Howard,404,7,2,0,2020-11-18,39.1435761,-92.69756691
Missouri,Howell,1476,12,25,0,2020-11-18,36.77383887,-91.88683935
Missouri,Iron,190,9,0,0,2020-11-18,37.55487945,-90.7735296
Missouri,Jackson,14701,321,165,2,2020-11-18,39.01002188,-94.34724536
Missouri,Jasper,7284,144,102,3,2020-11-18,37.20351921,-94.34050458
Missouri,Jefferson,8968,188,96,0,2020-11-18,38.25926778,-90.53870896
Missouri,Johnson,2165,35,12,0,2020-11-18,38.74719601,-93.80691168
Missouri,Knox,118,1,1,0,2020-11-18,40.12699751,-92.14780832
Missouri,Laclede,1574,21,29,0,2020-11-18,37.65896829,-92.5888493
Missouri,Lafayette,1278,17,28,0,2020-11-18,39.06986886,-93.78076396
Missouri,Lawrence,1679,22,33,0,2020-11-18,37.10626634,-93.83293097
Missouri,Lewis,380,6,2,0,2020-11-18,40.09673161,-91.72070156
Missouri,Lincoln,1972,44,8,0,2020-11-18,39.05345619,-90.95588181
Missouri,Linn,264,8,10,0,2020-11-18,39.87001769,-93.10704106
Missouri,Livingston,690,3,11,0,2020-11-18,39.78110272,-93.54645978
Missouri,McDonald,1332,7,15,0,2020-11-18,36.62869595,-94.34867205
Missouri,Macon,489,17,2,1,2020-11-18,39.83049768,-92.56453089
Missouri,Madison,720,5,7,0,2020-11-18,37.47865134,-90.3467143
Missouri,Maries,308,5,2,0,2020-11-18,38.16193985,-91.92249662
Missouri,Marion,1499,44,15,0,2020-11-18,39.80601912,-91.62203062
Missouri,Mercer,63,1,0,0,2020-11-18,40.42212303,-93.5682959
Missouri,Miller,1298,15,23,2,2020-11-18,38.21450288,-92.42610898
Missouri,Mississippi,664,10,6,0,2020-11-18,36.82516239,-89.29505753
Missouri,Moniteau,1080,15,15,1,2020-11-18,38.63571781,-92.57976951
Missouri,Monroe,308,9,3,0,2020-11-18,39.49593978,-92.00043978
Missouri,Montgomery,275,3,5,0,2020-11-18,38.94022054,-91.47000721
Missouri,Morgan,944,9,9,0,2020-11-18,38.4181765,-92.88791859
Missouri,New Madrid,1168,27,23,0,2020-11-18,36.59666326,-89.66070007
Missouri,Newton,2673,40,37,0,2020-11-18,36.90519407,-94.3394104
Missouri,Nodaway,1755,16,11,0,2020-11-18,40.36079813,-94.88133008
Missouri,Oregon,333,5,0,0,2020-11-18,36.68710164,-91.4033755
Missouri,Osage,810,7,3,0,2020-11-18,38.46036182,-91.8613635
Missouri,Ozark,264,5,1,0,2020-11-18,36.64916339,-92.44459066
Missouri,Pemiscot,974,9,16,0,2020-11-18,36.2130572,-89.78742322
Missouri,Perry,1336,11,8,0,2020-11-18,37.70660776,-89.82741088
Missouri,Pettis,2509,8,29,0,2020-11-18,38.72798918,-93.28471706
Missouri,Phelps,1361,29,38,1,2020-11-18,37.87736118,-91.79351727
Missouri,Pike,713,19,8,0,2020-11-18,39.34310674,-91.16980779
Missouri,Platte,1402,38,14,0,2020-11-18,39.38154439,-94.77068479
Missouri,Polk,1271,6,11,0,2020-11-18,37.6162296,-93.39828174
Missouri,Pulaski,1353,14,14,0,2020-11-18,37.82462075,-92.20783203
Missouri,Putnam,103,2,1,0,2020-11-18,40.47942497,-93.02042674
Missouri,Ralls,363,16,1,0,2020-11-18,39.52817427,-91.51838643
