State,County,Total Cases,New Cases,Total Deaths,New Deaths,Date,Latitude,Longitude
Alabama,Autauga,3258,25,41,-1,2020-12-12,32.53952745,-86.64408227
Alabama,Baldwin,10665,176,141,0,2020-12-12,30.72774991,-87.72207058
Alabama,Barbour,1269,5,30,0,2020-12-12,31.868263,-85.3871286
Alabama,Bibb,1417,19,40,0,2020-12-12,32.99642064,-87.12511459999997
Alabama,Blount,3744,81,47,0,2020-12-12,33.98210918,-86.56790593
Alabama,Bullock,725,2,20,0,2020-12-12,32.10030533,-85.71265535
Alabama,Butler,1306,17,44,0,2020-12-12,31.75300095,-86.68057478
Alabama,Calhoun,7760,102,129,0,2020-12-12,33.77483727,-85.82630386
Alabama,Chambers,1997,15,57,2,2020-12-12,32.91360079,-85.39072749
Alabama,Cherokee,1187,20,24,0,2020-12-12,34.17805983,-85.60638968
Alabama,Chilton,2527,13,46,-1,2020-12-12,32.85044126,-86.7173256
Alabama,Choctaw,453,9,20,0,2020-12-12,32.02227341,-88.26564429999998
Alabama,Clarke,2033,273,24,0,2020-12-12,31.68099859,-87.83548597
Alabama,Clay,998,3,28,0,2020-12-12,33.26984193,-85.85836077
Alabama,Cleburne,878,8,15,1,2020-12-12,33.67679204,-85.52005899
Alabama,Coffee,2886,32,25,0,2020-12-12,31.39932826,-85.98901039
Alabama,Colbert,3806,70,53,0,2020-12-12,34.69847452,-87.80168544
Alabama,Conecuh,776,3,15,0,2020-12-12,31.43401703,-86.99320044
Alabama,Coosa,430,4,4,0,2020-12-12,32.93690146,-86.24847739
Alabama,Covington,2517,30,38,0,2020-12-12,31.2477854,-86.45050893
Alabama,Crenshaw,771,5,32,0,2020-12-12,31.72941803,-86.31593104
Alabama,Cullman,5633,92,59,2,2020-12-12,34.13020303,-86.86888037
Alabama,Dale,2748,35,59,0,2020-12-12,31.43037123,-85.61095742
Alabama,Dallas,2487,6,34,0,2020-12-12,32.32688101,-87.10866709999998
Alabama,DeKalb,5785,64,49,1,2020-12-12,34.45946862,-85.80782906
Alabama,Elmore,4909,39,72,0,2020-12-12,32.59785413,-86.14415284
Alabama,Escambia,2258,24,32,0,2020-12-12,31.1256789,-87.15918694
Alabama,Etowah,7919,100,80,0,2020-12-12,34.04567266,-86.04051873
Alabama,Fayette,1160,17,16,0,2020-12-12,33.72076938,-87.73886638
Alabama,Franklin,2848,20,34,0,2020-12-12,34.44235334,-87.84289505
Alabama,Geneva,1398,10,16,1,2020-12-12,31.09389027,-85.83572839
Alabama,Greene,544,16,20,1,2020-12-12,32.85504247,-87.95684022
Alabama,Hale,1122,12,33,0,2020-12-12,32.76039258,-87.63284988
Alabama,Henry,984,23,8,0,2020-12-12,31.51148016,-85.24267944
Alabama,Houston,6024,54,52,1,2020-12-12,31.15197924,-85.29939599
Alabama,Jackson,4306,74,26,1,2020-12-12,34.78144169,-85.99750489
Alabama,Jefferson,40232,691,558,-1,2020-12-12,33.55554728,-86.89506300000002
Alabama,Lamar,841,11,9,0,2020-12-12,33.77995024,-88.09668032
Alabama,Lauderdale,5005,35,61,1,2020-12-12,34.90171875,-87.65624729
Alabama,Lawrence,1569,28,37,1,2020-12-12,34.52041498,-87.31069453
Alabama,Lee,8675,80,73,-1,2020-12-12,32.60154883,-85.35132246
Alabama,Limestone,5244,97,49,0,2020-12-12,34.81185586,-86.98310072
Alabama,Lowndes,856,4,30,0,2020-12-12,32.1597283,-86.65158371
Alabama,Macon,838,7,24,0,2020-12-12,32.38759944,-85.69267724
Alabama,Madison,16760,301,162,-1,2020-12-12,34.76327133,-86.55069633
Alabama,Marengo,1459,59,25,0,2020-12-12,32.24767634,-87.78796182
Alabama,Marion,1669,21,40,1,2020-12-12,34.13697363,-87.88704173
Alabama,Marshall,7736,86,65,1,2020-12-12,34.36975964,-86.30486727
Alabama,Mobile,22034,97,389,2,2020-12-12,30.78472347,-88.20842409
Alabama,Monroe,921,13,10,-1,2020-12-12,31.56729412,-87.36995001
Alabama,Montgomery,13671,114,260,1,2020-12-12,32.2206831,-86.20969272
Alabama,Morgan,8393,134,64,2,2020-12-12,34.45500589,-86.85475946
Alabama,Perry,738,4,9,0,2020-12-12,32.64048341,-87.29770589
Alabama,Pickens,1399,16,24,0,2020-12-12,33.28094866,-88.08818103
Alabama,Pike,1731,8,16,0,2020-12-12,31.80396383,-85.9408295
Alabama,Randolph,1121,3,28,0,2020-12-12,33.29526734,-85.45708831
Alabama,Russell,2458,12,6,0,2020-12-12,32.28725256,-85.18415324
Alabama,St. Clair,5210,103,62,0,2020-12-12,33.71902176,-86.31029372
Alabama,Shelby,12551,140,87,0,2020-12-12,33.26879845,-86.66232561
Alabama,Sumter,659,16,22,0,2020-12-12,32.59117397,-88.19916205
Alabama,Talladega,4298,57,63,1,2020-12-12,33.37823223,-86.16886178
Alabama,Tallapoosa,2046,10,93,0,2020-12-12,32.86698258,-85.79833053
Alabama,Tuscaloosa,15373,273,193,0,2020-12-12,33.28726072,-87.52556818
Alabama,Walker,4396,41,113,0,2020-12-12,33.80270512,-87.30027177
Alabama,Washington,1020,17,23,1,2020-12-12,31.4092794,-88.20689944
Alabama,Wilcox,777,78,19,1,2020-12-12,31.98773215,-87.30891118
Alabama,Winston,1633,12,25,0,2020-12-12,34.15030532,-87.37325922
Alaska,Aleutians East,40,0,0,0,2020-12-12,55.32222414,-161.9722021
Alaska,Bristol Bay,0,0,0,0,2020-12-12,58.74513976,-156.701064
Alaska,Denali,54,1,0,0,2020-12-12,63.67264044,-150.0076108
Alaska,Fairbanks North Star,4238,67,19,0,2020-12-12,64.80726247,-146.5692662
Alaska,Haines,19,0,0,0,2020-12-12,59.09893571,-135.4679843
Alaska,Kenai Peninsula,3207,32,15,2,2020-12-12,60.24429722,-151.53888840000005
Alaska,Ketchikan Gateway,222,1,0,0,2020-12-12,55.57445008,-130.975561
Alaska,Kodiak Island,662,25,1,0,2020-12-12,57.65529415,-153.7493579
Alaska,Matanuska-Susitna,5354,61,11,1,2020-12-12,62.31305045,-149.5741743
Alaska,North Slope,644,13,2,1,2020-12-12,69.31479216,-153.4836093
Alaska,Northwest Arctic,384,2,0,0,2020-12-12,67.04919196,-159.7503946
Arizona,Apache,6412,140,211,2,2020-12-12,35.39465006,-109.4892383
Arizona,Cochise,5055,130,98,1,2020-12-12,31.87934684,-109.7516088
Arizona,Coconino,8969,128,189,0,2020-12-12,35.83883429,-111.7707178
Arizona,Gila,3591,59,113,2,2020-12-12,33.80190085,-110.8132779
Arizona,Graham,2543,34,40,0,2020-12-12,32.93166885,-109.8882178
Arizona,Greenlee,320,8,3,0,2020-12-12,33.21498827,-109.2405279
Arizona,La Paz,1071,18,21,0,2020-12-12,33.72854224,-113.9810029
Arizona,Maricopa,250319,4648,4324,25,2020-12-12,33.34835867,-112.4918154
Arizona,Mohave,8331,172,283,3,2020-12-12,35.70471703,-113.7577902
Arizona,Navajo,9571,154,289,1,2020-12-12,35.3997715,-110.3218983
Arizona,Pima,50852,1215,799,23,2020-12-12,32.0971334,-111.7890033
Arizona,Pinal,21091,591,300,8,2020-12-12,32.90525627,-111.3449483
Arizona,Santa Cruz,4839,81,84,1,2020-12-12,31.52508998,-110.8479088
Arizona,Yavapai,7743,310,145,8,2020-12-12,34.59933926,-112.5538588
Arizona,Yuma,21881,388,423,3,2020-12-12,32.76895712,-113.90666740000002
Arkansas,Arkansas,1093,17,24,0,2020-12-12,34.29145151,-91.37277296
Arkansas,Ashley,1052,23,18,0,2020-12-12,33.19153461,-91.7698471
Arkansas,Baxter,1654,20,40,0,2020-12-12,36.28784385,-92.33782872
Arkansas,Benton,14209,221,204,4,2020-12-12,36.33644656,-94.25680817
Arkansas,Boone,2154,30,52,0,2020-12-12,36.3084504,-93.09374925
Arkansas,Bradley,672,21,7,0,2020-12-12,33.46755808,-92.15980837
Arkansas,Calhoun,175,1,1,0,2020-12-12,33.55598792,-92.49974403
Arkansas,Carroll,1743,22,24,0,2020-12-12,36.34038560000001,-93.54270261
Arkansas,Chicot,1300,7,30,0,2020-12-12,33.26458973,-91.29539209
Arkansas,Clark,1058,17,15,0,2020-12-12,34.04613432,-93.17484713
Arkansas,Clay,1117,17,24,0,2020-12-12,36.36826212,-90.4148172
Arkansas,Cleburne,887,18,26,1,2020-12-12,35.53864922,-92.02640019
Arkansas,Cleveland,466,6,16,0,2020-12-12,33.89723187,-92.18537045
Arkansas,Columbia,1321,18,29,0,2020-12-12,33.21230701,-93.22642793
Arkansas,Conway,910,23,10,0,2020-12-12,35.26205537,-92.70506566
Arkansas,Craighead,8333,93,97,2,2020-12-12,35.83018283,-90.63235729
Arkansas,Crawford,3653,62,46,1,2020-12-12,35.58928601,-94.2446814
Arkansas,Crittenden,3693,27,62,1,2020-12-12,35.21247318,-90.30839406
Arkansas,Cross,1084,23,31,2,2020-12-12,35.29631396,-90.77185818
Arkansas,Dallas,383,8,7,0,2020-12-12,33.97042763,-92.65167437
Arkansas,Desha,740,29,10,0,2020-12-12,33.83011025,-91.25500948
Arkansas,Drew,1128,26,8,0,2020-12-12,33.59035001,-91.71777921
Arkansas,Faulkner,5926,102,67,1,2020-12-12,35.14719007,-92.33717519
Arkansas,Franklin,933,11,21,1,2020-12-12,35.51202821,-93.89299569
Arkansas,Fulton,633,13,15,1,2020-12-12,36.38177105,-91.81729127
Arkansas,Garland,4559,75,127,1,2020-12-12,34.57692074,-93.14921604
Arkansas,Grant,739,6,8,0,2020-12-12,34.29017991,-92.42320562
Arkansas,Greene,3729,59,39,1,2020-12-12,36.11735460000001,-90.55832668
Arkansas,Hempstead,1013,15,9,0,2020-12-12,33.73325583,-93.66935133
Arkansas,Hot Spring,3148,28,47,0,2020-12-12,34.31709259,-92.95396325
Arkansas,Howard,924,10,16,0,2020-12-12,34.09007427,-93.9934871
Arkansas,Independence,2339,21,77,1,2020-12-12,35.74242707,-91.57001641
Arkansas,Izard,1069,8,7,0,2020-12-12,36.09604046,-91.90847954
Arkansas,Jackson,2414,42,13,0,2020-12-12,35.59802983,-91.21494602
Arkansas,Jefferson,5658,27,116,0,2020-12-12,34.26767081,-91.92619839
Arkansas,Johnson,1462,18,14,0,2020-12-12,35.56759135,-93.46036368
Arkansas,Lafayette,289,4,4,0,2020-12-12,33.24116713,-93.60677071
Arkansas,Lawrence,1318,18,33,0,2020-12-12,36.04188196,-91.10867198
Arkansas,Lee,1319,15,20,0,2020-12-12,34.78498904,-90.78383866
Arkansas,Lincoln,2658,13,20,0,2020-12-12,33.95317155,-91.74002806
Arkansas,Little River,692,1,37,0,2020-12-12,33.70375665,-94.23468591
Arkansas,Logan,1145,22,8,0,2020-12-12,35.21413234,-93.71951016
Arkansas,Lonoke,3236,57,64,0,2020-12-12,34.75392199,-91.88742357
Arkansas,Madison,815,7,9,0,2020-12-12,36.01038185,-93.72524943
Arkansas,Marion,521,7,8,0,2020-12-12,36.26844485,-92.68451899
Arkansas,Miller,2337,11,22,0,2020-12-12,33.31403423,-93.89285258
Arkansas,Mississippi,3780,56,87,0,2020-12-12,35.76271485,-90.05194370000002
Arkansas,Monroe,369,7,5,0,2020-12-12,34.6815935,-91.20540287
Arkansas,Montgomery,393,4,12,0,2020-12-12,34.53704874,-93.65824478
Arkansas,Nevada,514,6,17,0,2020-12-12,33.66340119,-93.30632432
Arkansas,Newton,497,4,24,0,2020-12-12,35.91947491,-93.21612969
Arkansas,Ouachita,1048,24,16,1,2020-12-12,33.58839816,-92.87795984
Arkansas,Perry,310,1,4,0,2020-12-12,34.9459153,-92.94372564
Arkansas,Phillips,1068,21,17,0,2020-12-12,34.43268455,-90.84800154
Arkansas,Pike,487,7,4,0,2020-12-12,34.16250414,-93.65789349
Arkansas,Poinsett,1953,29,51,0,2020-12-12,35.57433534,-90.66268713
Arkansas,Polk,1007,14,19,0,2020-12-12,34.48254879,-94.22728802
Arkansas,Pope,4328,73,49,1,2020-12-12,35.44871474,-93.03212219
Arkansas,Prairie,412,16,9,0,2020-12-12,34.83624419,-91.55162157
Arkansas,Pulaski,19611,258,317,4,2020-12-12,34.77054088,-92.31355101
Arkansas,Randolph,1196,13,35,0,2020-12-12,36.3415714,-91.02455531
Arkansas,St. Francis,2339,26,18,0,2020-12-12,35.02201976,-90.74828138
Arkansas,Saline,6094,118,75,3,2020-12-12,34.64916145,-92.67583224
Arkansas,Scott,465,9,4,1,2020-12-12,34.85588887,-94.0632176
Arkansas,Searcy,405,10,5,4,2020-12-12,35.9109364,-92.69936482
Arkansas,Sebastian,8041,123,132,1,2020-12-12,35.19605503,-94.27162713
Arkansas,Sevier,1856,9,20,0,2020-12-12,33.99780401,-94.2424869
Arkansas,Sharp,854,15,24,2,2020-12-12,36.16258158,-91.47819342
Arkansas,Stone,592,9,25,0,2020-12-12,35.86251946,-92.15684085
Arkansas,Union,1826,28,61,0,2020-12-12,33.16887091,-92.59746952
Arkansas,Van Buren,546,21,6,0,2020-12-12,35.58095779,-92.51295036
Arkansas,Washington,17915,263,194,2,2020-12-12,35.976844,-94.21800746
Arkansas,White,3523,65,62,0,2020-12-12,35.25688493,-91.74908296
Arkansas,Woodruff,262,6,1,0,2020-12-12,35.18902527,-91.2439489
Arkansas,Yell,1936,48,36,0,2020-12-12,35.00292371,-93.41171338
California,Alameda,36281,595,542,4,2020-12-12,37.64629437,-121.8929271
California,Alpine,63,0,0,0,2020-12-12,38.59678594,-119.8223594
California,Amador,1289,62,19,0,2020-12-12,38.44583082,-120.65696
California,Butte,4941,78,67,3,2020-12-12,39.66727762,-121.6005252
California,Calaveras,697,13,22,0,2020-12-12,38.20537103,-120.552913
California,Colusa,923,14,8,1,2020-12-12,39.17881957,-122.2331726
California,Contra Costa,29124,637,279,6,2020-12-12,37.91923498,-121.9289527
California,Del Norte,536,24,1,0,2020-12-12,41.74228275,-123.8974063
California,El Dorado,3754,126,8,0,2020-12-12,38.77965956,-120.5233166
California,Fresno,43071,610,542,0,2020-12-12,36.75733899,-119.6466953
California,Glenn,1136,2,12,0,2020-12-12,39.59875897,-122.3938452
California,Humboldt,1231,0,10,0,2020-12-12,40.69923009,-123.876044
California,Imperial,18599,266,373,0,2020-12-12,33.0393082,-115.3669042
California,Inyo,388,12,17,0,2020-12-12,36.51112084,-117.41119779999998
California,Kern,49232,831,467,4,2020-12-12,35.34329425,-118.7277796
California,Kings,13118,125,98,1,2020-12-12,36.07409056,-119.8159973
California,Lake,1215,44,22,0,2020-12-12,39.10124298,-122.7536244
California,Lassen,3127,155,6,1,2020-12-12,40.67311306,-120.59350990000002
California,Los Angeles,512872,11237,8269,70,2020-12-12,34.30828379,-118.2282411
California,Madera,7648,36,107,0,2020-12-12,37.21513971,-119.76655890000002
California,Marin,8361,49,132,0,2020-12-12,38.07122463,-122.7210631
California,Mariposa,174,3,4,0,2020-12-12,37.57978556,-119.9073334
California,Mendocino,1931,20,24,0,2020-12-12,39.4381191,-123.3911313
California,Merced,14483,173,207,5,2020-12-12,37.18922369,-120.7209035
California,Modoc,232,7,0,0,2020-12-12,41.58965602,-120.7244817
California,Mono,700,27,3,0,2020-12-12,37.93899289,-118.8872409
California,Monterey,18421,155,153,5,2020-12-12,36.21862405,-121.2413397
California,Napa,4054,80,23,0,2020-12-12,38.50735751,-122.332839
California,Nevada,1962,40,21,0,2020-12-12,39.30394768,-120.7627281
California,Orange,99393,2091,1680,18,2020-12-12,33.70147516,-117.76459979999998
California,Placer,8904,-2,92,0,2020-12-12,39.06167234,-120.7240569
California,Plumas,335,19,0,0,2020-12-12,40.00355989,-120.8395236
California,Riverside,115329,2379,1573,0,2020-12-12,33.74314981,-115.9933578
California,Sacramento,47473,994,670,11,2020-12-12,38.45106826,-121.3425374
California,San Benito,2401,53,19,0,2020-12-12,36.60308176,-121.069975
California,San Bernardino,124264,4078,1215,6,2020-12-12,34.84060306,-116.1774685
California,San Diego,102468,2867,1137,23,2020-12-12,33.03484597,-116.7365326
California,San Joaquin,32044,816,534,-1,2020-12-12,37.93433732,-121.2730061
California,San Luis Obispo,7452,185,46,1,2020-12-12,35.38822029,-120.4039028
California,San Mateo,17724,548,179,0,2020-12-12,37.4228808,-122.32755459999998
California,Santa Barbara,12997,189,140,0,2020-12-12,34.65329488,-120.0188492
California,Santa Clara,45986,808,526,0,2020-12-12,37.23104908,-121.6970462
California,Santa Cruz,5764,119,53,3,2020-12-12,37.05580291,-122.0066524
California,Shasta,6853,0,58,0,2020-12-12,40.76391419,-122.0396884
California,Sierra,19,-6,0,0,2020-12-12,39.57713498,-120.52007009999998
California,Siskiyou,914,14,7,0,2020-12-12,41.59198861,-122.5407434
California,Solano,12733,0,91,0,2020-12-12,38.26827353,-121.9357113
California,Sonoma,14298,16,162,0,2020-12-12,38.52746429,-122.8862506
California,Stanislaus,26361,425,468,5,2020-12-12,37.55862499,-120.9970722
California,Sutter,4657,83,33,2,2020-12-12,39.03417539,-121.6945899
California,Tehama,2316,76,30,0,2020-12-12,40.12570935,-122.2370171
California,Trinity,225,5,1,0,2020-12-12,40.64917670000001,-123.114713
California,Tulare,25042,418,327,1,2020-12-12,36.22026558,-118.8020203
California,Tuolumne,1547,30,17,1,2020-12-12,38.02644018,-119.9525093
California,Ventura,24999,924,198,1,2020-12-12,34.44465746,-119.0910613
California,Yolo,6049,70,89,0,2020-12-12,38.68278902,-121.9018288
California,Yuba,2820,40,10,0,2020-12-12,39.26255932,-121.3535644
Colorado,Adams,34945,461,414,2,2020-12-12,39.87432092,-104.3362578
Colorado,Alamosa,793,9,20,0,2020-12-12,37.57250606,-105.7885451
Colorado,Arapahoe,32681,375,494,1,2020-12-12,39.64977461,-104.3353617
Colorado,Archuleta,412,6,0,0,2020-12-12,37.19474156,-107.0476867
Colorado,Baca,154,3,0,0,2020-12-12,37.31940883,-102.5603223
Colorado,Bent,613,15,2,0,2020-12-12,37.95474293,-103.0720195
Colorado,Boulder,12881,154,143,2,2020-12-12,40.09313619,-105.3546767
Colorado,Chaffee,809,9,22,0,2020-12-12,38.74745778,-106.19265729999998
Colorado,Cheyenne,86,2,3,0,2020-12-12,38.82777431,-102.6032558
Colorado,Clear Creek,229,1,2,0,2020-12-12,39.68864463,-105.6463118
Colorado,Conejos,243,-1,4,0,2020-12-12,37.201606,-106.19174879999998
Colorado,Costilla,112,1,2,0,2020-12-12,37.27732493,-105.4276548
Colorado,Crowley,1428,7,10,0,2020-12-12,38.32608609,-103.7844965
Colorado,Custer,118,5,0,0,2020-12-12,38.10883162,-105.3683478
Colorado,Delta,1054,49,17,1,2020-12-12,38.86246243,-107.8631342
Colorado,Dolores,40,0,0,0,2020-12-12,37.75208676,-108.5211585
Colorado,Douglas,13353,189,143,1,2020-12-12,39.33133796,-104.930001
Colorado,Eagle,2811,29,12,0,2020-12-12,39.62754308,-106.6933637
Colorado,Elbert,806,16,5,0,2020-12-12,39.28656773,-104.1358721
Colorado,El Paso,34784,504,419,6,2020-12-12,38.83240149,-104.5251411
Colorado,Fremont,3685,64,11,1,2020-12-12,38.47362326,-105.4399667
Colorado,Garfield,2951,83,17,1,2020-12-12,39.59921777,-107.902708
Colorado,Gilpin,105,0,1,0,2020-12-12,39.85646523,-105.5252597
Colorado,Grand,517,0,5,0,2020-12-12,40.10603347,-106.1178042
Colorado,Gunnison,538,5,7,0,2020-12-12,38.66611652,-107.0320729
Colorado,Hinsdale,12,0,0,0,2020-12-12,37.82247444,-107.3004345
Colorado,Huerfano,234,7,11,0,2020-12-12,37.68473101,-104.9612585
Colorado,Jackson,25,1,0,0,2020-12-12,40.66593870000001,-106.3408905
Colorado,Jefferson,25496,359,544,1,2020-12-12,39.58635604,-105.2517692
Colorado,Kiowa,53,3,0,0,2020-12-12,38.43260896,-102.7392145
Colorado,Kit Carson,389,10,8,0,2020-12-12,39.30497777,-102.6022199
Colorado,Lake,352,2,0,0,2020-12-12,39.20278823,-106.3555697
Colorado,La Plata,1868,35,10,0,2020-12-12,37.28632032,-107.8429014
Colorado,Larimer,12942,211,92,0,2020-12-12,40.66671597,-105.4625784
Colorado,Las Animas,369,9,3,0,2020-12-12,37.3153406,-104.0376458
Colorado,Lincoln,682,25,1,0,2020-12-12,38.98749519,-103.5136649
Colorado,Logan,2740,31,46,1,2020-12-12,40.7249637,-103.110817
Colorado,Mesa,7404,123,90,0,2020-12-12,39.01787888,-108.469799
Colorado,Mineral,37,0,1,0,2020-12-12,37.66954283,-106.9281698
Colorado,Moffat,425,11,16,1,2020-12-12,40.61810999,-108.2070876
Colorado,Montezuma,977,15,11,0,2020-12-12,37.33859579,-108.5958857
Colorado,Montrose,1586,54,22,0,2020-12-12,38.40214114,-108.26390220000002
Colorado,Morgan,1885,14,63,0,2020-12-12,40.26279810000001,-103.8093302
Colorado,Otero,1277,58,18,0,2020-12-12,37.9014485,-103.7173385
Colorado,Ouray,133,0,3,0,2020-12-12,38.14717457,-107.7675136
Colorado,Park,306,5,4,0,2020-12-12,39.120926,-105.7182065
Colorado,Phillips,205,0,3,0,2020-12-12,40.59414277,-102.3577703
Colorado,Pitkin,669,16,2,0,2020-12-12,39.21720112,-106.9310027
Colorado,Prowers,864,13,16,0,2020-12-12,37.95544985,-102.3926052
Colorado,Pueblo,11353,164,212,1,2020-12-12,38.17359144,-104.5127437
Colorado,Rio Blanco,209,0,2,0,2020-12-12,39.97913541,-108.2179009
Colorado,Rio Grande,295,3,5,0,2020-12-12,37.5836865,-106.3847838
Colorado,Routt,869,19,16,0,2020-12-12,40.48596505,-106.9905548
Colorado,Saguache,237,0,4,0,2020-12-12,38.08054629,-106.282466
Colorado,San Juan,26,0,0,0,2020-12-12,37.76248981,-107.67632890000002
Colorado,San Miguel,283,14,0,0,2020-12-12,38.00450883,-108.4020725
Colorado,Sedgwick,116,0,2,0,2020-12-12,40.87595412,-102.3519227
Colorado,Summit,1811,22,5,0,2020-12-12,39.63803232,-106.1150762
Colorado,Teller,838,15,6,0,2020-12-12,38.88133511,-105.1614893
Colorado,Washington,298,-2,9,0,2020-12-12,39.97015535,-103.202587
Colorado,Weld,17039,180,237,2,2020-12-12,40.55499405,-104.3929621
Colorado,Yuma,433,6,3,0,2020-12-12,40.00346839,-102.4258673
Connecticut,Fairfield,46615,0,1588,0,2020-12-12,41.26809896,-73.3881171
Connecticut,Hartford,35878,0,1686,0,2020-12-12,41.80283011,-72.73103891
Connecticut,Litchfield,5796,0,186,0,2020-12-12,41.7937534,-73.2451475
Connecticut,Middlesex,4733,0,216,0,2020-12-12,41.45949668,-72.53714864
Connecticut,New Haven,37836,0,1360,0,2020-12-12,41.4080325,-72.93620426
Connecticut,New London,7684,0,195,0,2020-12-12,41.48896435,-72.10430976
Connecticut,Tolland,3737,0,89,0,2020-12-12,41.85853803,-72.3308481
Connecticut,Windham,3427,0,42,0,2020-12-12,41.82972709,-71.98182316
Delaware,Kent,6903,197,142,3,2020-12-12,39.08646628,-75.56884914
Delaware,New Castle,25771,664,402,4,2020-12-12,39.57992638,-75.64054974
Delaware,Sussex,12108,196,271,1,2020-12-12,38.66143781,-75.39031349
Florida,Alachua,13971,102,106,0,2020-12-12,29.67866525,-82.35928158
Florida,Baker,2179,15,34,0,2020-12-12,30.33060121,-82.28467476
Florida,Bay,9665,136,180,0,2020-12-12,30.26548745,-85.62122584
Florida,Bradford,1555,22,22,0,2020-12-12,29.95079741,-82.16611613
Florida,Brevard,17631,187,477,4,2020-12-12,28.29409504,-80.73091022
Florida,Broward,119429,917,1730,2,2020-12-12,26.15184651,-80.48725556
Florida,Calhoun,983,6,23,0,2020-12-12,30.40666734,-85.19394153
Florida,Charlotte,6004,81,209,1,2020-12-12,26.90131002,-81.92949121
Florida,Citrus,5469,42,204,1,2020-12-12,28.84804315,-82.47614748
Florida,Clay,9057,96,166,1,2020-12-12,29.98319144,-81.85609986
Florida,Collier,19854,170,308,2,2020-12-12,26.11091986,-81.34687065
Florida,Columbia,5108,53,104,1,2020-12-12,30.22509788,-82.62160164
Florida,DeSoto,2593,16,45,2,2020-12-12,27.18677893,-81.80941373
Florida,Dixie,999,3,11,0,2020-12-12,29.60631086,-83.15724673
Florida,Duval,49697,377,678,2,2020-12-12,30.33225875,-81.66976468
Florida,Escambia,18616,189,332,4,2020-12-12,30.67652764,-87.37284571
Florida,Flagler,3024,29,46,0,2020-12-12,29.45933576,-81.31508595
Florida,Franklin,848,5,4,0,2020-12-12,29.83791238,-84.82731662
Florida,Gadsden,3501,14,58,0,2020-12-12,30.57796289,-84.61915825
Florida,Gilchrist,856,8,20,0,2020-12-12,29.72856978,-82.79880657
Florida,Glades,713,0,11,0,2020-12-12,26.95635849,-81.18996211
Florida,Gulf,1137,8,24,0,2020-12-12,29.93543004,-85.24270990000002
Florida,Hamilton,1051,7,12,0,2020-12-12,30.49673973,-82.94998918
Florida,Hardee,1863,12,20,0,2020-12-12,27.49293939,-81.80956574
Florida,Hendry,2751,37,45,0,2020-12-12,26.55386945,-81.16469006
Florida,Hernando,5895,118,244,4,2020-12-12,28.55364461,-82.42700204
Florida,Highlands,4261,28,181,1,2020-12-12,27.34254618,-81.34071957
Florida,Hillsborough,64999,718,985,1,2020-12-12,27.9276559,-82.32013172
Florida,Holmes,1314,9,17,0,2020-12-12,30.86747479,-85.81319222
Florida,Indian River,5504,48,147,3,2020-12-12,27.69308961,-80.60556721
Florida,Jackson,4129,25,102,0,2020-12-12,30.7954597,-85.21500423
Florida,Jefferson,833,7,12,0,2020-12-12,30.43669112,-83.89442308
Florida,Lafayette,1383,2,20,0,2020-12-12,29.98484137,-83.18166636
Florida,Lake,12136,151,270,3,2020-12-12,28.76202069,-81.7125123
Florida,Lee,34177,348,613,3,2020-12-12,26.58410348,-81.88399313
Florida,Leon,16747,135,158,4,2020-12-12,30.45955727,-84.27491114
Florida,Levy,1572,14,16,0,2020-12-12,29.31829741,-82.74007147
Florida,Liberty,645,3,14,0,2020-12-12,30.23766008,-84.8829258
Florida,Madison,1401,9,29,1,2020-12-12,30.44396917,-83.47398594
Florida,Manatee,18720,208,396,2,2020-12-12,27.47196942,-82.31831044
Florida,Marion,14744,146,421,8,2020-12-12,29.21227113,-82.05803627
Florida,Martin,6808,47,186,0,2020-12-12,27.0772071,-80.43109784
Florida,Miami-Dade,255462,2059,3965,6,2020-12-12,25.6112362,-80.55170587
Florida,Monroe,3797,27,28,0,2020-12-12,25.20904673,-81.07812416
Florida,Nassau,3684,55,62,0,2020-12-12,30.61037141,-81.80297522
Florida,Okaloosa,10647,175,185,2,2020-12-12,30.69143028,-86.59267105
Florida,Okeechobee,2166,19,47,2,2020-12-12,27.386336199999995,-80.88944347
Florida,Orange,63281,759,679,1,2020-12-12,28.51367621,-81.31799498
Florida,Osceola,21268,212,268,2,2020-12-12,28.06312234,-81.14882926
Florida,Palm Beach,72247,556,1766,0,2020-12-12,26.64676272,-80.46536002
Florida,Pasco,17578,263,312,0,2020-12-12,28.30810945,-82.40227529
Florida,Pinellas,37387,425,945,2,2020-12-12,27.93130349,-82.72239666
Florida,Polk,30967,339,722,1,2020-12-12,27.95027105,-81.69732947
Florida,Putnam,3197,49,62,0,2020-12-12,29.60779729,-81.74230285
Florida,St. Johns,10215,135,105,1,2020-12-12,29.90096506,-81.43589967
Florida,St. Lucie,11989,120,377,0,2020-12-12,27.37763908,-80.47106649
Florida,Santa Rosa,8761,142,110,0,2020-12-12,30.693414500000006,-87.02458128
Florida,Sarasota,15659,132,427,0,2020-12-12,27.18546175,-82.33174248
Florida,Seminole,15175,193,296,2,2020-12-12,28.7158582,-81.24060348
Florida,Sumter,3987,40,102,0,2020-12-12,28.70181754,-82.0794267
Florida,Suwannee,3521,25,87,0,2020-12-12,30.19746066,-82.99099670000003
Florida,Taylor,1748,4,23,0,2020-12-12,30.04848048,-83.60445406
Florida,Union,1302,9,61,0,2020-12-12,30.04412971,-82.37497443
Florida,Volusia,18419,180,389,0,2020-12-12,29.05858895,-81.18263252
Florida,Wakulla,1787,13,18,0,2020-12-12,30.16548905,-84.39895211
Florida,Walton,4142,56,40,0,2020-12-12,30.64204028,-86.16935664
Florida,Washington,1644,9,29,2,2020-12-12,30.61359259,-85.66002461
Georgia,Appling,1413,7,42,0,2020-12-12,31.74847232,-82.28909114
Georgia,Atkinson,646,7,9,0,2020-12-12,31.29633502,-82.87545866
Georgia,Bacon,817,12,24,0,2020-12-12,31.55456473,-82.45936528
Georgia,Baker,140,2,6,0,2020-12-12,31.32669878,-84.44218806
Georgia,Baldwin,2829,16,74,0,2020-12-12,33.06882326,-83.24701748
Georgia,Banks,965,18,13,0,2020-12-12,34.35607081,-83.49644388
Georgia,Barrow,4090,50,60,0,2020-12-12,33.99148694,-83.71436292
Georgia,Bartow,6130,86,111,0,2020-12-12,34.23732119,-84.83887523
Georgia,Ben Hill,1198,21,40,0,2020-12-12,31.76095874,-83.22145359
Georgia,Berrien,836,12,29,0,2020-12-12,31.27590016,-83.22529920000002
Georgia,Bibb,8494,57,248,1,2020-12-12,32.80904227,-83.70489165
Georgia,Bleckley,771,11,33,0,2020-12-12,32.43829035,-83.33035166
Georgia,Brantley,884,12,19,0,2020-12-12,31.19576557,-81.97743999
Georgia,Brooks,822,8,30,0,2020-12-12,30.83922642,-83.58303423
Georgia,Bryan,1637,19,18,0,2020-12-12,32.00979311,-81.44002948
Georgia,Bulloch,3951,21,56,0,2020-12-12,32.39577406,-81.74811421
Georgia,Burke,1367,12,16,0,2020-12-12,33.05917989,-81.99928721
Georgia,Butts,1289,29,47,0,2020-12-12,33.283094500000004,-83.95435040000002
Georgia,Calhoun,345,2,11,0,2020-12-12,31.53169785,-84.62725131
Georgia,Camden,2067,11,21,0,2020-12-12,30.92951916,-81.66601818
Georgia,Candler,626,1,35,0,2020-12-12,32.40209349,-82.07702563
Georgia,Carroll,6481,56,103,0,2020-12-12,33.58138199,-85.07976677
Georgia,Catoosa,2570,26,35,0,2020-12-12,34.89872298,-85.13757014
Georgia,Charlton,882,12,19,0,2020-12-12,30.78371028,-82.13951596
Georgia,Chatham,11787,79,220,0,2020-12-12,32.00043026,-81.12489526
Georgia,Chattahoochee,2130,1,3,0,2020-12-12,32.34341231,-84.78809239
Georgia,Chattooga,1454,16,39,1,2020-12-12,34.47197698,-85.34535662
Georgia,Cherokee,12490,206,119,0,2020-12-12,34.24393976,-84.47431861
Georgia,Clarke,8805,67,58,0,2020-12-12,33.95436462,-83.37124007
Georgia,Clay,157,0,3,0,2020-12-12,31.62221166,-84.97713865
Georgia,Clayton,11936,128,212,0,2020-12-12,33.54187245,-84.35594188
Georgia,Clinch,551,1,14,0,2020-12-12,30.91395822,-82.70432472
Georgia,Cobb,34687,489,532,0,2020-12-12,33.94243204,-84.5761255
Georgia,Coffee,3398,49,81,0,2020-12-12,31.54892966,-82.85492059999999
Georgia,Colquitt,2791,5,52,1,2020-12-12,31.18810588,-83.7677946
Georgia,Columbia,7692,110,90,1,2020-12-12,33.54534185,-82.263524
Georgia,Cook,1014,8,20,0,2020-12-12,31.16068491,-83.42947229
Georgia,Coweta,6473,81,77,0,2020-12-12,33.35334302,-84.76129976
Georgia,Crawford,297,5,8,0,2020-12-12,32.71391813,-83.98061238
Georgia,Crisp,1100,33,36,0,2020-12-12,31.92289565,-83.76811843
Georgia,Dade,631,3,8,0,2020-12-12,34.854916700000004,-85.50490424
Georgia,Dawson,1388,35,11,0,2020-12-12,34.44244079,-84.16964071
Georgia,Decatur,1739,21,47,0,2020-12-12,30.87967778,-84.57619536
Georgia,DeKalb,31421,360,492,1,2020-12-12,33.76944049,-84.22396017
Georgia,Dodge,1162,17,56,0,2020-12-12,32.17265114,-83.16948926
Georgia,Dooly,561,7,23,2,2020-12-12,32.15630737,-83.79746561
Georgia,Dougherty,4143,50,206,0,2020-12-12,31.53328528,-84.21722377
Georgia,Douglas,6676,74,102,0,2020-12-12,33.70291126,-84.77026156
Georgia,Early,735,5,38,0,2020-12-12,31.32155345,-84.90255207
Georgia,Echols,322,3,3,0,2020-12-12,30.71101099,-82.89687287
Georgia,Effingham,2329,15,34,0,2020-12-12,32.36616021,-81.34280942
Georgia,Elbert,1360,12,31,0,2020-12-12,34.11302332,-82.83936148
Georgia,Emanuel,1528,14,49,1,2020-12-12,32.59221302,-82.30239915
Georgia,Evans,575,2,13,0,2020-12-12,32.15328841,-81.8870105
Georgia,Fannin,1171,10,38,0,2020-12-12,34.86430205,-84.316964
Georgia,Fayette,3865,46,66,1,2020-12-12,33.41357794,-84.49089434
Georgia,Floyd,6409,66,102,3,2020-12-12,34.26268279,-85.21577392
Georgia,Forsyth,8289,161,68,1,2020-12-12,34.22604035,-84.12315129999998
Georgia,Franklin,1425,15,25,0,2020-12-12,34.37525597,-83.23159927
Georgia,Fulton,46499,597,748,3,2020-12-12,33.79216944,-84.46319413
Georgia,Gilmer,1472,12,33,0,2020-12-12,34.69316688,-84.45802506
Georgia,Glascock,106,17,2,0,2020-12-12,33.22879932,-82.61297636
Georgia,Glynn,4575,24,128,0,2020-12-12,31.23279254,-81.53811412
Georgia,Gordon,3977,19,60,0,2020-12-12,34.50487351,-84.87296253
Georgia,Grady,1098,5,31,0,2020-12-12,30.87454847,-84.23418364
Georgia,Greene,827,13,28,0,2020-12-12,33.5769205,-83.17139104
Georgia,Gwinnett,46030,541,564,4,2020-12-12,33.96044201,-84.02137802
Georgia,Habersham,2797,49,84,0,2020-12-12,34.63331566,-83.53094677
Georgia,Hall,14716,127,209,0,2020-12-12,34.32207823,-83.81896936
Georgia,Hancock,549,2,46,0,2020-12-12,33.2721566,-82.99766919
Georgia,Haralson,1536,10,31,1,2020-12-12,33.79602175,-85.21005667
Georgia,Harris,1151,9,28,0,2020-12-12,32.73709786,-84.90538572
Georgia,Hart,1087,38,30,0,2020-12-12,34.34626973,-82.96567682
Georgia,Heard,493,5,8,0,2020-12-12,33.29686567,-85.12886832
Georgia,Henry,10311,153,146,0,2020-12-12,33.4533428,-84.14814659999998
Georgia,Houston,5761,94,113,1,2020-12-12,32.45802497,-83.66879087
Georgia,Irwin,500,5,15,0,2020-12-12,31.60213036,-83.27501387
Georgia,Jackson,4151,50,62,1,2020-12-12,34.13794553,-83.56814788
Georgia,Jasper,612,10,7,0,2020-12-12,33.31535543,-83.68844964
Georgia,Jeff Davis,1045,3,34,0,2020-12-12,31.80405727,-82.63724870000001
Georgia,Jefferson,1105,9,40,0,2020-12-12,33.05867328,-82.41609057
Georgia,Jenkins,510,1,34,0,2020-12-12,32.79248718,-81.96040187
Georgia,Johnson,560,6,32,0,2020-12-12,32.70211082,-82.66166794
Georgia,Jones,899,10,24,0,2020-12-12,33.02512137,-83.56019163
Georgia,Lamar,849,24,29,0,2020-12-12,33.07841647,-84.14263877
Georgia,Lanier,425,3,10,0,2020-12-12,31.038285700000007,-83.06472457
Georgia,Laurens,2924,41,120,0,2020-12-12,32.46325233,-82.92221316
Georgia,Lee,1165,10,33,0,2020-12-12,31.779330600000005,-84.14324253
Georgia,Liberty,1705,16,31,1,2020-12-12,31.82588896,-81.49251135
Georgia,Lincoln,362,2,11,0,2020-12-12,33.79201475,-82.45024131
Georgia,Long,376,7,5,0,2020-12-12,31.75218791,-81.74952375
Georgia,Lowndes,7159,86,132,1,2020-12-12,30.83568832,-83.27056716
Georgia,Lumpkin,1521,38,20,0,2020-12-12,34.57286511,-84.00425681
Georgia,McDuffie,1089,12,23,0,2020-12-12,33.47851918,-82.48252774
Georgia,McIntosh,436,6,9,0,2020-12-12,31.49683595,-81.40163426
Georgia,Macon,391,8,16,0,2020-12-12,32.35207048,-84.04234127
Georgia,Madison,1409,16,21,0,2020-12-12,34.12920917,-83.21218732
Georgia,Marion,261,2,10,0,2020-12-12,32.3483402,-84.52733571
Georgia,Meriwether,884,9,19,0,2020-12-12,33.04163534,-84.68859732
Georgia,Miller,443,3,3,0,2020-12-12,31.16568912,-84.73151117
Georgia,Mitchell,1111,15,52,0,2020-12-12,31.22483255,-84.19381821
Georgia,Monroe,1226,32,61,-1,2020-12-12,33.014289,-83.92097166
Georgia,Montgomery,455,6,10,0,2020-12-12,32.17201038,-82.53527476
Georgia,Morgan,917,15,8,0,2020-12-12,33.59232073,-83.49129491
Georgia,Murray,2270,29,32,1,2020-12-12,34.78897608,-84.74993177
Georgia,Muscogee,8065,71,202,2,2020-12-12,32.50931999,-84.87142262
Georgia,Newton,4602,80,112,0,2020-12-12,33.55514538,-83.84547140000002
Georgia,Oconee,1603,11,37,0,2020-12-12,33.83749973,-83.43679568
Georgia,Oglethorpe,644,11,14,0,2020-12-12,33.878629600000004,-83.08278123
Georgia,Paulding,6263,105,91,1,2020-12-12,33.91969522,-84.86848792
Georgia,Peach,1249,21,29,0,2020-12-12,32.56934316,-83.82937
Georgia,Pickens,1353,18,18,0,2020-12-12,34.46589159,-84.46406611
Georgia,Pierce,1302,12,31,0,2020-12-12,31.35928155,-82.21598442
Georgia,Pike,946,10,17,0,2020-12-12,33.09310242,-84.38790389
Georgia,Polk,2781,24,38,1,2020-12-12,34.00267074,-85.18677781
Georgia,Pulaski,500,7,30,1,2020-12-12,32.23334561,-83.47549959999998
Georgia,Putnam,1096,20,31,0,2020-12-12,33.32056115,-83.37552891
Georgia,Quitman,88,0,1,0,2020-12-12,31.86728114,-85.01773177
Georgia,Rabun,787,21,14,1,2020-12-12,34.88389445,-83.40304637
Georgia,Randolph,375,2,31,0,2020-12-12,31.76622818,-84.75732369
Georgia,Richmond,11987,146,234,1,2020-12-12,33.35777107,-82.07026432
Georgia,Rockdale,3212,39,65,0,2020-12-12,33.65145002,-84.02202167
Georgia,Schley,190,4,2,0,2020-12-12,32.2654021,-84.31258912
Georgia,Screven,517,5,15,0,2020-12-12,32.74976524,-81.60779441
Georgia,Seminole,588,7,12,0,2020-12-12,30.93464824,-84.86823924
Georgia,Spalding,2748,37,90,1,2020-12-12,33.26310031,-84.28013991
Georgia,Stephens,1789,30,49,1,2020-12-12,34.55151201,-83.29405315
Georgia,Stewart,645,9,17,0,2020-12-12,32.07996777,-84.83208037
Georgia,Sumter,1439,25,72,0,2020-12-12,32.03650571,-84.19821492
Georgia,Talbot,249,0,8,0,2020-12-12,32.69642758,-84.53351366
Georgia,Taliaferro,46,2,0,0,2020-12-12,33.56543317,-82.88136816
Georgia,Tattnall,1246,8,34,1,2020-12-12,32.04785085,-82.05539188
Georgia,Taylor,445,5,13,0,2020-12-12,32.55792548,-84.25077141
Georgia,Telfair,688,3,33,2,2020-12-12,31.92829517,-82.93491155
Georgia,Terrell,486,3,34,0,2020-12-12,31.77527543,-84.44069698
Georgia,Thomas,2216,33,83,0,2020-12-12,30.86392347,-83.91847289
Georgia,Tift,2944,35,79,0,2020-12-12,31.45743864,-83.5236119
Georgia,Toombs,1826,12,70,0,2020-12-12,32.12059861,-82.32957247
Georgia,Towns,658,7,35,1,2020-12-12,34.91369188,-83.74107459999998
Georgia,Treutlen,396,1,15,0,2020-12-12,32.40422134,-82.56904553
Georgia,Troup,4303,43,126,0,2020-12-12,33.03349196,-85.02812115
Georgia,Turner,506,3,25,0,2020-12-12,31.71612656,-83.62069378
Georgia,Twiggs,292,6,19,0,2020-12-12,32.67435595,-83.43078662
Georgia,Union,1214,6,40,0,2020-12-12,34.82995757,-83.98967069
Georgia,Upson,1677,12,80,0,2020-12-12,32.87920671,-84.30024826
Georgia,Walker,3181,40,56,0,2020-12-12,34.73376362,-85.30165174
Georgia,Walton,3980,43,85,0,2020-12-12,33.78017694,-83.73552314
Georgia,Ware,2764,23,81,0,2020-12-12,31.05449097,-82.42224148
Georgia,Warren,241,6,8,0,2020-12-12,33.41146451,-82.67795848
Georgia,Washington,1216,10,40,0,2020-12-12,32.96711864,-82.79357039
Georgia,Wayne,1782,16,49,0,2020-12-12,31.5521809,-81.91894878
Georgia,Webster,66,0,2,0,2020-12-12,32.04066113,-84.54742852
Georgia,Wheeler,432,1,19,0,2020-12-12,32.12009104,-82.72574721
Georgia,White,1597,41,28,0,2020-12-12,34.64624278,-83.74905525
Georgia,Whitfield,9428,170,100,2,2020-12-12,34.80987459,-84.96093476
Georgia,Wilcox,440,9,29,1,2020-12-12,31.97496928,-83.43438555
Georgia,Wilkes,518,7,10,0,2020-12-12,33.78290391,-82.74286107
Georgia,Wilkinson,504,5,18,0,2020-12-12,32.80291082,-83.17140684
Georgia,Worth,877,21,39,0,2020-12-12,31.55162306,-83.85090513
Idaho,Ada,31070,375,285,11,2020-12-12,43.4526575,-116.24155159999998
Idaho,Adams,133,0,3,0,2020-12-12,44.89333571,-116.4545247
Idaho,Bannock,5543,60,44,1,2020-12-12,42.67002716,-112.2233311
Idaho,Bear Lake,229,0,2,0,2020-12-12,42.28269683,-111.32892379999998
Idaho,Benewah,325,2,4,0,2020-12-12,47.21754179,-116.6586851
Idaho,Bingham,3246,43,33,0,2020-12-12,43.21672879999999,-112.3978437
Idaho,Blaine,1471,7,9,0,2020-12-12,43.4085812,-113.9752658
Idaho,Boise,199,4,2,0,2020-12-12,43.98829931,-115.7309284
Idaho,Bonner,1384,16,10,0,2020-12-12,48.29996017,-116.6017932
Idaho,Bonneville,9116,26,89,0,2020-12-12,43.38713372,-111.6161537
Idaho,Boundary,431,2,5,0,2020-12-12,48.76684761,-116.4630179
Idaho,Butte,144,2,0,0,2020-12-12,43.72592209,-113.1735463
Idaho,Camas,56,0,0,0,2020-12-12,43.46665742,-114.8065892
Idaho,Canyon,17970,145,176,4,2020-12-12,43.61970148,-116.7095499
Idaho,Caribou,472,3,11,0,2020-12-12,42.77149116,-111.5597683
Idaho,Cassia,2365,35,20,0,2020-12-12,42.28347888,-113.6012409
Idaho,Clark,52,0,0,0,2020-12-12,44.28496071,-112.3505704
Idaho,Clearwater,731,0,3,0,2020-12-12,46.67459924,-115.6622393
Idaho,Custer,178,0,1,0,2020-12-12,44.24186819,-114.2855494
Idaho,Elmore,1083,16,7,0,2020-12-12,43.3507101,-115.4701578
Idaho,Franklin,814,12,7,0,2020-12-12,42.18332217,-111.8149666
Idaho,Fremont,821,0,12,0,2020-12-12,44.22800938,-111.4809943
Idaho,Gem,1241,15,11,1,2020-12-12,44.06482372,-116.398376
Idaho,Gooding,1075,9,14,0,2020-12-12,42.96927962,-114.8108306
Idaho,Idaho,876,0,15,0,2020-12-12,45.84721541,-115.4634436
Idaho,Jefferson,1844,2,11,0,2020-12-12,43.82078483,-112.3131749
Idaho,Jerome,2083,10,15,0,2020-12-12,42.68891267,-114.2655033
Idaho,Kootenai,9937,140,100,0,2020-12-12,47.67282258,-116.7020872
Idaho,Latah,1957,2,3,0,2020-12-12,46.81587887,-116.7113698
Idaho,Lemhi,444,1,8,0,2020-12-12,44.9438088,-113.9309747
Idaho,Lewis,293,-1,4,0,2020-12-12,46.23315327,-116.434146
Idaho,Lincoln,404,4,8,0,2020-12-12,43.0012336,-114.1358773
Idaho,Madison,4876,14,10,0,2020-12-12,43.78141028,-111.65384740000002
Idaho,Minidoka,1883,13,21,0,2020-12-12,42.85518524,-113.6357257
Idaho,Nez Perce,2667,0,40,0,2020-12-12,46.32638236,-116.7500975
Idaho,Oneida,219,9,0,0,2020-12-12,42.19494279999999,-112.5407838
Idaho,Owyhee,798,1,18,1,2020-12-12,42.58016894,-116.1693871
Idaho,Payette,1837,14,19,0,2020-12-12,44.00545243,-116.7647695
Idaho,Power,508,8,4,0,2020-12-12,42.69254894,-112.83957420000002
Idaho,Shoshone,648,5,23,0,2020-12-12,47.35364087,-115.8916749
Idaho,Teton,622,2,2,0,2020-12-12,43.75303583,-111.2056773
Idaho,Twin Falls,7410,28,105,0,2020-12-12,42.35440512,-114.6685381
Idaho,Valley,318,1,1,0,2020-12-12,44.76728382,-115.5676773
Idaho,Washington,854,-2,14,0,2020-12-12,44.45275475,-116.7847688
Illinois,Adams,5410,84,63,0,2020-12-12,39.98815591,-91.18786813
Illinois,Alexander,304,5,5,0,2020-12-12,37.18049267,-89.32910838
Illinois,Bond,1295,2,15,1,2020-12-12,38.88829622,-89.43534887
Illinois,Boone,4462,51,53,1,2020-12-12,42.32359279,-88.82345779
Illinois,Brown,379,0,8,0,2020-12-12,39.96209138,-90.75068024
Illinois,Bureau,2474,19,62,2,2020-12-12,41.40385234,-89.5283051
Illinois,Calhoun,335,11,1,0,2020-12-12,39.16840183,-90.66330078
Illinois,Carroll,1216,8,28,0,2020-12-12,42.06823429,-89.93395545
Illinois,Cass,1303,26,26,0,2020-12-12,39.96991073,-90.24734436
Illinois,Champaign,12327,92,74,1,2020-12-12,40.13919438,-88.20046615
Illinois,Christian,2230,26,51,0,2020-12-12,39.54581621,-89.27780482
Illinois,Clark,964,24,22,0,2020-12-12,39.33425789,-87.78705622
Illinois,Clay,1075,10,26,0,2020-12-12,38.75388572,-88.48914513
Illinois,Clinton,3878,24,72,5,2020-12-12,38.60704876,-89.42385254
Illinois,Coles,3747,16,66,0,2020-12-12,39.51949084,-88.22358557
Illinois,Cook,349461,3457,7319,37,2020-12-12,41.84144849,-87.81658794
Illinois,Crawford,1344,18,20,2,2020-12-12,39.0032229,-87.75954624
Illinois,Cumberland,781,5,21,0,2020-12-12,39.27432424,-88.2401158
Illinois,DeKalb,5829,41,60,2,2020-12-12,41.89373302,-88.76958483
Illinois,De Witt,751,6,20,1,2020-12-12,40.17514519,-88.90959682
Illinois,Douglas,1587,13,20,1,2020-12-12,39.76768052,-88.21854195
Illinois,DuPage,54080,624,895,5,2020-12-12,41.85116968,-88.08642662
Illinois,Edgar,1082,25,23,1,2020-12-12,39.6809186,-87.74759563
Illinois,Edwards,305,11,4,0,2020-12-12,38.41353228,-88.05720863
Illinois,Effingham,3362,26,43,2,2020-12-12,39.05935711,-88.58969584
Illinois,Fayette,2257,34,40,0,2020-12-12,39.00072038,-89.02452658
Illinois,Ford,988,22,28,1,2020-12-12,40.59706922,-88.22350769
Illinois,Franklin,2572,45,38,1,2020-12-12,37.99189086,-88.92567818
Illinois,Fulton,1857,31,20,1,2020-12-12,40.47289135,-90.20862357
Illinois,Gallatin,242,2,4,0,2020-12-12,37.76430935,-88.22953869
Illinois,Greene,989,12,37,0,2020-12-12,39.35907414,-90.388865
Illinois,Grundy,3385,36,33,1,2020-12-12,41.28569601,-88.41905692
Illinois,Hamilton,465,5,8,0,2020-12-12,38.08163641,-88.53883373
Illinois,Hancock,1136,14,17,0,2020-12-12,40.40423981,-91.16313899
Illinois,Hardin,175,3,4,0,2020-12-12,37.51810645,-88.26873022
Illinois,Henderson,354,6,5,0,2020-12-12,40.81908672,-90.92491462
Illinois,Henry,3244,28,37,3,2020-12-12,41.3533994,-90.13296166
Illinois,Iroquois,2050,20,42,1,2020-12-12,40.74717633,-87.82466784
Illinois,Jackson,3166,43,44,0,2020-12-12,37.78595185,-89.38232563
Illinois,Jasper,788,11,13,0,2020-12-12,39.01054275,-88.15437049
Illinois,Jefferson,2348,36,66,0,2020-12-12,38.29980057,-88.9240025
Illinois,Jersey,1612,21,28,0,2020-12-12,39.08869046,-90.35393073
Illinois,Jo Daviess,1237,22,23,0,2020-12-12,42.36542373,-90.21094405
Illinois,Johnson,862,8,12,0,2020-12-12,37.45939802,-88.88165419
Illinois,Kane,36498,305,528,3,2020-12-12,41.93842729,-88.42861412
Illinois,Kankakee,9769,62,133,2,2020-12-12,41.13746989,-87.86205334
Illinois,Kendall,7308,67,65,1,2020-12-12,41.59081014,-88.42869583
Illinois,Knox,3389,30,95,1,2020-12-12,40.93148779,-90.21330340000002
Illinois,Lake,42727,317,712,6,2020-12-12,42.3224907,-88.00367925
Illinois,LaSalle,7364,90,176,7,2020-12-12,41.34426129999999,-88.88633881
Illinois,Lawrence,1414,34,20,1,2020-12-12,38.71987914,-87.72884035
Illinois,Lee,2329,30,54,2,2020-12-12,41.74583951,-89.29977132
Illinois,Livingston,2723,25,49,0,2020-12-12,40.89188292,-88.55784752
Illinois,Logan,2350,59,39,3,2020-12-12,40.12581572,-89.36638784
Illinois,McDonough,1762,14,45,0,2020-12-12,40.45674722,-90.67775541
Illinois,McHenry,16388,161,182,0,2020-12-12,42.32451172,-88.45248227
Illinois,McLean,10009,126,73,3,2020-12-12,40.48996987,-88.84621113
Illinois,Macon,7295,64,158,1,2020-12-12,39.86064913,-88.96342505
Illinois,Macoupin,2758,33,43,2,2020-12-12,39.26119767,-89.92424028
Illinois,Madison,17482,209,325,9,2020-12-12,38.83042506,-89.90422563
Illinois,Marion,3016,30,85,4,2020-12-12,38.64963204,-88.91899208
Illinois,Marshall,493,7,7,0,2020-12-12,41.0327901,-89.34510444
Illinois,Mason,857,11,30,0,2020-12-12,40.23917274,-89.91824452
Illinois,Massac,757,13,14,0,2020-12-12,37.22078441,-88.71036614
Illinois,Menard,610,12,4,1,2020-12-12,40.02742725,-89.80246001
Illinois,Mercer,917,7,20,1,2020-12-12,41.20596782,-90.74290052
Illinois,Monroe,2545,68,54,0,2020-12-12,38.27594376,-90.17761038
Illinois,Montgomery,1449,24,19,0,2020-12-12,39.23198845,-89.47809254
Illinois,Morgan,2629,26,67,3,2020-12-12,39.71654544,-90.20255104
Illinois,Moultrie,1075,9,17,0,2020-12-12,39.64187451,-88.62099969
Illinois,Ogle,3453,52,51,0,2020-12-12,42.04165196,-89.32184679
Illinois,Peoria,11087,138,161,3,2020-12-12,40.78702156,-89.76078901
Illinois,Perry,1418,28,39,1,2020-12-12,38.08510853,-89.36856219
Illinois,Piatt,897,9,5,0,2020-12-12,40.01360584,-88.59319339
Illinois,Pike,1177,21,34,0,2020-12-12,39.62265059,-90.8877017
Illinois,Pope,144,6,1,0,2020-12-12,37.41391284,-88.56152109
Illinois,Pulaski,491,2,2,0,2020-12-12,37.22631423,-89.13085001
Illinois,Putnam,290,4,0,0,2020-12-12,41.2013541,-89.2869272
Illinois,Randolph,2769,35,29,0,2020-12-12,38.05095369,-89.82512254
Illinois,Richland,1045,9,22,0,2020-12-12,38.71240969,-88.08475366
Illinois,Rock Island,9805,43,198,6,2020-12-12,41.46613806,-90.57042164
Illinois,St. Clair,16142,169,306,2,2020-12-12,38.46996033,-89.93063427
Illinois,Saline,1360,26,32,0,2020-12-12,37.75332999,-88.54119706
Illinois,Sangamon,11807,134,141,3,2020-12-12,39.75836914,-89.65872023
Illinois,Schuyler,480,11,4,2,2020-12-12,40.1571798,-90.61114163
Illinois,Scott,276,2,1,1,2020-12-12,39.6429169,-90.47814431
Illinois,Shelby,1605,8,31,0,2020-12-12,39.39133527,-88.80611122
Illinois,Stark,374,12,7,0,2020-12-12,41.09309773,-89.79745866
Illinois,Stephenson,2858,45,45,0,2020-12-12,42.35129217,-89.662598
Illinois,Tazewell,8489,106,144,2,2020-12-12,40.50716185,-89.51404662
Illinois,Union,1401,10,29,0,2020-12-12,37.47119609,-89.25548938
Illinois,Vermilion,4887,60,73,2,2020-12-12,40.18417171,-87.73384359
Illinois,Wabash,825,25,9,0,2020-12-12,38.44272901,-87.84922065
Illinois,Warren,1303,16,28,2,2020-12-12,40.84925021,-90.6147432
Illinois,Washington,948,14,8,2,2020-12-12,38.35309213,-89.40982703
Illinois,Wayne,1112,20,37,1,2020-12-12,38.42955355,-88.42586459
Illinois,White,824,22,13,0,2020-12-12,38.08706198,-88.17657461
Illinois,Whiteside,4240,21,149,0,2020-12-12,41.75509713,-89.91556058
Illinois,Will,45881,518,668,9,2020-12-12,41.44619267,-87.97862712
Illinois,Williamson,4373,62,99,2,2020-12-12,37.73033511,-88.92994027
Illinois,Winnebago,21752,197,319,5,2020-12-12,42.33641854,-89.16085327
Illinois,Woodford,2268,51,36,2,2020-12-12,40.78579374,-89.20973757
Indiana,Adams,2241,19,28,0,2020-12-12,40.7457653,-84.93671406
Indiana,Allen,23774,356,387,6,2020-12-12,41.09194313,-85.06800636
Indiana,Bartholomew,4496,83,70,0,2020-12-12,39.20744865,-85.89558181
Indiana,Benton,607,25,3,0,2020-12-12,40.60626947,-87.31093999
Indiana,Blackford,767,18,19,0,2020-12-12,40.47388153,-85.32499702
Indiana,Boone,3427,65,56,0,2020-12-12,40.0509304,-86.46841646
Indiana,Brown,528,30,8,0,2020-12-12,39.19605589,-86.22868909
Indiana,Carroll,1021,42,14,0,2020-12-12,40.580783200000006,-86.56198812
Indiana,Cass,3609,41,34,0,2020-12-12,40.76135835,-86.34830753
Indiana,Clark,6717,133,92,0,2020-12-12,38.48015445,-85.70510334
Indiana,Clay,1574,16,27,0,2020-12-12,39.39561833,-87.11723506
Indiana,Clinton,2549,69,28,1,2020-12-12,40.30319754,-86.47277257
Indiana,Crawford,464,13,6,0,2020-12-12,38.28814402,-86.44518825
Indiana,Daviess,1968,10,60,2,2020-12-12,38.70186039,-87.07185406
Indiana,Dearborn,3046,71,37,0,2020-12-12,39.14647946,-84.97333539
Indiana,Decatur,1750,47,49,1,2020-12-12,39.30712658,-85.50087166
Indiana,DeKalb,2463,39,40,1,2020-12-12,41.39804622,-84.99906934
Indiana,Delaware,6390,120,118,3,2020-12-12,40.22787247,-85.39732772
Indiana,Dubois,3283,108,34,0,2020-12-12,38.36597551,-86.87924170000002
Indiana,Elkhart,20570,204,275,3,2020-12-12,41.59761169,-85.85875695
Indiana,Fayette,1864,12,41,0,2020-12-12,39.63684962,-85.17797541
Indiana,Floyd,4147,64,82,1,2020-12-12,38.32117957,-85.90385377
Indiana,Fountain,1216,38,15,2,2020-12-12,40.12361933,-87.24217689
Indiana,Franklin,947,9,28,0,2020-12-12,39.4142482,-85.06062647
Indiana,Fulton,1148,16,22,0,2020-12-12,41.0469907,-86.26252745
Indiana,Gibson,2534,28,45,1,2020-12-12,38.30393723,-87.58054938
Indiana,Grant,3980,87,62,1,2020-12-12,40.51587228,-85.65468702
Indiana,Greene,1497,23,54,0,2020-12-12,39.03630547,-86.96223202
Indiana,Hamilton,18629,368,210,4,2020-12-12,40.07306535,-86.05244729
Indiana,Hancock,3962,127,71,0,2020-12-12,39.82304555,-85.77566351
Indiana,Harrison,2008,31,28,0,2020-12-12,38.19467379,-86.10948271
Indiana,Hendricks,8831,199,181,3,2020-12-12,39.76719009,-86.51037283
Indiana,Henry,3307,79,45,3,2020-12-12,39.93029017,-85.39625719
Indiana,Howard,5241,136,89,0,2020-12-12,40.48527731,-86.11351892
Indiana,Huntington,1878,52,17,0,2020-12-12,40.82907273,-85.48822092
Indiana,Jackson,3154,68,41,0,2020-12-12,38.90915820000001,-86.03851889
Indiana,Jasper,2024,22,24,2,2020-12-12,41.02078733,-87.11553319
Indiana,Jay,1345,27,20,1,2020-12-12,40.43781032,-85.00576229
Indiana,Jefferson,1664,31,23,0,2020-12-12,38.78576239,-85.43633383
Indiana,Jennings,1373,36,23,0,2020-12-12,38.99588883,-85.62710784
Indiana,Johnson,9346,134,195,3,2020-12-12,39.48994426,-86.10149107
Indiana,Knox,2485,60,32,2,2020-12-12,38.68861576,-87.4194665
Indiana,Kosciusko,5854,82,57,0,2020-12-12,41.24521668,-85.86312322
Indiana,LaGrange,1793,17,40,0,2020-12-12,41.64232188,-85.42674232
Indiana,Lake,34357,507,524,5,2020-12-12,41.41874274,-87.38277575
Indiana,LaPorte,6051,141,114,1,2020-12-12,41.54366008,-86.74072188
Indiana,Lawrence,2488,63,55,0,2020-12-12,38.84112637,-86.48361629
Indiana,Madison,7036,149,140,3,2020-12-12,40.16143691,-85.71964711
Indiana,Marion,57178,931,958,8,2020-12-12,39.78163624,-86.13826325
Indiana,Marshall,3922,57,60,3,2020-12-12,41.32467367,-86.26185087
Indiana,Martin,470,7,8,0,2020-12-12,38.7099921,-86.80373186
Indiana,Miami,2247,51,22,0,2020-12-12,40.76940965,-86.04525048
Indiana,Monroe,6866,127,68,3,2020-12-12,39.16130004,-86.52414358
Indiana,Montgomery,2154,43,33,0,2020-12-12,40.04034823,-86.89335024
Indiana,Morgan,3305,112,53,0,2020-12-12,39.47899078,-86.44573375
Indiana,Newton,709,15,17,0,2020-12-12,40.95610449,-87.39635768
Indiana,Noble,3361,57,51,0,2020-12-12,41.39672484,-85.41966713
Indiana,Ohio,290,5,7,0,2020-12-12,38.955305,-84.96515993
Indiana,Orange,929,14,28,0,2020-12-12,38.54118920000001,-86.49523093
Indiana,Owen,984,36,15,0,2020-12-12,39.31145587,-86.83900724
Indiana,Parke,980,22,7,0,2020-12-12,39.77202286,-87.20375833
Indiana,Perry,995,8,21,0,2020-12-12,38.07809328,-86.63741946
Indiana,Pike,695,14,21,0,2020-12-12,38.40112197,-87.23574907
Indiana,Porter,10584,165,113,2,2020-12-12,41.45986947,-87.06848888
Indiana,Posey,1546,23,22,0,2020-12-12,38.02097333,-87.86480429
Indiana,Pulaski,633,23,24,0,2020-12-12,41.04166107,-86.69890683
Indiana,Putnam,1838,47,33,0,2020-12-12,39.66437981,-86.84517605
Indiana,Randolph,1636,26,28,0,2020-12-12,40.15734772,-85.01139319
Indiana,Ripley,1994,27,31,1,2020-12-12,39.10235626,-85.26212744
Indiana,Rush,812,17,10,1,2020-12-12,39.62002287,-85.4655599
Indiana,St. Joseph,21423,328,283,5,2020-12-12,41.61756781,-86.29040834
Indiana,Scott,1587,27,30,0,2020-12-12,38.68672078,-85.74627859
Indiana,Shelby,2709,43,67,1,2020-12-12,39.52305623,-85.79158570000001
Indiana,Spencer,1113,21,10,0,2020-12-12,38.01519732,-87.0079644
Indiana,Starke,1279,25,29,0,2020-12-12,41.27890281,-86.64686895
Indiana,Steuben,2012,40,16,0,2020-12-12,41.64423868,-85.00101094
Indiana,Sullivan,1383,43,21,0,2020-12-12,39.08952258,-87.41414469
Indiana,Switzerland,378,15,5,0,2020-12-12,38.82767338,-85.03022429
Indiana,Tippecanoe,12147,284,50,3,2020-12-12,40.38872739,-86.89413959
Indiana,Tipton,827,20,29,0,2020-12-12,40.31123252,-86.05234925
Indiana,Union,362,2,2,0,2020-12-12,39.62550777,-84.92497066
Indiana,Vanderburgh,12430,169,157,3,2020-12-12,38.02658833,-87.58763124
Indiana,Vermillion,930,32,19,1,2020-12-12,39.8523352,-87.46160542
Indiana,Vigo,7765,96,124,1,2020-12-12,39.42944561,-87.39169027
Indiana,Wabash,2249,30,29,1,2020-12-12,40.84704239,-85.79328272
Indiana,Warren,370,13,6,0,2020-12-12,40.34728141,-87.35602659
Indiana,Warrick,4193,55,78,1,2020-12-12,38.08922676,-87.2716085
Indiana,Washington,1089,21,11,1,2020-12-12,38.60219804,-86.1049363
Indiana,Wayne,4311,89,116,1,2020-12-12,39.8633444,-85.01044989
Indiana,Wells,1657,28,42,0,2020-12-12,40.72934187,-85.22132966
Indiana,White,1808,30,24,0,2020-12-12,40.74911165,-86.86492015
Indiana,Whitley,1983,48,17,0,2020-12-12,41.13863784,-85.50791236
Iowa,Adair,509,3,16,0,2020-12-12,41.33075609,-94.47105874
Iowa,Adams,211,3,2,0,2020-12-12,41.02903567,-94.69932645
Iowa,Allamakee,1003,8,18,1,2020-12-12,43.28383218,-91.37860922
Iowa,Appanoose,872,4,33,0,2020-12-12,40.74324454,-92.86865906
Iowa,Audubon,327,1,6,0,2020-12-12,41.6844628,-94.90581859
Iowa,Benton,1858,6,28,0,2020-12-12,42.08011739,-92.06463573
Iowa,Black Hawk,11802,55,184,1,2020-12-12,42.4704581,-92.30524729
Iowa,Boone,1620,15,14,0,2020-12-12,42.03657094,-93.9313999
Iowa,Bremer,2123,5,32,0,2020-12-12,42.77461496,-92.31795937
Iowa,Buchanan,1318,3,15,0,2020-12-12,42.4709188,-91.83510825
Iowa,Buena Vista,3355,14,18,0,2020-12-12,42.73545875,-95.15100162
Iowa,Butler,1151,4,12,0,2020-12-12,42.73172833,-92.79015971
Iowa,Calhoun,1129,0,8,0,2020-12-12,42.38521079,-94.64046046
Iowa,Carroll,2145,10,22,0,2020-12-12,42.03617207,-94.86032705
Iowa,Cass,914,8,35,0,2020-12-12,41.33149454,-94.92792482
Iowa,Cedar,1237,5,15,0,2020-12-12,41.77233777,-91.13246684
Iowa,Cerro Gordo,3978,8,49,0,2020-12-12,43.08177563,-93.2612239
Iowa,Cherokee,1081,3,14,0,2020-12-12,42.73538914,-95.62389402
Iowa,Chickasaw,959,2,9,0,2020-12-12,43.06001295,-92.31773347
Iowa,Clarke,546,2,6,0,2020-12-12,41.02868181,-93.78499767
Iowa,Clay,1396,16,10,0,2020-12-12,43.08247182,-95.15096481
Iowa,Clayton,1252,7,24,0,2020-12-12,42.84443388,-91.34133693
Iowa,Clinton,3735,31,48,0,2020-12-12,41.89981633,-90.53275096
Iowa,Crawford,1916,6,16,0,2020-12-12,42.03718237,-95.3819718
Iowa,Dallas,7094,37,60,0,2020-12-12,41.68560356,-94.04127625
Iowa,Davis,566,41,12,0,2020-12-12,40.74773536,-92.41005468
Iowa,Decatur,373,0,2,0,2020-12-12,40.73742757,-93.78645949
Iowa,Delaware,1541,10,26,0,2020-12-12,42.47104597,-91.3664492
Iowa,Des Moines,3243,14,26,0,2020-12-12,40.92012606,-91.18326592
Iowa,Dickinson,1564,10,12,0,2020-12-12,43.37787725,-95.1510206
Iowa,Dubuque,9940,49,123,0,2020-12-12,42.46815349,-90.88181925
Iowa,Emmet,873,8,23,0,2020-12-12,43.37782951,-94.67858943
Iowa,Fayette,1184,11,14,0,2020-12-12,42.86271799,-91.8441231
Iowa,Floyd,1190,2,23,0,2020-12-12,43.06000529999999,-92.78940097
Iowa,Franklin,806,1,17,0,2020-12-12,42.73270384,-93.26256925
Iowa,Fremont,421,2,5,0,2020-12-12,40.74542720000001,-95.60129045
Iowa,Greene,581,4,6,0,2020-12-12,42.03614551,-94.39658081
Iowa,Grundy,934,3,14,0,2020-12-12,42.40183723,-92.78829551
Iowa,Guthrie,842,1,22,0,2020-12-12,41.68378965,-94.50111014
Iowa,Hamilton,1299,7,21,4,2020-12-12,42.38382428,-93.70197703
Iowa,Hancock,1013,6,21,0,2020-12-12,43.08178477,-93.73454884
Iowa,Hardin,1313,10,20,0,2020-12-12,42.38353877,-93.23654611
Iowa,Harrison,1232,18,49,0,2020-12-12,41.68330137,-95.81558439
Iowa,Henry,2285,10,19,0,2020-12-12,40.98767962,-91.54436349
Iowa,Howard,617,-1,15,0,2020-12-12,43.35671042,-92.31702714
Iowa,Humboldt,856,4,12,0,2020-12-12,42.7764426,-94.20722537
Iowa,Ida,631,15,17,0,2020-12-12,42.38696136,-95.51355387
Iowa,Iowa,1053,3,19,0,2020-12-12,41.68630265,-92.0643373
Iowa,Jackson,1662,53,23,0,2020-12-12,42.17178824,-90.57354837
Iowa,Jasper,2494,14,48,0,2020-12-12,41.68576082,-93.05567785
Iowa,Jefferson,842,5,12,0,2020-12-12,41.03192394,-91.94849466
Iowa,Johnson,10310,43,42,0,2020-12-12,41.67169354,-91.58754744
Iowa,Jones,2463,7,32,2,2020-12-12,42.12118609,-91.13139641
Iowa,Keokuk,717,5,16,0,2020-12-12,41.33649833,-92.1785067
Iowa,Kossuth,1357,6,22,0,2020-12-12,43.20405458,-94.20691791
Iowa,Lee,2536,14,20,0,2020-12-12,40.64181461,-91.48183025
Iowa,Linn,15419,50,215,1,2020-12-12,42.07923082,-91.59809485
Iowa,Louisa,959,6,22,0,2020-12-12,41.21842119,-91.26102611
Iowa,Lucas,391,1,6,0,2020-12-12,41.02958964,-93.32780803
Iowa,Lyon,1138,5,21,0,2020-12-12,43.38107862,-96.20926845
Iowa,Madison,827,8,8,0,2020-12-12,41.33081904,-94.01554631
Iowa,Mahaska,1455,18,31,0,2020-12-12,41.33521503,-92.64083907
Iowa,Marion,2299,19,32,0,2020-12-12,41.33445101,-93.09934783
Iowa,Marshall,3745,13,53,0,2020-12-12,42.03586837,-92.9990819
Iowa,Mills,1185,16,11,0,2020-12-12,41.03299766,-95.61920963
Iowa,Mitchell,899,1,19,0,2020-12-12,43.35638371,-92.78887719
Iowa,Monona,500,2,12,0,2020-12-12,42.05220391,-95.95743843
Iowa,Monroe,497,4,15,0,2020-12-12,41.02988815,-92.8690667
Iowa,Montgomery,602,12,13,0,2020-12-12,41.03018714,-95.15642896
Iowa,Muscatine,3286,17,63,0,2020-12-12,41.48370744,-91.1121697
Iowa,O'Brien,1447,9,43,0,2020-12-12,43.08310673,-95.62474482
Iowa,Osceola,589,4,5,0,2020-12-12,43.37824276,-95.62422844
Iowa,Page,1269,2,10,1,2020-12-12,40.7393172,-95.1497813
Iowa,Palo Alto,735,8,2,0,2020-12-12,43.08193849,-94.67824621
Iowa,Plymouth,3094,14,40,0,2020-12-12,42.737633,-96.21366621
Iowa,Pocahontas,638,5,4,0,2020-12-12,42.73420133,-94.67862564
Iowa,Polk,37334,202,368,0,2020-12-12,41.68679484,-93.57767461
Iowa,Pottawattamie,7395,83,73,1,2020-12-12,41.33640314,-95.53907776
Iowa,Poweshiek,1098,5,21,0,2020-12-12,41.68625425,-92.53155731
Iowa,Ringgold,306,4,5,0,2020-12-12,40.73518949,-94.24368535
Iowa,Sac,965,2,9,0,2020-12-12,42.38624071,-95.10547892
Iowa,Scott,12819,80,116,0,2020-12-12,41.63935978,-90.61959493
Iowa,Shelby,852,5,19,0,2020-12-12,41.6850066,-95.31015553
Iowa,Sioux,4051,13,38,0,2020-12-12,43.08221074,-96.1767568
Iowa,Story,7379,38,22,0,2020-12-12,42.03621213,-93.46499005
Iowa,Tama,1623,5,55,0,2020-12-12,42.07991767,-92.53266945
Iowa,Taylor,496,4,8,0,2020-12-12,40.73710579,-94.69778563
Iowa,Union,938,10,10,1,2020-12-12,41.0277278,-94.24234847
Iowa,Van Buren,419,2,11,0,2020-12-12,40.75326764,-91.95017958
Iowa,Wapello,2835,13,87,0,2020-12-12,41.03064984,-92.40954728
Iowa,Warren,3248,17,24,0,2020-12-12,41.33559454,-93.56007641
Iowa,Washington,1617,11,23,0,2020-12-12,41.33577126,-91.71725711
Iowa,Wayne,334,2,21,0,2020-12-12,40.73969028,-93.32752197
Iowa,Webster,4033,7,48,1,2020-12-12,42.42853483,-94.17987389
Iowa,Winnebago,1020,0,26,0,2020-12-12,43.37751174,-93.73407298
Iowa,Winneshiek,1194,10,15,0,2020-12-12,43.29094334,-91.84422722
Iowa,Woodbury,11385,21,145,2,2020-12-12,42.38979414,-96.0459439
Iowa,Worth,421,2,2,0,2020-12-12,43.37750768,-93.26087602
Iowa,Wright,1399,4,10,0,2020-12-12,42.73305373,-93.73515113
Kansas,Allen,478,0,1,0,2020-12-12,37.88582951,-95.30030847
Kansas,Anderson,443,0,0,0,2020-12-12,38.21413251,-95.29272815
Kansas,Atchison,1040,0,9,0,2020-12-12,39.53185661,-95.30870026
Kansas,Barber,233,0,2,0,2020-12-12,37.2288586,-98.68460053
Kansas,Barton,1900,0,19,6,2020-12-12,38.47889676,-98.75636726
Kansas,Bourbon,722,0,3,0,2020-12-12,37.85508555,-94.84865997
Kansas,Brown,901,0,13,0,2020-12-12,39.82652589,-95.56421698
Kansas,Butler,4213,0,16,0,2020-12-12,37.78134351,-96.83878537
Kansas,Chase,187,0,3,0,2020-12-12,38.30292938,-96.59563862
Kansas,Chautauqua,115,0,3,0,2020-12-12,37.14994405,-96.2454192
Kansas,Cherokee,1409,0,11,0,2020-12-12,37.16928494,-94.8462897
Kansas,Cheyenne,231,0,10,0,2020-12-12,39.78580976,-101.7318201
Kansas,Clark,167,0,5,0,2020-12-12,37.23577007,-99.81883015
Kansas,Clay,523,0,14,0,2020-12-12,39.34948772,-97.16518128
Kansas,Cloud,738,0,18,0,2020-12-12,39.48028352,-97.64925343
Kansas,Coffey,383,0,10,0,2020-12-12,38.2365018,-95.73379515
Kansas,Comanche,124,0,2,0,2020-12-12,37.19114520000001,-99.27113247
Kansas,Cowley,2009,0,10,0,2020-12-12,37.23781842,-96.83776647
Kansas,Crawford,2815,0,23,0,2020-12-12,37.50675523,-94.85245778
Kansas,Decatur,219,0,1,0,2020-12-12,39.78468441,-100.4594081
Kansas,Dickinson,929,0,13,0,2020-12-12,38.86600962,-97.15532383
Kansas,Doniphan,587,0,5,0,2020-12-12,39.79067154,-95.14056866
Kansas,Douglas,5512,0,29,0,2020-12-12,38.88503636,-95.2925121
Kansas,Edwards,217,0,0,0,2020-12-12,37.88735543,-99.31263309
Kansas,Elk,71,0,0,0,2020-12-12,37.45338105,-96.24369667
Kansas,Ellis,2845,0,28,0,2020-12-12,38.91458712,-99.31751551
Kansas,Ellsworth,894,0,4,0,2020-12-12,38.69677695,-98.20462799
Kansas,Finney,5159,0,32,0,2020-12-12,38.04340344,-100.7381938
Kansas,Ford,4894,0,13,0,2020-12-12,37.69200114,-99.88825298
Kansas,Franklin,1363,0,17,0,2020-12-12,38.56443815,-95.28644341
Kansas,Geary,1365,0,6,0,2020-12-12,38.99871131,-96.7577178
Kansas,Gove,314,0,20,0,2020-12-12,38.91588178,-100.4829321
Kansas,Graham,189,0,2,0,2020-12-12,39.34987223,-99.88332493
Kansas,Grant,868,5,13,1,2020-12-12,37.56227336,-101.3079758
Kansas,Gray,448,0,4,0,2020-12-12,37.73836671,-100.4369088
Kansas,Greeley,89,0,0,0,2020-12-12,38.4808095,-101.8061079
Kansas,Greenwood,350,0,2,0,2020-12-12,37.8774388,-96.23250453
Kansas,Hamilton,172,0,0,0,2020-12-12,37.99978709,-101.7921066
Kansas,Harper,363,0,15,0,2020-12-12,37.19175361,-98.07578384
Kansas,Harvey,2161,0,19,0,2020-12-12,38.04293782,-97.42747573
Kansas,Haskell,317,0,1,0,2020-12-12,37.5620394,-100.8710738
Kansas,Hodgeman,151,0,4,0,2020-12-12,38.08780079,-99.89829881
Kansas,Jackson,853,0,10,0,2020-12-12,39.41673394,-95.79356799
Kansas,Jefferson,906,0,9,0,2020-12-12,39.2347941,-95.38289232
Kansas,Jewell,124,2,1,0,2020-12-12,39.78470589,-98.21820662
Kansas,Johnson,32163,0,339,1,2020-12-12,38.88548175,-94.82250877
Kansas,Kearny,444,0,8,0,2020-12-12,38.00017981,-101.321681
Kansas,Kingman,473,0,5,0,2020-12-12,37.55909527,-98.13638678
Kansas,Kiowa,123,0,0,0,2020-12-12,37.55848695,-99.2856537
Kansas,Labette,1246,0,6,0,2020-12-12,37.19113093,-95.29849679
Kansas,Lane,106,0,3,0,2020-12-12,38.48119447,-100.4660754
Kansas,Leavenworth,4347,0,35,0,2020-12-12,39.20183497,-95.03620809
Kansas,Lincoln,146,0,1,0,2020-12-12,39.04549684,-98.20756994
Kansas,Linn,391,0,2,0,2020-12-12,38.21267844,-94.84254089
Kansas,Logan,258,0,0,0,2020-12-12,38.91735806,-101.148475
Kansas,Lyon,3012,0,51,0,2020-12-12,38.45576156,-96.15275715
Kansas,McPherson,1949,135,14,4,2020-12-12,38.39184858,-97.64769869
Kansas,Marion,535,0,1,0,2020-12-12,38.35855394,-97.0985251
Kansas,Marshall,724,0,17,0,2020-12-12,39.78359669,-96.52278974
Kansas,Meade,351,0,4,0,2020-12-12,37.23859987,-100.364831
Kansas,Miami,1339,0,7,0,2020-12-12,38.56383358,-94.83832189
Kansas,Mitchell,316,0,0,0,2020-12-12,39.39331582,-98.20906732
Kansas,Montgomery,1480,0,6,0,2020-12-12,37.19236568,-95.74329258
Kansas,Morris,264,0,3,0,2020-12-12,38.68827511,-96.65128437
Kansas,Morton,181,0,6,0,2020-12-12,37.19141121,-101.79925190000002
Kansas,Nemaha,1219,0,34,0,2020-12-12,39.78345387,-96.01392079
Kansas,Neosho,877,0,3,0,2020-12-12,37.55862897,-95.30670046
Kansas,Ness,297,0,13,0,2020-12-12,38.47974157,-99.91547333
Kansas,Norton,1132,0,24,0,2020-12-12,39.78443827,-99.90286639
Kansas,Osage,657,0,6,0,2020-12-12,38.65235984,-95.72707998
Kansas,Osborne,121,0,0,0,2020-12-12,39.3503437,-98.76753828
Kansas,Ottawa,329,0,0,0,2020-12-12,39.13237408,-97.65020313
Kansas,Pawnee,847,0,1,0,2020-12-12,38.18108732,-99.23692334
Kansas,Phillips,519,0,12,0,2020-12-12,39.78465501,-99.34668865
Kansas,Pottawatomie,799,0,3,0,2020-12-12,39.37925655,-96.34564657
Kansas,Pratt,600,0,15,0,2020-12-12,37.64780729,-98.73922153
Kansas,Rawlins,268,0,3,0,2020-12-12,39.78525843,-101.0761617
Kansas,Reno,6138,0,75,3,2020-12-12,37.95230263,-98.08607292
Kansas,Republic,461,0,8,0,2020-12-12,39.82799632,-97.65036709
Kansas,Rice,608,0,1,0,2020-12-12,38.34616184,-98.19992118
Kansas,Riley,4176,0,16,0,2020-12-12,39.28935726,-96.73420026
Kansas,Rooks,410,0,8,0,2020-12-12,39.35022773,-99.32484567
Kansas,Rush,301,0,0,0,2020-12-12,38.52275276,-99.30863983
Kansas,Russell,659,0,17,0,2020-12-12,38.91462787,-98.76254297
Kansas,Saline,3257,0,43,0,2020-12-12,38.78369175,-97.65185177
Kansas,Scott,512,0,8,0,2020-12-12,38.48222076,-100.9066539
Kansas,Sedgwick,32709,0,199,0,2020-12-12,37.6842718,-97.4608198
Kansas,Seward,3315,0,14,0,2020-12-12,37.19324632,-100.8507201
Kansas,Shawnee,9623,0,171,0,2020-12-12,39.04100763,-95.7557264
Kansas,Sheridan,349,0,0,0,2020-12-12,39.35018161,-100.4418259
Kansas,Sherman,503,0,7,0,2020-12-12,39.35147699,-101.7197624
Kansas,Smith,181,0,1,0,2020-12-12,39.78516566,-98.78566062
Kansas,Stafford,242,0,5,0,2020-12-12,38.03100851,-98.71762001
Kansas,Stanton,154,0,2,0,2020-12-12,37.56304714,-101.7843534
Kansas,Stevens,481,0,5,0,2020-12-12,37.1923008,-101.3118967
Kansas,Sumner,1060,0,6,0,2020-12-12,37.23682549,-97.47721621
Kansas,Thomas,824,0,6,0,2020-12-12,39.35107575,-101.0553705
Kansas,Trego,260,0,3,0,2020-12-12,38.91467218,-99.87284448
Kansas,Wabaunsee,348,0,2,0,2020-12-12,38.95471985,-96.20350509
Kansas,Wallace,151,0,0,0,2020-12-12,38.91686134,-101.7638876
Kansas,Washington,366,0,8,0,2020-12-12,39.78420784,-97.0875323
Kansas,Wichita,171,0,2,0,2020-12-12,38.48178252,-101.3471509
Kansas,Wilson,454,0,4,0,2020-12-12,37.55937174,-95.74323255
Kansas,Woodson,87,0,0,0,2020-12-12,37.8865336,-95.74006277
Kansas,Wyandotte,13156,0,184,0,2020-12-12,39.11727348,-94.76378225
Kentucky,Adair,962,45,34,2,2020-12-12,37.10459774,-85.28129668
Kentucky,Allen,893,15,15,0,2020-12-12,36.75197631,-86.19457544
Kentucky,Anderson,706,16,1,0,2020-12-12,38.00671029,-84.99171713
Kentucky,Ballard,199,5,2,0,2020-12-12,37.05842757,-88.99427697
Kentucky,Barren,2286,24,35,0,2020-12-12,36.96469836,-85.93338945
Kentucky,Bath,383,2,1,0,2020-12-12,38.14735938,-83.74588932
Kentucky,Bell,1493,18,20,0,2020-12-12,36.73355174,-83.67766671
Kentucky,Boone,6043,93,33,0,2020-12-12,38.97065142,-84.72615357
Kentucky,Bourbon,706,18,1,0,2020-12-12,38.2054607,-84.21827874
Kentucky,Boyd,2520,56,28,0,2020-12-12,38.36176608,-82.68652187
Kentucky,Boyle,1481,57,0,0,2020-12-12,37.62680923,-84.8633779
Kentucky,Bracken,212,3,3,0,2020-12-12,38.69158994,-84.08532444
Kentucky,Breathitt,459,15,3,0,2020-12-12,37.52333168,-83.31959161
Kentucky,Breckinridge,517,12,4,0,2020-12-12,37.77377239,-86.42885017
Kentucky,Bullitt,3540,44,25,0,2020-12-12,37.97162523,-85.68955617
Kentucky,Butler,675,1,16,0,2020-12-12,37.20946153,-86.68748787
Kentucky,Caldwell,786,9,11,0,2020-12-12,37.14749129,-87.86948214
Kentucky,Calloway,2052,18,17,0,2020-12-12,36.62093411,-88.2731593
Kentucky,Campbell,3638,47,22,1,2020-12-12,38.94384345,-84.37875208
Kentucky,Carlisle,252,5,1,0,2020-12-12,36.85372876,-88.96692220000001
Kentucky,Carroll,441,13,6,0,2020-12-12,38.66599534,-85.12601074
Kentucky,Carter,970,16,5,0,2020-12-12,38.31690743,-83.05092385
Kentucky,Casey,648,12,20,1,2020-12-12,37.32533118,-84.92726209
Kentucky,Christian,3480,36,44,0,2020-12-12,36.89267803,-87.49055367
Kentucky,Clark,1203,12,13,0,2020-12-12,37.9689263,-84.14615986
Kentucky,Clay,1229,10,8,0,2020-12-12,37.16451126,-83.712575
Kentucky,Clinton,537,19,10,1,2020-12-12,36.72581156,-85.13377529
Kentucky,Crittenden,302,9,3,0,2020-12-12,37.35839237,-88.08826090000002
Kentucky,Cumberland,302,10,2,0,2020-12-12,36.78926125,-85.39050034
Kentucky,Daviess,4554,89,55,0,2020-12-12,37.73028906,-87.09019479999998
Kentucky,Edmonson,465,3,13,0,2020-12-12,37.21218923,-86.23955613
Kentucky,Elliott,718,6,1,0,2020-12-12,38.11624059,-83.09771563
Kentucky,Estill,553,10,0,0,2020-12-12,37.69241417,-83.95956369
Kentucky,Fayette,20536,265,127,2,2020-12-12,38.0368225,-84.45576892
Kentucky,Fleming,524,34,1,0,2020-12-12,38.36758311,-83.69657514
Kentucky,Floyd,1528,54,9,0,2020-12-12,37.56213922,-82.74750924
Kentucky,Franklin,1785,32,17,0,2020-12-12,38.2379395,-84.87962551
Kentucky,Fulton,326,0,4,0,2020-12-12,36.55238827,-89.20140068
Kentucky,Gallatin,380,8,9,0,2020-12-12,38.75398691,-84.8558382
Kentucky,Garrard,789,12,4,0,2020-12-12,37.6388668,-84.53289319
Kentucky,Grant,974,20,6,0,2020-12-12,38.64962758,-84.62415957
Kentucky,Graves,2191,25,40,0,2020-12-12,36.72292505,-88.65143315
Kentucky,Grayson,1091,8,25,0,2020-12-12,37.46231118,-86.34248968
Kentucky,Green,587,6,10,0,2020-12-12,37.26484328,-85.5540745
Kentucky,Greenup,1836,35,17,0,2020-12-12,38.54332505,-82.9215658
Kentucky,Hancock,364,7,9,0,2020-12-12,37.83766422,-86.78280584
Kentucky,Hardin,5105,75,36,2,2020-12-12,37.6976111,-85.96319251
Kentucky,Harlan,1170,14,16,0,2020-12-12,36.85699301,-83.21899516
Kentucky,Harrison,583,9,1,0,2020-12-12,38.44188174,-84.32869741
Kentucky,Hart,1113,23,5,0,2020-12-12,37.29943898,-85.88461055
Kentucky,Henderson,2472,30,39,0,2020-12-12,37.79344553,-87.57392021
Kentucky,Henry,659,17,3,0,2020-12-12,38.44942688,-85.11587507
Kentucky,Hickman,203,2,3,0,2020-12-12,36.67948079999999,-88.97875928
Kentucky,Hopkins,2203,43,55,0,2020-12-12,37.30939025,-87.54670406
Kentucky,Jackson,728,2,18,0,2020-12-12,37.41866422,-83.99825483
Kentucky,Jefferson,44085,582,480,0,2020-12-12,38.18664655,-85.65931031
Kentucky,Jessamine,2258,41,38,0,2020-12-12,37.87119786,-84.58252003
Kentucky,Johnson,966,9,11,0,2020-12-12,37.85106355,-82.8264322
Kentucky,Kenton,6927,122,62,0,2020-12-12,38.93950319,-84.53241199
Kentucky,Knott,647,5,9,0,2020-12-12,37.35388197,-82.94981134
Kentucky,Knox,1462,17,10,0,2020-12-12,36.89225732,-83.85403396
Kentucky,Larue,692,1,1,0,2020-12-12,37.54567114,-85.70138352
Kentucky,Laurel,2951,44,12,0,2020-12-12,37.10975748,-84.11321779
Kentucky,Lawrence,549,8,2,0,2020-12-12,38.07136018,-82.72882223
Kentucky,Lee,996,8,17,0,2020-12-12,37.59645942,-83.71513901
Kentucky,Leslie,378,5,1,0,2020-12-12,37.09246661,-83.37999606
Kentucky,Letcher,685,14,2,0,2020-12-12,37.12306748,-82.85346474
Kentucky,Lewis,634,2,22,0,2020-12-12,38.53184419,-83.37735618
Kentucky,Lincoln,1071,16,20,0,2020-12-12,37.45475628,-84.6565327
Kentucky,Livingston,403,8,4,0,2020-12-12,37.21137452,-88.34797529
Kentucky,Logan,1416,25,36,0,2020-12-12,36.85949479,-86.877635
Kentucky,Lyon,252,9,5,0,2020-12-12,37.02080035,-88.07886257
Kentucky,McCracken,3690,46,31,0,2020-12-12,37.05350953,-88.70445755
Kentucky,McCreary,619,41,1,0,2020-12-12,36.73874143,-84.48102924
Kentucky,McLean,470,13,19,0,2020-12-12,37.5301951,-87.26803443
Kentucky,Madison,4821,54,20,0,2020-12-12,37.71659336,-84.27220275
Kentucky,Magoffin,640,11,1,0,2020-12-12,37.70820545,-83.0657714
Kentucky,Marion,1319,27,14,0,2020-12-12,37.55218078,-85.26898542
Kentucky,Marshall,1208,21,18,0,2020-12-12,36.88007070000001,-88.32803576
Kentucky,Martin,546,2,10,0,2020-12-12,37.79990579,-82.51247478
Kentucky,Mason,739,40,5,1,2020-12-12,38.59471935,-83.82151043
Kentucky,Meade,903,27,4,0,2020-12-12,37.96163597,-86.21028219
Kentucky,Menifee,146,1,1,0,2020-12-12,37.94090733,-83.59985712
Kentucky,Mercer,961,22,6,0,2020-12-12,37.81474237,-84.87488475
Kentucky,Metcalfe,508,10,7,1,2020-12-12,36.99459295,-85.63123699
Kentucky,Monroe,826,10,18,0,2020-12-12,36.71225341,-85.71596443
Kentucky,Montgomery,1182,14,12,0,2020-12-12,38.03253032,-83.9145241
Kentucky,Morgan,410,5,0,0,2020-12-12,37.92465657,-83.25558245
Kentucky,Muhlenberg,1612,22,22,2,2020-12-12,37.21425819,-87.14632053
Kentucky,Nelson,2493,33,12,1,2020-12-12,37.80335779,-85.4657193
Kentucky,Nicholas,201,1,3,0,2020-12-12,38.33342292,-84.01889177
Kentucky,Ohio,1292,20,19,0,2020-12-12,37.47751843,-86.85368087
Kentucky,Oldham,3050,25,38,0,2020-12-12,38.39791089,-85.448222
Kentucky,Owen,303,6,3,0,2020-12-12,38.51679143,-84.82404619
Kentucky,Owsley,263,3,4,0,2020-12-12,37.42823949,-83.68811419
Kentucky,Pendleton,508,2,1,0,2020-12-12,38.69607718,-84.35599463
Kentucky,Perry,1319,15,11,0,2020-12-12,37.25023553,-83.22922731
Kentucky,Pike,2254,52,30,3,2020-12-12,37.47088263,-82.39487445
Kentucky,Powell,587,0,0,0,2020-12-12,37.83218794,-83.82553961
Kentucky,Pulaski,2488,127,18,3,2020-12-12,37.10466131,-84.57629079
Kentucky,Robertson,112,0,3,0,2020-12-12,38.51923469,-84.05055616
Kentucky,Rockcastle,694,5,7,0,2020-12-12,37.36642393,-84.31176452
Kentucky,Rowan,1013,21,2,0,2020-12-12,38.19484205,-83.42088935
Kentucky,Russell,778,42,12,1,2020-12-12,36.99308373,-85.06070117
Kentucky,Scott,2099,26,22,0,2020-12-12,38.29622293,-84.5816631
Kentucky,Shelby,2600,23,27,0,2020-12-12,38.21476019,-85.194223
Kentucky,Simpson,967,25,9,0,2020-12-12,36.74058474,-86.58047435
Kentucky,Spencer,836,24,2,0,2020-12-12,38.03223971,-85.32749335
Kentucky,Taylor,1327,37,8,0,2020-12-12,37.3677562,-85.3329931
Kentucky,Todd,528,22,13,0,2020-12-12,36.8381152,-87.17878374
Kentucky,Trigg,502,10,2,0,2020-12-12,36.80767017,-87.87333656
Kentucky,Trimble,304,24,0,0,2020-12-12,38.61056487,-85.33775972
Kentucky,Union,816,5,7,0,2020-12-12,37.66166713,-87.94300009
Kentucky,Warren,8520,80,83,2,2020-12-12,36.99903045,-86.42672751
Kentucky,Washington,742,16,4,0,2020-12-12,37.75599461,-85.17407732
Kentucky,Wayne,766,60,5,0,2020-12-12,36.80310688,-84.8251971
Kentucky,Webster,635,3,9,0,2020-12-12,37.52168356,-87.67989953
Kentucky,Whitley,2063,62,9,1,2020-12-12,36.75700531,-84.14541217
Kentucky,Wolfe,236,5,1,0,2020-12-12,37.73941626,-83.49303612
Kentucky,Woodford,1039,15,1,0,2020-12-12,38.04178222,-84.7417556
Louisiana,Acadia,4452,0,123,0,2020-12-12,30.2950649,-92.41419698
Louisiana,Allen,2206,0,69,0,2020-12-12,30.65385745,-92.82442028
Louisiana,Ascension,6605,0,111,0,2020-12-12,30.20406249,-90.91328409999998
Louisiana,Assumption,1133,0,26,0,2020-12-12,29.89946234,-91.06461642
Louisiana,Avoyelles,2325,0,73,0,2020-12-12,31.07796211,-92.00079449
Louisiana,Beauregard,1558,0,50,0,2020-12-12,30.64836518,-93.34173616
Louisiana,Bienville,993,0,37,0,2020-12-12,32.34569994,-93.05398492
Louisiana,Bossier,7237,0,163,0,2020-12-12,32.67932307,-93.60460152
Louisiana,Caddo,15070,0,471,0,2020-12-12,32.57991587,-93.88375652
Louisiana,Calcasieu,11677,0,259,0,2020-12-12,30.22931235,-93.35400434
Louisiana,Caldwell,748,0,14,0,2020-12-12,32.0902519,-92.11752148
Louisiana,Cameron,332,0,3,0,2020-12-12,29.87592238,-93.19310676
Louisiana,Catahoula,710,0,19,0,2020-12-12,31.66778967,-91.84526385
Louisiana,Claiborne,834,0,32,0,2020-12-12,32.82308512,-92.99526883
Louisiana,Concordia,1164,0,33,0,2020-12-12,31.44817835,-91.63814433
Louisiana,De Soto,1472,0,43,0,2020-12-12,32.05457447,-93.74130302
Louisiana,East Baton Rouge,22061,0,537,0,2020-12-12,30.53842039,-91.09777565
Louisiana,East Carroll,889,0,12,0,2020-12-12,32.73926954,-91.23425694
Louisiana,East Feliciana,2276,0,89,0,2020-12-12,30.84425359,-91.04976723
Louisiana,Evangeline,2232,0,50,0,2020-12-12,30.72985248,-92.39915924
Louisiana,Franklin,1848,0,72,0,2020-12-12,32.13675181,-91.67589857
Louisiana,Grant,1159,0,35,0,2020-12-12,31.59882456,-92.56124347
Louisiana,Iberia,4111,0,113,0,2020-12-12,29.86803617,-91.75871777
Louisiana,Iberville,2291,0,66,0,2020-12-12,30.25734305,-91.3499598
Louisiana,Jackson,1251,0,34,0,2020-12-12,32.30251776,-92.55692092
Louisiana,Jefferson,26277,0,641,0,2020-12-12,29.74075478,-90.11115756
Louisiana,Jefferson Davis,1973,0,56,0,2020-12-12,30.26896765,-92.81210004
Louisiana,Lafayette,13855,0,165,0,2020-12-12,30.2049055,-92.06959876
Louisiana,Lafourche,5323,0,150,0,2020-12-12,29.52470226,-90.40976986
Louisiana,LaSalle,1021,0,22,0,2020-12-12,31.67884782,-92.15907765
Louisiana,Lincoln,2886,0,63,0,2020-12-12,32.6003154,-92.6659741
Louisiana,Livingston,7119,0,106,0,2020-12-12,30.44143993,-90.73061664
Louisiana,Madison,1151,0,16,0,2020-12-12,32.36918118,-91.23973355
Louisiana,Morehouse,1676,0,37,0,2020-12-12,32.81686191,-91.80421614
Louisiana,Natchitoches,2416,0,54,0,2020-12-12,31.72321584,-93.09816516
Louisiana,Orleans,17667,0,653,0,2020-12-12,30.06971951,-89.92660315
Louisiana,Ouachita,11426,0,227,0,2020-12-12,32.47645559,-92.15704172
Louisiana,Plaquemines,1413,0,20,0,2020-12-12,29.42245447,-89.60322085
Louisiana,Pointe Coupee,1625,0,52,0,2020-12-12,30.71409502,-91.60209535
Louisiana,Rapides,7007,0,199,0,2020-12-12,31.19778499,-92.52997303
Louisiana,Red River,609,0,26,0,2020-12-12,32.09530039,-93.34213308
Louisiana,Richland,1517,0,33,0,2020-12-12,32.41391005,-91.76634876
Louisiana,Sabine,1759,0,33,0,2020-12-12,31.56388699,-93.55433981
Louisiana,St. Bernard,2014,0,36,0,2020-12-12,29.87761636,-89.51887093
Louisiana,St. Charles,2964,0,71,0,2020-12-12,29.90709658,-90.35555967
Louisiana,St. Helena,593,0,4,0,2020-12-12,30.82210324,-90.71013176
Louisiana,St. James,1121,0,40,0,2020-12-12,30.02531716,-90.80212061
Louisiana,St. John the Baptist,2198,0,116,0,2020-12-12,30.12597499,-90.4753503
Louisiana,St. Landry,5646,0,173,0,2020-12-12,30.59724262,-92.00135806
Louisiana,St. Martin,3131,0,75,0,2020-12-12,30.13112107,-91.61403569
Louisiana,St. Mary,2562,0,97,0,2020-12-12,29.69262097,-91.44702164
Louisiana,St. Tammany,12029,0,305,0,2020-12-12,30.40942847,-89.95642711
Louisiana,Tangipahoa,7717,0,153,0,2020-12-12,30.62888673,-90.40664996
Louisiana,Tensas,234,0,3,0,2020-12-12,32.00760749,-91.32915234
Louisiana,Terrebonne,4999,0,141,0,2020-12-12,29.37343766,-90.82626855
Louisiana,Union,1546,0,61,0,2020-12-12,32.83121059,-92.3749373
Louisiana,Vermilion,2904,0,79,0,2020-12-12,29.83517605,-92.30292538
Louisiana,Vernon,1675,0,66,0,2020-12-12,31.10884837,-93.18153838
Louisiana,Washington,2541,0,80,0,2020-12-12,30.85288548,-90.03866652
Louisiana,Webster,2296,0,60,0,2020-12-12,32.70847669,-93.33121835
Louisiana,West Baton Rouge,1546,0,46,0,2020-12-12,30.46058217,-91.30989571
Louisiana,West Carroll,763,0,23,0,2020-12-12,32.78550125,-91.461201
Louisiana,West Feliciana,852,0,25,0,2020-12-12,30.87882871,-91.4148538
Louisiana,Winn,1096,0,26,0,2020-12-12,31.94449367,-92.63789413
Maine,Androscoggin,1910,12,36,0,2020-12-12,44.1664747,-70.20380627
Maine,Aroostook,267,17,2,0,2020-12-12,46.65926321,-68.59841248
Maine,Cumberland,4794,143,79,3,2020-12-12,43.8370751,-70.37226999
Maine,Franklin,332,36,4,0,2020-12-12,44.97330019,-70.44381045
Maine,Hancock,383,8,8,0,2020-12-12,44.59816444,-68.38401854
Maine,Kennebec,1201,45,19,0,2020-12-12,44.40759555,-69.76738544
Maine,Knox,238,4,4,0,2020-12-12,44.11486325,-69.10529169
Maine,Lincoln,189,0,2,0,2020-12-12,44.05996956,-69.54227124
Maine,Oxford,606,15,6,0,2020-12-12,44.49952995,-70.75682123
Maine,Penobscot,1251,35,15,0,2020-12-12,45.40194593,-68.65020455
Maine,Piscataquis,69,3,1,0,2020-12-12,45.83839062,-69.2860223
Maine,Sagadahoc,202,6,0,0,2020-12-12,43.95415864,-69.85074999
Maine,Somerset,544,3,20,0,2020-12-12,45.51229767,-69.95995554
Maine,Waldo,280,2,17,0,2020-12-12,44.4858305,-69.12061935
Maine,Washington,210,2,2,0,2020-12-12,45.01607142,-67.62813524
Maine,York,3142,82,42,4,2020-12-12,43.47808377,-70.71052375
Maryland,Allegany,4590,149,116,3,2020-12-12,39.62357628,-78.69280486
Maryland,Anne Arundel,19866,319,310,-1,2020-12-12,39.00670238,-76.60329337
Maryland,Baltimore,33539,414,815,9,2020-12-12,39.45784712,-76.62911955
Maryland,Calvert,1849,27,42,1,2020-12-12,38.53961642,-76.56820632
Maryland,Caroline,1148,18,10,0,2020-12-12,38.87172293,-75.82904158
Maryland,Carroll,4056,122,153,2,2020-12-12,39.56453592,-77.02373735
Maryland,Cecil,2785,111,56,1,2020-12-12,39.56647682,-75.94627411
Maryland,Charles,5070,76,112,0,2020-12-12,38.51092331,-76.98580666
Maryland,Dorchester,1152,17,17,0,2020-12-12,38.45413522,-76.02752426
Maryland,Frederick,8550,187,159,3,2020-12-12,39.47296601,-77.39999394
Maryland,Garrett,1146,30,17,2,2020-12-12,39.52786077,-79.27355126
Maryland,Harford,7096,118,119,1,2020-12-12,39.55010644,-76.30775940000002
Maryland,Howard,9536,148,163,0,2020-12-12,39.25305293,-76.93126208
Maryland,Kent,550,17,25,0,2020-12-12,39.24976208,-76.04741541
Maryland,Montgomery,38812,622,1017,5,2020-12-12,39.13676329,-77.20358245
Maryland,Prince George's,46877,542,985,11,2020-12-12,38.83070039,-76.8496441
Maryland,Queen Anne's,1337,22,27,0,2020-12-12,39.06198912,-76.03530977
Maryland,St. Mary's,2665,57,75,2,2020-12-12,38.30058422,-76.60629279999998
Maryland,Somerset,1411,20,11,2,2020-12-12,38.1163542,-75.75118623
Maryland,Talbot,947,16,7,0,2020-12-12,38.76618159,-76.10882561
Maryland,Washington,5679,107,94,2,2020-12-12,39.60835778,-77.82002295
Maryland,Wicomico,3868,44,64,2,2020-12-12,38.37301947,-75.62705831
Maryland,Worcester,1684,23,40,0,2020-12-12,38.21274277,-75.33200012
Maryland,Baltimore,33539,414,815,9,2020-12-12,39.45784712,-76.62911955
Massachusetts,Barnstable,3885,64,204,2,2020-12-12,41.72980578,-70.28854339
Massachusetts,Berkshire,2228,30,97,2,2020-12-12,42.37428441,-73.20524838
Massachusetts,Bristol,25768,487,948,15,2020-12-12,41.79228404,-71.10872211
Massachusetts,Essex,45050,887,1521,5,2020-12-12,42.6687626,-70.94687179
Massachusetts,Franklin,934,39,80,0,2020-12-12,42.58119713,-72.58602547
Massachusetts,Hampden,20240,309,962,1,2020-12-12,42.13440424,-72.63235561
Massachusetts,Hampshire,2892,63,171,0,2020-12-12,42.33997957,-72.65898478
Massachusetts,Middlesex,57947,1097,2522,8,2020-12-12,42.48607732,-71.39049229
Massachusetts,Norfolk,20206,340,1212,4,2020-12-12,42.16073095,-71.20530408
Massachusetts,Plymouth,18164,307,934,6,2020-12-12,41.94070556,-70.80802823
Massachusetts,Suffolk,43986,590,1296,2,2020-12-12,42.3279514,-71.07850442
Massachusetts,Worcester,31896,704,1352,5,2020-12-12,42.35026951,-71.90493363
Michigan,Alcona,295,1,9,1,2020-12-12,44.6846864,-83.59507875
Michigan,Alger,265,3,2,0,2020-12-12,46.41292944,-86.60260122
Michigan,Allegan,4955,63,43,0,2020-12-12,42.59147037,-85.89102866
Michigan,Alpena,964,25,19,0,2020-12-12,45.03477666,-83.62212411
Michigan,Antrim,532,3,8,0,2020-12-12,44.99690221,-85.15503082
Michigan,Arenac,542,5,23,1,2020-12-12,44.0636262,-83.89277559
Michigan,Baraga,550,5,26,0,2020-12-12,46.6720582,-88.36363591
Michigan,Barry,2640,23,23,3,2020-12-12,42.59513984,-85.30834519
Michigan,Bay,5409,32,141,8,2020-12-12,43.70639106,-83.98731479
Michigan,Benzie,573,10,12,0,2020-12-12,44.63899297,-86.01608482
Michigan,Berrien,8216,85,149,7,2020-12-12,41.95447397,-86.41313079999998
Michigan,Branch,2720,18,47,0,2020-12-12,41.91600556,-85.05929476
Michigan,Calhoun,7035,48,148,2,2020-12-12,42.24633834,-85.00493569
Michigan,Cass,2722,17,36,1,2020-12-12,41.91522292,-85.99405727
Michigan,Charlevoix,769,9,7,0,2020-12-12,45.37790017,-85.19614053
Michigan,Cheboygan,636,4,27,2,2020-12-12,45.44787015,-84.50122149
Michigan,Chippewa,1087,23,10,1,2020-12-12,46.29552653,-84.54353449
Michigan,Clare,990,8,28,1,2020-12-12,43.98794227,-84.84819859999998
Michigan,Clinton,3349,38,29,0,2020-12-12,42.94400871,-84.60145248
Michigan,Crawford,425,11,5,0,2020-12-12,44.68255561,-84.61006219
Michigan,Delta,2749,11,66,1,2020-12-12,45.90484910000001,-86.9080745
Michigan,Dickinson,1992,17,61,1,2020-12-12,46.00999672,-87.86961634
Michigan,Eaton,3978,33,67,3,2020-12-12,42.59599185,-84.83740035
Michigan,Emmet,1131,14,30,1,2020-12-12,45.52625509,-84.89083249
Michigan,Genesee,18482,240,502,11,2020-12-12,43.02244215,-83.70589709
Michigan,Gladwin,1037,16,16,2,2020-12-12,43.98901072,-84.38774817
Michigan,Gogebic,947,9,27,2,2020-12-12,46.40862701,-89.69377193
Michigan,Grand Traverse,2484,54,32,4,2020-12-12,44.69565625,-85.55585247
Michigan,Gratiot,2032,5,48,3,2020-12-12,43.29265605,-84.60505416
Michigan,Hillsdale,2145,30,49,0,2020-12-12,41.88753639,-84.59312019
Michigan,Houghton,1846,13,17,1,2020-12-12,46.89988536,-88.68495385
Michigan,Huron,1253,41,27,3,2020-12-12,43.83353985,-83.04078453
Michigan,Ingham,10920,137,146,5,2020-12-12,42.59716886,-84.37472069
Michigan,Ionia,2971,18,36,2,2020-12-12,42.94502238,-85.07413319
Michigan,Iosco,959,8,36,1,2020-12-12,44.35486835,-83.63484895
Michigan,Iron,770,2,37,1,2020-12-12,46.20974132,-88.53136251
Michigan,Isabella,2962,32,33,1,2020-12-12,43.64060976,-84.84664923
Michigan,Jackson,6565,43,125,8,2020-12-12,42.24807035,-84.42258681
Michigan,Kalamazoo,10892,83,201,9,2020-12-12,42.24542231,-85.53038622
Michigan,Kalkaska,432,5,9,0,2020-12-12,44.68512729,-85.09085699
Michigan,Kent,39032,312,452,13,2020-12-12,43.03197711,-85.54934642
Michigan,Keweenaw,82,0,2,0,2020-12-12,47.63197653,-88.41434263
Michigan,Lake,254,-1,6,0,2020-12-12,43.99050893,-85.802173
Michigan,Lapeer,3395,109,73,2,2020-12-12,43.09052506,-83.22153148
Michigan,Leelanau,500,8,4,1,2020-12-12,44.94430054,-85.80150326
Michigan,Lenawee,3395,70,45,1,2020-12-12,41.89475156,-84.06603727
Michigan,Livingston,6946,98,57,1,2020-12-12,42.60302282,-83.91297209
Michigan,Luce,183,2,0,0,2020-12-12,46.47227431,-85.54471223
Michigan,Mackinac,351,2,1,0,2020-12-12,46.07028979,-85.04980537
Michigan,Macomb,44660,404,1418,26,2020-12-12,42.69158356,-82.92752801
Michigan,Manistee,494,9,10,0,2020-12-12,44.33352407,-86.05626916
Michigan,Marquette,3297,37,43,2,2020-12-12,46.4338914,-87.64043701
Michigan,Mason,783,13,14,1,2020-12-12,43.99509218,-86.24988902
Michigan,Mecosta,1499,26,11,0,2020-12-12,43.64064262,-85.32463223
Michigan,Menominee,1493,6,22,1,2020-12-12,45.58038692,-87.55370409
Michigan,Midland,3503,24,32,1,2020-12-12,43.64330771,-84.38804374
Michigan,Missaukee,372,4,7,0,2020-12-12,44.33772443,-85.09256478
Michigan,Monroe,6645,97,116,1,2020-12-12,41.92734151,-83.53749864
Michigan,Montcalm,2573,50,40,2,2020-12-12,43.31082541,-85.15252824
Michigan,Montmorency,250,2,5,0,2020-12-12,45.0275929,-84.12696227
Michigan,Muskegon,8543,24,217,8,2020-12-12,43.29123859,-86.15176712
Michigan,Newaygo,1990,19,27,1,2020-12-12,43.554374,-85.80070107
Michigan,Oakland,54497,455,1476,13,2020-12-12,42.66090111,-83.38595416
Michigan,Oceana,1461,8,31,0,2020-12-12,43.64124435,-86.26726673
Michigan,Ogemaw,753,13,23,1,2020-12-12,44.33481032,-84.12725175
Michigan,Ontonagon,298,2,15,0,2020-12-12,46.665226200000006,-89.31390481
Michigan,Osceola,700,6,14,1,2020-12-12,43.98992088,-85.32566756
Michigan,Oscoda,261,3,11,0,2020-12-12,44.68192279,-84.12939244
Michigan,Otsego,896,10,19,0,2020-12-12,45.02085831,-84.59898295
Michigan,Ottawa,16493,105,214,7,2020-12-12,42.95996803,-85.9969107
Michigan,Presque Isle,414,6,4,0,2020-12-12,45.34018577,-83.91498656
Michigan,Roscommon,809,5,25,1,2020-12-12,44.33473082,-84.61067651
Michigan,Saginaw,10736,147,311,6,2020-12-12,43.33433923,-84.05131209999998
Michigan,St. Clair,5988,78,117,1,2020-12-12,42.92655373,-82.67937954
Michigan,St. Joseph,3098,27,43,2,2020-12-12,41.91441767,-85.52797979
Michigan,Sanilac,1231,20,43,9,2020-12-12,43.42406072,-82.82055898
Michigan,Schoolcraft,204,1,3,0,2020-12-12,46.19235734,-86.19972234
Michigan,Shiawassee,2515,24,51,1,2020-12-12,42.95392800000001,-84.14585902
Michigan,Tuscola,2169,40,72,3,2020-12-12,43.46606813,-83.41897025
Michigan,Van Buren,3580,55,65,6,2020-12-12,42.25190229,-86.01939087
Michigan,Washtenaw,11921,149,155,4,2020-12-12,42.253105,-83.83853204
Michigan,Wayne,75798,714,3412,28,2020-12-12,42.28098405,-83.281255
Michigan,Wexford,851,17,16,0,2020-12-12,44.33853602,-85.57712739
Minnesota,Aitkin,894,10,31,0,2020-12-12,46.60962049,-93.4116826
Minnesota,Anoka,26364,286,255,1,2020-12-12,45.27476015,-93.24604565
Minnesota,Becker,2475,33,27,1,2020-12-12,46.93479392,-95.67158144
Minnesota,Beltrami,2580,19,26,2,2020-12-12,47.97373527,-94.93732139
Minnesota,Benton,3540,24,63,1,2020-12-12,45.69804958,-93.99514135
Minnesota,Big Stone,394,5,2,0,2020-12-12,45.42712824,-96.41403739
Minnesota,Blue Earth,4655,46,22,0,2020-12-12,44.03554215,-94.06699781
Minnesota,Brown,1807,29,23,1,2020-12-12,44.24205652,-94.72562874
Minnesota,Carlton,2322,48,27,1,2020-12-12,46.59180601,-92.67601019
Minnesota,Carver,5812,87,21,2,2020-12-12,44.82017001,-93.8009918
Minnesota,Cass,1730,25,13,0,2020-12-12,46.95043611,-94.32603968
Minnesota,Chippewa,1104,11,17,0,2020-12-12,45.02343421,-95.56403693
Minnesota,Chisago,3704,45,24,2,2020-12-12,45.5021011,-92.90861945
Minnesota,Clay,5730,39,68,0,2020-12-12,46.89289518,-96.48761922
Minnesota,Clearwater,608,3,10,0,2020-12-12,47.57992111,-95.37790562
Minnesota,Cook,94,0,0,0,2020-12-12,47.90504893,-90.52629546
Minnesota,Cottonwood,1112,6,5,0,2020-12-12,44.00715262,-95.18138802
Minnesota,Crow Wing,4216,54,46,0,2020-12-12,46.48096553,-94.06755609
Minnesota,Dakota,26857,364,231,3,2020-12-12,44.67172617,-93.06299363
Minnesota,Dodge,1037,11,1,0,2020-12-12,44.02238415,-92.86244324
Minnesota,Douglas,3144,29,49,1,2020-12-12,45.93348491,-95.45335469
Minnesota,Faribault,740,11,5,1,2020-12-12,43.67381499,-93.94787458
Minnesota,Fillmore,909,17,0,0,2020-12-12,43.67394126,-92.08980382
Minnesota,Freeborn,1773,14,12,0,2020-12-12,43.67385583,-93.34884422
Minnesota,Goodhue,2596,39,35,0,2020-12-12,44.40849741,-92.7234195
Minnesota,Grant,341,6,6,0,2020-12-12,45.93424769,-96.01139609
Minnesota,Hennepin,78430,851,1231,15,2020-12-12,45.00761521,-93.47694895
Minnesota,Houston,984,33,5,0,2020-12-12,43.67129565,-91.49143057
Minnesota,Hubbard,1280,7,33,0,2020-12-12,47.10778564,-94.91693868
Minnesota,Isanti,2364,37,24,1,2020-12-12,45.56181234,-93.29487636
Minnesota,Itasca,2392,35,29,0,2020-12-12,47.51009045,-93.63092229
Minnesota,Jackson,680,14,2,0,2020-12-12,43.67423373,-95.15398258
Minnesota,Kanabec,835,24,17,0,2020-12-12,45.9459309,-93.29275192
Minnesota,Kandiyohi,4990,71,44,2,2020-12-12,45.1526059,-95.00586446
Minnesota,Kittson,320,4,12,0,2020-12-12,48.77754106,-96.78317184
Minnesota,Koochiching,486,4,6,0,2020-12-12,48.24539665,-93.78352843
Minnesota,Lac qui Parle,512,21,5,0,2020-12-12,44.9973857,-96.17488219
Minnesota,Lake,492,6,11,1,2020-12-12,47.64270764,-91.44557998
Minnesota,Lake of the Woods,133,1,1,0,2020-12-12,48.77217001,-94.90274472
Minnesota,Le Sueur,1774,38,12,0,2020-12-12,44.37136597,-93.72844721
Minnesota,Lincoln,420,0,1,0,2020-12-12,44.41311883,-96.26688165
Minnesota,Lyon,2572,4,21,1,2020-12-12,44.41327865,-95.83806103
Minnesota,McLeod,2792,52,29,0,2020-12-12,44.82367677,-94.27287017
Minnesota,Mahnomen,356,4,6,0,2020-12-12,47.32557075,-95.80921485
Minnesota,Marshall,615,8,11,0,2020-12-12,48.35825983,-96.37017407
Minnesota,Martin,1406,4,23,0,2020-12-12,43.67429718,-94.55099908
Minnesota,Meeker,1727,23,22,1,2020-12-12,45.12328869,-94.52839455
Minnesota,Mille Lacs,1858,21,38,1,2020-12-12,45.93705297,-93.63236823
Minnesota,Morrison,2712,20,36,0,2020-12-12,46.01265363,-94.27341528
Minnesota,Mower,3060,33,23,0,2020-12-12,43.67142874,-92.75234549
Minnesota,Murray,689,6,5,0,2020-12-12,44.02216709,-95.76328482
Minnesota,Nicollet,1883,7,30,1,2020-12-12,44.35291112,-94.24710352
Minnesota,Nobles,3375,27,40,0,2020-12-12,43.67434621,-95.75329576
Minnesota,Norman,397,4,7,0,2020-12-12,47.32628443,-96.45620947
Minnesota,Olmsted,7973,85,45,3,2020-12-12,44.00374114,-92.40209944
Minnesota,Otter Tail,3822,58,36,1,2020-12-12,46.40846929,-95.70835255
Minnesota,Pennington,823,4,9,0,2020-12-12,48.06642577,-96.0370814
Minnesota,Pine,1956,148,10,0,2020-12-12,46.12105238,-92.74070188
Minnesota,Pipestone,820,1,18,0,2020-12-12,44.02301619,-96.25841142
Minnesota,Polk,3025,70,38,0,2020-12-12,47.77372465,-96.40134647
Minnesota,Pope,633,6,3,0,2020-12-12,45.58606667,-95.44451209
Minnesota,Ramsey,33375,400,585,9,2020-12-12,45.01625271,-93.09872295
Minnesota,Red Lake,269,0,3,0,2020-12-12,47.87197525,-96.09561104
Minnesota,Redwood,1177,5,22,1,2020-12-12,44.40555844,-95.25207021
Minnesota,Renville,1169,21,33,1,2020-12-12,44.72836381,-94.94553734
Minnesota,Rice,4842,77,45,0,2020-12-12,44.3543376,-93.29658715
Minnesota,Rock,945,13,10,0,2020-12-12,43.67482683,-96.25296832
Minnesota,Roseau,1504,28,9,1,2020-12-12,48.77501878,-95.81079919
Minnesota,St. Louis,11033,199,153,4,2020-12-12,47.6048407,-92.46879855
Minnesota,Scott,10013,115,69,3,2020-12-12,44.6490231,-93.53340251
Minnesota,Sherburne,6962,89,48,0,2020-12-12,45.44447208,-93.77617511
Minnesota,Sibley,924,13,4,0,2020-12-12,44.5796592,-94.23164924
Minnesota,Stearns,15854,108,142,1,2020-12-12,45.55192576,-94.61078221
Minnesota,Steele,2325,20,9,0,2020-12-12,44.02240351,-93.22627088
Minnesota,Stevens,613,15,5,0,2020-12-12,45.58613007,-96.00163705
Minnesota,Swift,733,8,13,0,2020-12-12,45.2829032,-95.68264092
Minnesota,Todd,2098,21,17,1,2020-12-12,46.06996226,-94.89785296
Minnesota,Traverse,171,1,2,0,2020-12-12,45.77298854,-96.47062949
Minnesota,Wabasha,1318,17,2,0,2020-12-12,44.28424356,-92.23121312
Minnesota,Wadena,1005,18,9,0,2020-12-12,46.58589171,-94.96968506
Minnesota,Waseca,1551,15,11,0,2020-12-12,44.02211116,-93.58720034
Minnesota,Washington,16666,214,146,2,2020-12-12,45.03864533,-92.88429635
Minnesota,Watonwan,980,6,4,0,2020-12-12,43.97823903,-94.61413846
Minnesota,Wilkin,520,7,5,0,2020-12-12,46.35721532,-96.4684375
Minnesota,Winona,3270,22,38,0,2020-12-12,43.98772283,-91.78081305
Minnesota,Wright,9758,115,60,1,2020-12-12,45.17297924,-93.96234781
Minnesota,Yellow Medicine,783,5,13,0,2020-12-12,44.71710183,-95.86842453
Mississippi,Adams,1587,15,52,0,2020-12-12,31.47669768,-91.35326037
Mississippi,Alcorn,1821,76,35,1,2020-12-12,34.88084463,-88.57996173
Mississippi,Amite,734,10,16,0,2020-12-12,31.17467303,-90.80501621
Mississippi,Attala,1411,36,39,1,2020-12-12,33.08658803,-89.57838564
Mississippi,Benton,558,12,19,0,2020-12-12,34.81681228,-89.18945516
Mississippi,Bolivar,2796,43,89,0,2020-12-12,33.79696941,-90.87372121
Mississippi,Calhoun,904,7,15,0,2020-12-12,33.93683395,-89.33686647
Mississippi,Carroll,842,6,17,0,2020-12-12,33.44834567,-89.91994479
Mississippi,Chickasaw,1274,28,34,1,2020-12-12,33.91983202,-88.9481545
Mississippi,Choctaw,421,13,9,1,2020-12-12,33.34598242,-89.24809382
Mississippi,Claiborne,609,3,16,0,2020-12-12,31.97061673,-90.90702196
Mississippi,Clarke,1036,7,55,0,2020-12-12,32.04158545,-88.68896219999998
Mississippi,Clay,1076,17,28,1,2020-12-12,33.65358105,-88.77784255
Mississippi,Coahoma,1715,13,47,0,2020-12-12,34.22772299,-90.60415045
Mississippi,Copiah,1918,24,42,0,2020-12-12,31.86977774,-90.44565118
Mississippi,Covington,1562,25,61,3,2020-12-12,31.63225413,-89.55389939
Mississippi,DeSoto,11868,174,114,3,2020-12-12,34.87625235,-89.99091418
Mississippi,Forrest,4413,44,92,1,2020-12-12,31.18961454,-89.25832496
Mississippi,Franklin,441,5,6,0,2020-12-12,31.47786634,-90.89672989
Mississippi,George,1475,20,30,1,2020-12-12,30.86259065,-88.64436789
Mississippi,Greene,838,14,24,0,2020-12-12,31.21444233,-88.63922281
Mississippi,Grenada,1651,44,50,1,2020-12-12,33.77036166,-89.80245083
Mississippi,Hancock,1486,32,46,1,2020-12-12,30.41830223,-89.48851033
Mississippi,Harrison,8624,191,122,3,2020-12-12,30.51359752,-89.12467576
Mississippi,Hinds,11753,218,220,3,2020-12-12,32.2656285,-90.44435448
Mississippi,Holmes,1467,33,62,0,2020-12-12,33.12345854,-90.08923538
Mississippi,Humphreys,616,6,21,0,2020-12-12,33.12825718,-90.52252707
Mississippi,Issaquena,132,0,4,0,2020-12-12,32.72531359,-90.97392828
Mississippi,Itawamba,1829,18,43,0,2020-12-12,34.27993475,-88.3606733
Mississippi,Jackson,7357,83,142,3,2020-12-12,30.54020656,-88.64184064
Mississippi,Jasper,1030,15,24,0,2020-12-12,32.01922104,-89.11786866
Mississippi,Jefferson,411,4,12,0,2020-12-12,31.73397872,-91.03764977
Mississippi,Jefferson Davis,652,11,19,1,2020-12-12,31.56884708,-89.82670990000003
Mississippi,Jones,4277,66,91,1,2020-12-12,31.62257767,-89.16896899999998
Mississippi,Kemper,588,10,19,0,2020-12-12,32.75462946,-88.64105766
Mississippi,Lafayette,3626,13,66,2,2020-12-12,34.35687874,-89.48490961
Mississippi,Lamar,3411,50,51,0,2020-12-12,31.20572971,-89.5077704
Mississippi,Lauderdale,4145,57,157,3,2020-12-12,32.40419769,-88.66229662
Mississippi,Lawrence,819,9,14,0,2020-12-12,31.55147224,-90.10841127
Mississippi,Leake,1606,31,45,0,2020-12-12,32.7536828,-89.52402044
Mississippi,Lee,6157,78,104,1,2020-12-12,34.291877500000005,-88.68149954
Mississippi,Leflore,2310,19,96,1,2020-12-12,33.55545125,-90.29900733
Mississippi,Lincoln,2178,16,71,0,2020-12-12,31.53288662,-90.45391915
Mississippi,Lowndes,3127,72,72,1,2020-12-12,33.47386518,-88.44191529999998
Mississippi,Madison,5836,110,121,0,2020-12-12,32.63389156,-90.03513564
Mississippi,Marion,1429,9,54,2,2020-12-12,31.23132643,-89.8209217
Mississippi,Marshall,2469,13,56,0,2020-12-12,34.76216286,-89.50299462
Mississippi,Monroe,2419,32,80,0,2020-12-12,33.89236763,-88.4808438
Mississippi,Montgomery,868,5,30,2,2020-12-12,33.49419589,-89.61729103
Mississippi,Neshoba,2535,14,131,3,2020-12-12,32.75339664,-89.11726492
Mississippi,Newton,1304,16,31,1,2020-12-12,32.40021118,-89.11843336
Mississippi,Noxubee,800,12,17,0,2020-12-12,33.11009499,-88.56949061
Mississippi,Oktibbeha,2825,28,64,0,2020-12-12,33.42491685,-88.87905132
Mississippi,Panola,2645,22,62,0,2020-12-12,34.36398677,-89.95064249
Mississippi,Pearl River,1977,53,73,0,2020-12-12,30.77090935,-89.58677275
Mississippi,Perry,739,8,27,0,2020-12-12,31.17161885,-88.99281835
Mississippi,Pike,1871,21,62,0,2020-12-12,31.17507789,-90.40392572
Mississippi,Pontotoc,2490,45,32,0,2020-12-12,34.226046000000004,-89.03636807
Mississippi,Prentiss,1737,28,39,1,2020-12-12,34.61810501,-88.51986294
Mississippi,Quitman,536,1,7,0,2020-12-12,34.25157572,-90.28908
Mississippi,Rankin,7188,152,128,6,2020-12-12,32.26469147,-89.94537876
Mississippi,Scott,1829,26,31,1,2020-12-12,32.406704100000006,-89.53789439
Mississippi,Sharkey,350,2,17,0,2020-12-12,32.88149103,-90.8159538
Mississippi,Simpson,1690,30,54,0,2020-12-12,31.91282117,-89.91716179
Mississippi,Smith,845,9,17,1,2020-12-12,32.01744532,-89.50644846
Mississippi,Stone,966,24,16,1,2020-12-12,30.79187949,-89.11547539
Mississippi,Sunflower,2098,24,57,0,2020-12-12,33.60192578,-90.58882684
Mississippi,Tallahatchie,1073,11,28,0,2020-12-12,33.95339918,-90.1729398
Mississippi,Tate,2045,34,52,0,2020-12-12,34.65133709,-89.94485778
Mississippi,Tippah,1546,33,35,1,2020-12-12,34.76872156,-88.90988194
Mississippi,Tishomingo,1293,22,47,0,2020-12-12,34.74023475,-88.23917219
Mississippi,Tunica,665,3,19,0,2020-12-12,34.64967704,-90.37481167
Mississippi,Union,2142,34,27,0,2020-12-12,34.49162015,-89.00776006
Mississippi,Walthall,863,7,32,0,2020-12-12,31.14971548,-90.10446654
Mississippi,Warren,2108,38,64,0,2020-12-12,32.35810271,-90.83352619
Mississippi,Washington,3632,40,108,0,2020-12-12,33.28392041,-90.94196237
Mississippi,Wayne,1423,18,25,0,2020-12-12,31.64135687,-88.69573913
Mississippi,Webster,565,9,16,1,2020-12-12,33.61300486,-89.28392912
Mississippi,Wilkinson,478,4,22,0,2020-12-12,31.16078225,-91.31018819
Mississippi,Winston,1508,27,37,2,2020-12-12,33.08747908,-89.03391385
Mississippi,Yalobusha,828,10,29,0,2020-12-12,34.02824175,-89.70762049999998
Mississippi,Yazoo,1781,23,42,0,2020-12-12,32.77890365,-90.39656148
Missouri,Adair,1281,39,3,0,2020-12-12,40.19058551,-92.60078167
Missouri,Andrew,950,24,13,0,2020-12-12,39.98492163,-94.80163024
Missouri,Atchison,249,4,4,0,2020-12-12,40.43238737,-95.42970639
Missouri,Audrain,1338,38,16,0,2020-12-12,39.215877,-91.84242683
Missouri,Barry,1606,18,33,1,2020-12-12,36.70978521,-93.82919888
Missouri,Barton,691,12,6,0,2020-12-12,37.50207671,-94.34757022
Missouri,Bates,659,13,9,0,2020-12-12,38.25271289,-94.34113157
Missouri,Benton,1036,49,11,0,2020-12-12,38.29503305,-93.28756116
Missouri,Bollinger,899,9,10,0,2020-12-12,37.32449052,-90.02725304
Missouri,Boone,11683,233,29,1,2020-12-12,38.99186229,-92.30723575
Missouri,Buchanan,5480,106,72,2,2020-12-12,39.65816401,-94.80138942
Missouri,Butler,2527,59,10,0,2020-12-12,36.71462476,-90.40421163
Missouri,Caldwell,458,13,3,0,2020-12-12,39.65620858,-93.98308093
Missouri,Callaway,3279,50,13,0,2020-12-12,38.83674754,-91.92186505
Missouri,Camden,2765,35,51,0,2020-12-12,38.02199522,-92.76083747
Missouri,Cape Girardeau,5713,93,89,0,2020-12-12,37.38489388,-89.6843587
Missouri,Carroll,541,23,8,0,2020-12-12,39.42762566,-93.50626255
Missouri,Carter,342,8,6,0,2020-12-12,36.94160441,-90.96051322
Missouri,Cass,4599,139,41,0,2020-12-12,38.64789422,-94.353399
Missouri,Cedar,465,5,8,0,2020-12-12,37.72391475,-93.85445441
Missouri,Chariton,277,4,0,0,2020-12-12,39.51499357,-92.9629191
Missouri,Christian,4542,154,29,1,2020-12-12,36.9711783,-93.18537118
Missouri,Clark,336,1,4,0,2020-12-12,40.41040752,-91.73661677
Missouri,Clay,5401,147,81,1,2020-12-12,39.31132056,-94.41850862
Missouri,Clinton,1069,32,48,0,2020-12-12,39.6013098,-94.40465394
Missouri,Cole,6913,80,65,0,2020-12-12,38.50455671,-92.27860244
Missouri,Cooper,1314,26,10,0,2020-12-12,38.844478,-92.80896081
Missouri,Crawford,1387,39,14,0,2020-12-12,37.97663738,-91.30528104
Missouri,Dade,320,3,8,0,2020-12-12,37.431814,-93.8503345
Missouri,Dallas,644,9,13,0,2020-12-12,37.6811355,-93.02127031
Missouri,Daviess,401,16,8,0,2020-12-12,39.96145298,-93.98519678
Missouri,DeKalb,679,13,16,0,2020-12-12,39.89201062,-94.40476508
Missouri,Dent,605,9,5,0,2020-12-12,37.60663134,-91.50790473
Missouri,Douglas,506,24,18,1,2020-12-12,36.9325593,-92.49905109
Missouri,Dunklin,1842,15,14,0,2020-12-12,36.27167174,-90.09122243
Missouri,Franklin,5584,126,96,1,2020-12-12,38.41127108,-91.07522826
Missouri,Gasconade,566,13,27,0,2020-12-12,38.43947277,-91.50847147
Missouri,Gentry,511,16,14,0,2020-12-12,40.21097916,-94.40944419
Missouri,Greene,16101,454,229,1,2020-12-12,37.2575872,-93.34230916
Missouri,Grundy,587,10,14,0,2020-12-12,40.11406587,-93.56509276
Missouri,Harrison,520,25,7,0,2020-12-12,40.35570088,-93.99222144
Missouri,Henry,1263,33,16,0,2020-12-12,38.38482826,-93.79293734
Missouri,Hickory,399,4,6,0,2020-12-12,37.94163617,-93.3203037
Missouri,Holt,305,6,5,0,2020-12-12,40.09799248,-95.2163888
Missouri,Howard,561,3,2,0,2020-12-12,39.1435761,-92.69756691
Missouri,Howell,2043,341,34,1,2020-12-12,36.77383887,-91.88683935
Missouri,Iron,287,16,1,0,2020-12-12,37.55487945,-90.7735296
Missouri,Jackson,20291,367,197,1,2020-12-12,39.01002188,-94.34724536
Missouri,Jasper,9038,109,135,5,2020-12-12,37.20351921,-94.34050458
Missouri,Jefferson,12942,275,113,0,2020-12-12,38.25926778,-90.53870896
Missouri,Johnson,2859,53,22,1,2020-12-12,38.74719601,-93.80691168
Missouri,Knox,140,-1,1,0,2020-12-12,40.12699751,-92.14780832
Missouri,Laclede,2193,89,38,1,2020-12-12,37.65896829,-92.5888493
Missouri,Lafayette,1752,29,35,4,2020-12-12,39.06986886,-93.78076396
Missouri,Lawrence,2093,24,41,0,2020-12-12,37.10626634,-93.83293097
Missouri,Lewis,478,3,2,0,2020-12-12,40.09673161,-91.72070156
Missouri,Lincoln,2961,101,13,0,2020-12-12,39.05345619,-90.95588181
Missouri,Linn,373,9,11,0,2020-12-12,39.87001769,-93.10704106
Missouri,Livingston,871,14,18,1,2020-12-12,39.78110272,-93.54645978
Missouri,McDonald,1502,16,17,1,2020-12-12,36.62869595,-94.34867205
Missouri,Macon,767,8,4,0,2020-12-12,39.83049768,-92.56453089
Missouri,Madison,1021,17,10,0,2020-12-12,37.47865134,-90.3467143
Missouri,Maries,412,4,4,0,2020-12-12,38.16193985,-91.92249662
Missouri,Marion,2088,25,20,0,2020-12-12,39.80601912,-91.62203062
Missouri,Mercer,103,5,1,0,2020-12-12,40.42212303,-93.5682959
Missouri,Miller,1749,38,31,3,2020-12-12,38.21450288,-92.42610898
Missouri,Mississippi,1029,28,8,1,2020-12-12,36.82516239,-89.29505753
Missouri,Moniteau,1365,21,15,0,2020-12-12,38.63571781,-92.57976951
Missouri,Monroe,442,6,5,0,2020-12-12,39.49593978,-92.00043978
Missouri,Montgomery,401,10,6,0,2020-12-12,38.94022054,-91.47000721
Missouri,Morgan,1280,38,14,1,2020-12-12,38.4181765,-92.88791859
Missouri,New Madrid,1470,20,26,1,2020-12-12,36.59666326,-89.66070007
Missouri,Newton,3151,25,39,0,2020-12-12,36.90519407,-94.3394104
Missouri,Nodaway,2166,5,17,0,2020-12-12,40.36079813,-94.88133008
Missouri,Oregon,468,50,2,0,2020-12-12,36.68710164,-91.4033755
Missouri,Osage,1049,10,6,0,2020-12-12,38.46036182,-91.8613635
Missouri,Ozark,336,16,4,0,2020-12-12,36.64916339,-92.44459066
Missouri,Pemiscot,1194,11,19,0,2020-12-12,36.2130572,-89.78742322
Missouri,Perry,1681,20,15,0,2020-12-12,37.70660776,-89.82741088
