State,County,Total Cases,New Cases,Total Deaths,New Deaths,Date,Latitude,Longitude
Alabama,Autauga,1966,17,28,0,2020-10-16,32.53952745,-86.64408227
Alabama,Baldwin,6333,48,67,1,2020-10-16,30.72774991,-87.72207058
Alabama,Barbour,968,3,9,0,2020-10-16,31.868263,-85.3871286
Alabama,Bibb,771,10,13,0,2020-10-16,32.99642064,-87.12511459999997
Alabama,Blount,1783,15,23,0,2020-10-16,33.98210918,-86.56790593
Alabama,Bullock,631,3,17,0,2020-10-16,32.10030533,-85.71265535
Alabama,Butler,988,6,40,0,2020-10-16,31.75300095,-86.68057478
Alabama,Calhoun,4003,54,59,0,2020-10-16,33.77483727,-85.82630386
Alabama,Chambers,1263,3,43,0,2020-10-16,32.91360079,-85.39072749
Alabama,Cherokee,702,6,14,0,2020-10-16,34.17805983,-85.60638968
Alabama,Chilton,1767,11,31,0,2020-10-16,32.85044126,-86.7173256
Alabama,Choctaw,383,4,12,0,2020-10-16,32.02227341,-88.26564429999998
Alabama,Clarke,1240,4,16,0,2020-10-16,31.68099859,-87.83548597
Alabama,Clay,679,5,12,0,2020-10-16,33.26984193,-85.85836077
Alabama,Cleburne,504,15,7,1,2020-10-16,33.67679204,-85.52005899
Alabama,Coffee,1606,18,9,0,2020-10-16,31.39932826,-85.98901039
Alabama,Colbert,1869,18,27,0,2020-10-16,34.69847452,-87.80168544
Alabama,Conecuh,550,0,13,0,2020-10-16,31.43401703,-86.99320044
Alabama,Coosa,192,1,3,0,2020-10-16,32.93690146,-86.24847739
Alabama,Covington,1612,8,29,0,2020-10-16,31.2477854,-86.45050893
Alabama,Crenshaw,578,5,30,0,2020-10-16,31.72941803,-86.31593104
Alabama,Cullman,2190,22,23,0,2020-10-16,34.13020303,-86.86888037
Alabama,Dale,1594,14,51,0,2020-10-16,31.43037123,-85.61095742
Alabama,Dallas,1841,0,27,0,2020-10-16,32.32688101,-87.10866709999998
Alabama,DeKalb,3036,40,26,0,2020-10-16,34.45946862,-85.80782906
Alabama,Elmore,3045,17,52,0,2020-10-16,32.59785413,-86.14415284
Alabama,Escambia,1695,4,28,1,2020-10-16,31.1256789,-87.15918694
Alabama,Etowah,3924,28,49,1,2020-10-16,34.04567266,-86.04051873
Alabama,Fayette,532,7,12,1,2020-10-16,33.72076938,-87.73886638
Alabama,Franklin,1952,24,31,0,2020-10-16,34.44235334,-87.84289505
Alabama,Geneva,814,4,7,0,2020-10-16,31.09389027,-85.83572839
Alabama,Greene,329,1,16,1,2020-10-16,32.85504247,-87.95684022
Alabama,Hale,729,3,29,0,2020-10-16,32.76039258,-87.63284988
Alabama,Henry,620,5,6,0,2020-10-16,31.51148016,-85.24267944
Alabama,Houston,3582,23,32,3,2020-10-16,31.15197924,-85.29939599
Alabama,Jackson,1943,42,14,1,2020-10-16,34.78144169,-85.99750489
Alabama,Jefferson,22030,133,371,7,2020-10-16,33.55554728,-86.89506300000002
Alabama,Lamar,441,12,5,2,2020-10-16,33.77995024,-88.09668032
Alabama,Lauderdale,1994,20,40,1,2020-10-16,34.90171875,-87.65624729
Alabama,Lawrence,772,13,30,0,2020-10-16,34.52041498,-87.31069453
Alabama,Lee,6400,33,66,0,2020-10-16,32.60154883,-85.35132246
Alabama,Limestone,2638,33,27,0,2020-10-16,34.81185586,-86.98310072
Alabama,Lowndes,693,6,27,0,2020-10-16,32.1597283,-86.65158371
Alabama,Macon,523,2,19,0,2020-10-16,32.38759944,-85.69267724
Alabama,Madison,8818,76,92,4,2020-10-16,34.76327133,-86.55069633
Alabama,Marengo,938,10,21,0,2020-10-16,32.24767634,-87.78796182
Alabama,Marion,1036,4,29,0,2020-10-16,34.13697363,-87.88704173
Alabama,Marshall,4209,15,48,1,2020-10-16,34.36975964,-86.30486727
Alabama,Mobile,14160,40,313,0,2020-10-16,30.78472347,-88.20842409
Alabama,Monroe,619,1,9,0,2020-10-16,31.56729412,-87.36995001
Alabama,Montgomery,9517,64,196,1,2020-10-16,32.2206831,-86.20969272
Alabama,Morgan,3846,46,32,0,2020-10-16,34.45500589,-86.85475946
Alabama,Perry,576,-1,6,0,2020-10-16,32.64048341,-87.29770589
Alabama,Pickens,775,14,17,0,2020-10-16,33.28094866,-88.08818103
Alabama,Pike,1293,5,12,0,2020-10-16,31.80396383,-85.9408295
Alabama,Randolph,774,8,14,0,2020-10-16,33.29526734,-85.45708831
Alabama,Russell,1889,15,3,0,2020-10-16,32.28725256,-85.18415324
Alabama,St. Clair,2705,29,42,0,2020-10-16,33.71902176,-86.31029372
Alabama,Shelby,6906,53,60,0,2020-10-16,33.26879845,-86.66232561
Alabama,Sumter,463,2,21,0,2020-10-16,32.59117397,-88.19916205
Alabama,Talladega,2495,22,34,0,2020-10-16,33.37823223,-86.16886178
Alabama,Tallapoosa,1249,4,86,1,2020-10-16,32.86698258,-85.79833053
Alabama,Tuscaloosa,9747,45,132,2,2020-10-16,33.28726072,-87.52556818
Alabama,Walker,2615,13,92,1,2020-10-16,33.80270512,-87.30027177
Alabama,Washington,615,2,12,0,2020-10-16,31.4092794,-88.20689944
Alabama,Wilcox,554,0,12,0,2020-10-16,31.98773215,-87.30891118
Alabama,Winston,870,5,13,0,2020-10-16,34.15030532,-87.37325922
Alaska,Aleutians East,5,0,0,0,2020-10-16,55.32222414,-161.9722021
Alaska,Bristol Bay,10,0,0,0,2020-10-16,58.74513976,-156.701064
Alaska,Denali,15,2,0,0,2020-10-16,63.67264044,-150.0076108
Alaska,Fairbanks North Star,1678,32,12,1,2020-10-16,64.80726247,-146.5692662
Alaska,Haines,6,0,0,0,2020-10-16,59.09893571,-135.4679843
Alaska,Kenai Peninsula,545,3,4,1,2020-10-16,60.24429722,-151.53888840000005
Alaska,Ketchikan Gateway,56,0,0,0,2020-10-16,55.57445008,-130.975561
Alaska,Kodiak Island,46,5,0,0,2020-10-16,57.65529415,-153.7493579
Alaska,Matanuska-Susitna,796,18,3,1,2020-10-16,62.31305045,-149.5741743
Alaska,North Slope,193,13,0,0,2020-10-16,69.31479216,-153.4836093
Alaska,Northwest Arctic,195,4,0,0,2020-10-16,67.04919196,-159.7503946
Arizona,Apache,3751,9,167,0,2020-10-16,35.39465006,-109.4892383
Arizona,Cochise,2015,10,73,0,2020-10-16,31.87934684,-109.7516088
Arizona,Coconino,4643,14,147,2,2020-10-16,35.83883429,-111.7707178
Arizona,Gila,1694,61,63,1,2020-10-16,33.80190085,-110.8132779
Arizona,Graham,1007,30,26,0,2020-10-16,32.93166885,-109.8882178
Arizona,Greenlee,68,-2,2,1,2020-10-16,33.21498827,-109.2405279
Arizona,La Paz,581,4,16,0,2020-10-16,33.72854224,-113.9810029
Arizona,Maricopa,148612,460,3500,11,2020-10-16,33.34835867,-112.4918154
Arizona,Mohave,4156,18,229,1,2020-10-16,35.70471703,-113.7577902
Arizona,Navajo,6136,16,236,0,2020-10-16,35.3997715,-110.3218983
Arizona,Pima,26769,42,633,0,2020-10-16,32.0971334,-111.7890033
Arizona,Pinal,11242,39,213,0,2020-10-16,32.90525627,-111.3449483
Arizona,Santa Cruz,2936,1,64,0,2020-10-16,31.52508998,-110.8479088
Arizona,Yavapai,2753,5,86,0,2020-10-16,34.59933926,-112.5538588
Arizona,Yuma,13123,31,351,2,2020-10-16,32.76895712,-113.90666740000002
Arkansas,Arkansas,594,12,11,0,2020-10-16,34.29145151,-91.37277296
Arkansas,Ashley,495,4,12,0,2020-10-16,33.19153461,-91.7698471
Arkansas,Baxter,518,12,7,2,2020-10-16,36.28784385,-92.33782872
Arkansas,Benton,7512,67,102,0,2020-10-16,36.33644656,-94.25680817
Arkansas,Boone,940,28,27,0,2020-10-16,36.3084504,-93.09374925
Arkansas,Bradley,354,4,8,0,2020-10-16,33.46755808,-92.15980837
Arkansas,Calhoun,41,1,0,0,2020-10-16,33.55598792,-92.49974403
Arkansas,Carroll,921,14,12,0,2020-10-16,36.34038560000001,-93.54270261
Arkansas,Chicot,1027,2,22,0,2020-10-16,33.26458973,-91.29539209
Arkansas,Clark,452,4,5,0,2020-10-16,34.04613432,-93.17484713
Arkansas,Clay,413,8,11,0,2020-10-16,36.36826212,-90.4148172
Arkansas,Cleburne,410,4,14,0,2020-10-16,35.53864922,-92.02640019
Arkansas,Cleveland,199,1,12,0,2020-10-16,33.89723187,-92.18537045
Arkansas,Columbia,639,5,19,0,2020-10-16,33.21230701,-93.22642793
Arkansas,Conway,326,2,3,0,2020-10-16,35.26205537,-92.70506566
Arkansas,Craighead,3935,72,34,2,2020-10-16,35.83018283,-90.63235729
Arkansas,Crawford,1821,18,24,2,2020-10-16,35.58928601,-94.2446814
Arkansas,Crittenden,2152,21,51,0,2020-10-16,35.21247318,-90.30839406
Arkansas,Cross,532,11,20,1,2020-10-16,35.29631396,-90.77185818
Arkansas,Dallas,178,1,5,0,2020-10-16,33.97042763,-92.65167437
Arkansas,Desha,361,4,7,0,2020-10-16,33.83011025,-91.25500948
Arkansas,Drew,388,1,7,0,2020-10-16,33.59035001,-91.71777921
Arkansas,Faulkner,3071,33,27,0,2020-10-16,35.14719007,-92.33717519
Arkansas,Franklin,446,7,2,0,2020-10-16,35.51202821,-93.89299569
Arkansas,Fulton,264,7,8,0,2020-10-16,36.38177105,-91.81729127
Arkansas,Garland,2222,16,58,1,2020-10-16,34.57692074,-93.14921604
Arkansas,Grant,331,2,4,0,2020-10-16,34.29017991,-92.42320562
Arkansas,Greene,1212,17,15,0,2020-10-16,36.11735460000001,-90.55832668
Arkansas,Hempstead,492,5,5,0,2020-10-16,33.73325583,-93.66935133
Arkansas,Hot Spring,2091,5,30,0,2020-10-16,34.31709259,-92.95396325
Arkansas,Howard,536,4,13,1,2020-10-16,34.09007427,-93.9934871
Arkansas,Independence,1354,2,36,1,2020-10-16,35.74242707,-91.57001641
Arkansas,Izard,394,3,1,0,2020-10-16,36.09604046,-91.90847954
Arkansas,Jackson,591,6,5,0,2020-10-16,35.59802983,-91.21494602
Arkansas,Jefferson,3904,8,97,0,2020-10-16,34.26767081,-91.92619839
Arkansas,Johnson,933,4,8,0,2020-10-16,35.56759135,-93.46036368
Arkansas,Lafayette,146,1,3,0,2020-10-16,33.24116713,-93.60677071
Arkansas,Lawrence,700,7,14,0,2020-10-16,36.04188196,-91.10867198
Arkansas,Lee,1096,2,18,0,2020-10-16,34.78498904,-90.78383866
Arkansas,Lincoln,2180,18,17,0,2020-10-16,33.95317155,-91.74002806
Arkansas,Little River,404,0,29,0,2020-10-16,33.70375665,-94.23468591
Arkansas,Logan,531,11,2,0,2020-10-16,35.21413234,-93.71951016
Arkansas,Lonoke,1505,17,21,1,2020-10-16,34.75392199,-91.88742357
Arkansas,Madison,408,0,6,0,2020-10-16,36.01038185,-93.72524943
Arkansas,Marion,126,4,2,0,2020-10-16,36.26844485,-92.68451899
Arkansas,Miller,1146,19,15,1,2020-10-16,33.31403423,-93.89285258
Arkansas,Mississippi,1991,47,58,1,2020-10-16,35.76271485,-90.05194370000002
Arkansas,Monroe,194,4,0,0,2020-10-16,34.6815935,-91.20540287
Arkansas,Montgomery,178,1,8,0,2020-10-16,34.53704874,-93.65824478
Arkansas,Nevada,260,1,14,0,2020-10-16,33.66340119,-93.30632432
Arkansas,Newton,282,3,19,0,2020-10-16,35.91947491,-93.21612969
Arkansas,Ouachita,326,12,7,0,2020-10-16,33.58839816,-92.87795984
Arkansas,Perry,124,2,0,0,2020-10-16,34.9459153,-92.94372564
Arkansas,Phillips,671,10,15,0,2020-10-16,34.43268455,-90.84800154
Arkansas,Pike,253,0,2,-1,2020-10-16,34.16250414,-93.65789349
Arkansas,Poinsett,883,15,16,1,2020-10-16,35.57433534,-90.66268713
Arkansas,Polk,332,7,4,0,2020-10-16,34.48254879,-94.22728802
Arkansas,Pope,2511,41,36,0,2020-10-16,35.44871474,-93.03212219
Arkansas,Prairie,191,5,4,0,2020-10-16,34.83624419,-91.55162157
Arkansas,Pulaski,10954,92,193,4,2020-10-16,34.77054088,-92.31355101
Arkansas,Randolph,572,6,23,0,2020-10-16,36.3415714,-91.02455531
Arkansas,St. Francis,1643,7,9,0,2020-10-16,35.02201976,-90.74828138
Arkansas,Saline,2544,23,28,0,2020-10-16,34.64916145,-92.67583224
Arkansas,Scott,146,5,1,0,2020-10-16,34.85588887,-94.0632176
Arkansas,Searcy,173,2,1,0,2020-10-16,35.9109364,-92.69936482
Arkansas,Sebastian,4457,30,87,0,2020-10-16,35.19605503,-94.27162713
Arkansas,Sevier,1256,10,19,0,2020-10-16,33.99780401,-94.2424869
Arkansas,Sharp,293,3,9,0,2020-10-16,36.16258158,-91.47819342
Arkansas,Stone,389,-1,20,1,2020-10-16,35.86251946,-92.15684085
Arkansas,Union,1057,8,47,0,2020-10-16,33.16887091,-92.59746952
Arkansas,Van Buren,198,1,3,0,2020-10-16,35.58095779,-92.51295036
Arkansas,Washington,10748,85,131,2,2020-10-16,35.976844,-94.21800746
Arkansas,White,1248,18,32,0,2020-10-16,35.25688493,-91.74908296
Arkansas,Woodruff,82,3,0,0,2020-10-16,35.18902527,-91.2439489
Arkansas,Yell,1310,7,30,0,2020-10-16,35.00292371,-93.41171338
California,Alameda,22408,38,439,-3,2020-10-16,37.64629437,-121.8929271
California,Alpine,3,0,0,0,2020-10-16,38.59678594,-119.8223594
California,Amador,309,1,16,0,2020-10-16,38.44583082,-120.65696
California,Butte,3000,5,50,0,2020-10-16,39.66727762,-121.6005252
California,Calaveras,331,0,16,0,2020-10-16,38.20537103,-120.552913
California,Colusa,545,0,6,0,2020-10-16,39.17881957,-122.2331726
California,Contra Costa,17945,79,234,1,2020-10-16,37.91923498,-121.9289527
California,Del Norte,173,2,1,0,2020-10-16,41.74228275,-123.8974063
California,El Dorado,1271,7,4,0,2020-10-16,38.77965956,-120.5233166
California,Fresno,29727,77,429,5,2020-10-16,36.75733899,-119.6466953
California,Glenn,638,3,3,0,2020-10-16,39.59875897,-122.3938452
California,Humboldt,544,0,8,0,2020-10-16,40.69923009,-123.876044
California,Imperial,12410,37,335,0,2020-10-16,33.0393082,-115.3669042
California,Inyo,210,1,15,0,2020-10-16,36.51112084,-117.41119779999998
California,Kern,33225,80,406,0,2020-10-16,35.34329425,-118.7277796
California,Kings,8134,16,83,1,2020-10-16,36.07409056,-119.8159973
California,Lake,642,0,14,0,2020-10-16,39.10124298,-122.7536244
California,Lassen,752,0,1,0,2020-10-16,40.67311306,-120.59350990000002
California,Los Angeles,287222,1039,6855,21,2020-10-16,34.30828379,-118.2282411
California,Madera,4836,14,73,0,2020-10-16,37.21513971,-119.76655890000002
California,Marin,6966,26,124,0,2020-10-16,38.07122463,-122.7210631
California,Mariposa,78,1,2,0,2020-10-16,37.57978556,-119.9073334
California,Mendocino,1077,14,21,0,2020-10-16,39.4381191,-123.3911313
California,Merced,9302,16,152,0,2020-10-16,37.18922369,-120.7209035
California,Modoc,27,0,0,0,2020-10-16,41.58965602,-120.7244817
California,Mono,174,1,2,0,2020-10-16,37.93899289,-118.8872409
California,Monterey,10887,60,82,1,2020-10-16,36.21862405,-121.2413397
California,Napa,1842,5,14,0,2020-10-16,38.50735751,-122.332839
California,Nevada,579,3,8,0,2020-10-16,39.30394768,-120.7627281
California,Orange,56587,151,1401,10,2020-10-16,33.70147516,-117.76459979999998
California,Placer,3880,16,52,0,2020-10-16,39.06167234,-120.7240569
California,Plumas,53,0,0,0,2020-10-16,40.00355989,-120.8395236
California,Riverside,63284,159,1269,0,2020-10-16,33.74314981,-115.9933578
California,Sacramento,24102,42,464,2,2020-10-16,38.45106826,-121.3425374
California,San Benito,1396,4,14,1,2020-10-16,36.60308176,-121.069975
California,San Bernardino,59463,294,989,1,2020-10-16,34.84060306,-116.1774685
California,San Diego,51781,311,865,18,2020-10-16,33.03484597,-116.7365326
California,San Joaquin,21138,38,483,0,2020-10-16,37.93433732,-121.2730061
California,San Luis Obispo,3969,36,32,0,2020-10-16,35.38822029,-120.4039028
California,San Mateo,10687,32,157,2,2020-10-16,37.4228808,-122.32755459999998
California,Santa Barbara,9540,20,118,1,2020-10-16,34.65329488,-120.0188492
California,Santa Clara,22974,115,373,6,2020-10-16,37.23104908,-121.6970462
California,Santa Cruz,2670,37,23,0,2020-10-16,37.05580291,-122.0066524
California,Shasta,1666,26,29,1,2020-10-16,40.76391419,-122.0396884
California,Sierra,6,0,0,0,2020-10-16,39.57713498,-120.52007009999998
California,Siskiyou,183,0,0,0,2020-10-16,41.59198861,-122.5407434
California,Solano,7009,58,74,0,2020-10-16,38.26827353,-121.9357113
California,Sonoma,8717,33,129,1,2020-10-16,38.52746429,-122.8862506
California,Stanislaus,17198,38,391,2,2020-10-16,37.55862499,-120.9970722
California,Sutter,1793,8,12,0,2020-10-16,39.03417539,-121.6945899
California,Tehama,726,4,8,0,2020-10-16,40.12570935,-122.2370171
California,Trinity,20,-1,0,0,2020-10-16,40.64917670000001,-123.114713
California,Tulare,17072,57,274,1,2020-10-16,36.22026558,-118.8020203
California,Tuolumne,244,2,4,0,2020-10-16,38.02644018,-119.9525093
California,Ventura,13750,53,159,1,2020-10-16,34.44465746,-119.0910613
California,Yolo,3034,19,56,0,2020-10-16,38.68278902,-121.9018288
California,Yuba,1246,3,10,0,2020-10-16,39.26255932,-121.3535644
Colorado,Adams,11497,194,247,2,2020-10-16,39.87432092,-104.3362578
Colorado,Alamosa,272,1,9,0,2020-10-16,37.57250606,-105.7885451
Colorado,Arapahoe,10911,128,376,0,2020-10-16,39.64977461,-104.3353617
Colorado,Archuleta,58,0,0,0,2020-10-16,37.19474156,-107.0476867
Colorado,Baca,23,0,0,0,2020-10-16,37.31940883,-102.5603223
Colorado,Bent,12,0,0,0,2020-10-16,37.95474293,-103.0720195
Colorado,Boulder,4931,40,84,2,2020-10-16,40.09313619,-105.3546767
Colorado,Chaffee,359,1,20,0,2020-10-16,38.74745778,-106.19265729999998
Colorado,Cheyenne,14,0,0,0,2020-10-16,38.82777431,-102.6032558
Colorado,Clear Creek,61,0,1,0,2020-10-16,39.68864463,-105.6463118
Colorado,Conejos,48,4,0,0,2020-10-16,37.201606,-106.19174879999998
Colorado,Costilla,34,0,1,0,2020-10-16,37.27732493,-105.4276548
Colorado,Crowley,80,2,1,0,2020-10-16,38.32608609,-103.7844965
Colorado,Custer,19,0,0,0,2020-10-16,38.10883162,-105.3683478
Colorado,Delta,195,1,4,0,2020-10-16,38.86246243,-107.8631342
Colorado,Dolores,3,0,0,0,2020-10-16,37.75208676,-108.5211585
Colorado,Douglas,3227,43,63,0,2020-10-16,39.33133796,-104.930001
Colorado,Eagle,1338,3,10,0,2020-10-16,39.62754308,-106.6933637
Colorado,Elbert,179,2,3,0,2020-10-16,39.28656773,-104.1358721
Colorado,El Paso,8193,129,187,0,2020-10-16,38.83240149,-104.5251411
Colorado,Fremont,453,143,1,0,2020-10-16,38.47362326,-105.4399667
Colorado,Garfield,1053,6,5,0,2020-10-16,39.59921777,-107.902708
Colorado,Gilpin,21,0,0,0,2020-10-16,39.85646523,-105.5252597
Colorado,Grand,127,4,1,0,2020-10-16,40.10603347,-106.1178042
Colorado,Gunnison,296,0,7,0,2020-10-16,38.66611652,-107.0320729
Colorado,Hinsdale,3,0,0,0,2020-10-16,37.82247444,-107.3004345
Colorado,Huerfano,28,1,2,0,2020-10-16,37.68473101,-104.9612585
Colorado,Jackson,9,0,0,0,2020-10-16,40.66593870000001,-106.3408905
Colorado,Jefferson,6991,104,298,2,2020-10-16,39.58635604,-105.2517692
Colorado,Kiowa,2,0,0,0,2020-10-16,38.43260896,-102.7392145
Colorado,Kit Carson,98,0,3,0,2020-10-16,39.30497777,-102.6022199
Colorado,Lake,116,2,0,0,2020-10-16,39.20278823,-106.3555697
Colorado,La Plata,318,13,2,0,2020-10-16,37.28632032,-107.8429014
Colorado,Larimer,3390,63,55,0,2020-10-16,40.66671597,-105.4625784
Colorado,Las Animas,33,2,1,1,2020-10-16,37.3153406,-104.0376458
Colorado,Lincoln,24,0,0,0,2020-10-16,38.98749519,-103.5136649
Colorado,Logan,1051,13,10,0,2020-10-16,40.7249637,-103.110817
Colorado,Mesa,956,109,8,0,2020-10-16,39.01787888,-108.469799
Colorado,Mineral,21,0,0,0,2020-10-16,37.66954283,-106.9281698
Colorado,Moffat,49,0,1,0,2020-10-16,40.61810999,-108.2070876
Colorado,Montezuma,173,0,5,0,2020-10-16,37.33859579,-108.5958857
Colorado,Montrose,412,0,13,0,2020-10-16,38.40214114,-108.26390220000002
Colorado,Morgan,804,4,48,0,2020-10-16,40.26279810000001,-103.8093302
Colorado,Otero,114,0,6,0,2020-10-16,37.9014485,-103.7173385
Colorado,Ouray,32,0,1,0,2020-10-16,38.14717457,-107.7675136
Colorado,Park,69,4,1,0,2020-10-16,39.120926,-105.7182065
Colorado,Phillips,36,1,0,0,2020-10-16,40.59414277,-102.3577703
Colorado,Pitkin,255,2,2,0,2020-10-16,39.21720112,-106.9310027
Colorado,Prowers,104,2,0,0,2020-10-16,37.95544985,-102.3926052
Colorado,Pueblo,1514,22,40,1,2020-10-16,38.17359144,-104.5127437
Colorado,Rio Blanco,25,0,0,0,2020-10-16,39.97913541,-108.2179009
Colorado,Rio Grande,112,0,2,0,2020-10-16,37.5836865,-106.3847838
Colorado,Routt,180,5,8,0,2020-10-16,40.48596505,-106.9905548
Colorado,Saguache,118,1,2,0,2020-10-16,38.08054629,-106.282466
Colorado,San Juan,6,0,0,0,2020-10-16,37.76248981,-107.67632890000002
Colorado,San Miguel,99,0,0,0,2020-10-16,38.00450883,-108.4020725
Colorado,Sedgwick,16,0,1,0,2020-10-16,40.87595412,-102.3519227
Colorado,Summit,540,4,4,0,2020-10-16,39.63803232,-106.1150762
Colorado,Teller,187,1,4,0,2020-10-16,38.88133511,-105.1614893
Colorado,Washington,78,1,0,0,2020-10-16,39.97015535,-103.202587
Colorado,Weld,5307,43,155,0,2020-10-16,40.55499405,-104.3929621
Colorado,Yuma,176,3,1,0,2020-10-16,40.00346839,-102.4258673
Connecticut,Fairfield,21368,185,1427,0,2020-10-16,41.26809896,-73.3881171
Connecticut,Hartford,16273,215,1445,0,2020-10-16,41.80283011,-72.73103891
Connecticut,Litchfield,1991,32,143,0,2020-10-16,41.7937534,-73.2451475
Connecticut,Middlesex,1754,21,194,1,2020-10-16,41.45949668,-72.53714864
Connecticut,New Haven,15455,145,1119,0,2020-10-16,41.4080325,-72.93620426
Connecticut,New London,3083,159,130,1,2020-10-16,41.48896435,-72.10430976
Connecticut,Tolland,1565,26,67,0,2020-10-16,41.85853803,-72.3308481
Connecticut,Windham,1216,23,17,0,2020-10-16,41.82972709,-71.98182316
Delaware,Kent,3285,13,119,0,2020-10-16,39.08646628,-75.56884914
Delaware,New Castle,11958,107,330,0,2020-10-16,39.57992638,-75.64054974
Delaware,Sussex,7390,44,213,1,2020-10-16,38.66143781,-75.39031349
Florida,Alachua,9307,117,70,0,2020-10-16,29.67866525,-82.35928158
Florida,Baker,1672,17,17,0,2020-10-16,30.33060121,-82.28467476
Florida,Bay,6408,14,125,0,2020-10-16,30.26548745,-85.62122584
Florida,Bradford,1197,3,11,0,2020-10-16,29.95079741,-82.16611613
Florida,Brevard,10268,85,342,5,2020-10-16,28.29409504,-80.73091022
Florida,Broward,80443,331,1500,8,2020-10-16,26.15184651,-80.48725556
Florida,Calhoun,663,5,14,0,2020-10-16,30.40666734,-85.19394153
Florida,Charlotte,3332,16,152,1,2020-10-16,26.90131002,-81.92949121
Florida,Citrus,3000,12,125,1,2020-10-16,28.84804315,-82.47614748
Florida,Clay,5627,31,114,1,2020-10-16,29.98319144,-81.85609986
Florida,Collier,13492,60,243,1,2020-10-16,26.11091986,-81.34687065
Florida,Columbia,4083,32,70,0,2020-10-16,30.22509788,-82.62160164
Florida,DeSoto,1612,3,27,0,2020-10-16,27.18677893,-81.80941373
Florida,Dixie,863,1,11,0,2020-10-16,29.60631086,-83.15724673
Florida,Duval,32625,136,505,5,2020-10-16,30.33225875,-81.66976468
Florida,Escambia,12883,46,268,1,2020-10-16,30.67652764,-87.37284571
Florida,Flagler,1927,23,35,2,2020-10-16,29.45933576,-81.31508595
Florida,Franklin,687,1,4,0,2020-10-16,29.83791238,-84.82731662
Florida,Gadsden,3015,10,51,0,2020-10-16,30.57796289,-84.61915825
Florida,Gilchrist,540,2,17,0,2020-10-16,29.72856978,-82.79880657
Florida,Glades,587,3,6,0,2020-10-16,26.95635849,-81.18996211
Florida,Gulf,920,3,15,0,2020-10-16,29.93543004,-85.24270990000002
Florida,Hamilton,888,0,9,0,2020-10-16,30.49673973,-82.94998918
Florida,Hardee,1519,15,11,0,2020-10-16,27.49293939,-81.80956574
Florida,Hendry,2143,6,43,0,2020-10-16,26.55386945,-81.16469006
Florida,Hernando,3385,26,153,2,2020-10-16,28.55364461,-82.42700204
Florida,Highlands,2416,10,101,1,2020-10-16,27.34254618,-81.34071957
Florida,Hillsborough,44999,188,738,4,2020-10-16,27.9276559,-82.32013172
Florida,Holmes,818,6,10,0,2020-10-16,30.86747479,-85.81319222
Florida,Indian River,3495,19,122,1,2020-10-16,27.69308961,-80.60556721
Florida,Jackson,3018,18,83,0,2020-10-16,30.7954597,-85.21500423
Florida,Jefferson,611,3,9,0,2020-10-16,30.43669112,-83.89442308
Florida,Lafayette,1258,4,15,-1,2020-10-16,29.98484137,-83.18166636
Florida,Lake,8083,36,214,3,2020-10-16,28.76202069,-81.7125123
Florida,Lee,21753,140,492,3,2020-10-16,26.58410348,-81.88399313
Florida,Leon,11564,81,97,1,2020-10-16,30.45955727,-84.27491114
Florida,Levy,1096,4,10,0,2020-10-16,29.31829741,-82.74007147
Florida,Liberty,521,1,10,0,2020-10-16,30.23766008,-84.8829258
Florida,Madison,1052,3,24,0,2020-10-16,30.44396917,-83.47398594
Florida,Manatee,12365,61,317,1,2020-10-16,27.47196942,-82.31831044
Florida,Marion,10345,44,335,1,2020-10-16,29.21227113,-82.05803627
Florida,Martin,5137,22,153,0,2020-10-16,27.0772071,-80.43109784
Florida,Miami-Dade,177339,530,3520,19,2020-10-16,25.6112362,-80.55170587
Florida,Monroe,2022,20,24,0,2020-10-16,25.20904673,-81.07812416
Florida,Nassau,2319,10,50,0,2020-10-16,30.61037141,-81.80297522
Florida,Okaloosa,5706,61,127,0,2020-10-16,30.69143028,-86.59267105
Florida,Okeechobee,1660,2,37,0,2020-10-16,27.386336199999995,-80.88944347
Florida,Orange,43044,266,528,0,2020-10-16,28.51367621,-81.31799498
Florida,Osceola,13356,43,178,0,2020-10-16,28.06312234,-81.14882926
Florida,Palm Beach,48674,178,1478,6,2020-10-16,26.64676272,-80.46536002
Florida,Pasco,10089,35,222,1,2020-10-16,28.30810945,-82.40227529
Florida,Pinellas,23746,123,793,1,2020-10-16,27.93130349,-82.72239666
Florida,Polk,21572,116,578,9,2020-10-16,27.95027105,-81.69732947
Florida,Putnam,2253,13,47,1,2020-10-16,29.60779729,-81.74230285
Florida,St. Johns,5900,38,78,0,2020-10-16,29.90096506,-81.43589967
Florida,St. Lucie,8521,35,315,4,2020-10-16,27.37763908,-80.47106649
Florida,Santa Rosa,5667,28,85,1,2020-10-16,30.693414500000006,-87.02458128
Florida,Sarasota,8908,67,307,6,2020-10-16,27.18546175,-82.33174248
Florida,Seminole,9605,44,234,1,2020-10-16,28.7158582,-81.24060348
Florida,Sumter,2731,15,79,1,2020-10-16,28.70181754,-82.0794267
Florida,Suwannee,2895,24,76,0,2020-10-16,30.19746066,-82.99099670000003
Florida,Taylor,1414,6,15,1,2020-10-16,30.04848048,-83.60445406
Florida,Union,1066,8,27,1,2020-10-16,30.04412971,-82.37497443
Florida,Volusia,11819,80,300,1,2020-10-16,29.05858895,-81.18263252
Florida,Wakulla,1233,14,11,0,2020-10-16,30.16548905,-84.39895211
Florida,Walton,2182,17,29,0,2020-10-16,30.64204028,-86.16935664
Florida,Washington,1151,17,24,0,2020-10-16,30.61359259,-85.66002461
Georgia,Appling,1123,6,34,0,2020-10-16,31.74847232,-82.28909114
Georgia,Atkinson,471,-1,4,0,2020-10-16,31.29633502,-82.87545866
Georgia,Bacon,623,5,14,0,2020-10-16,31.55456473,-82.45936528
Georgia,Baker,86,0,6,0,2020-10-16,31.32669878,-84.44218806
Georgia,Baldwin,2231,6,62,0,2020-10-16,33.06882326,-83.24701748
Georgia,Banks,534,6,8,0,2020-10-16,34.35607081,-83.49644388
Georgia,Barrow,2453,18,47,0,2020-10-16,33.99148694,-83.71436292
Georgia,Bartow,3284,27,92,1,2020-10-16,34.23732119,-84.83887523
Georgia,Ben Hill,840,1,30,1,2020-10-16,31.76095874,-83.22145359
Georgia,Berrien,477,4,12,0,2020-10-16,31.27590016,-83.22529920000002
Georgia,Bibb,6424,26,186,-1,2020-10-16,32.80904227,-83.70489165
Georgia,Bleckley,491,14,21,0,2020-10-16,32.43829035,-83.33035166
Georgia,Brantley,396,13,11,0,2020-10-16,31.19576557,-81.97743999
Georgia,Brooks,541,5,26,0,2020-10-16,30.83922642,-83.58303423
Georgia,Bryan,1247,10,13,0,2020-10-16,32.00979311,-81.44002948
Georgia,Bulloch,2996,9,32,0,2020-10-16,32.39577406,-81.74811421
Georgia,Burke,867,0,11,0,2020-10-16,33.05917989,-81.99928721
Georgia,Butts,713,1,43,0,2020-10-16,33.283094500000004,-83.95435040000002
Georgia,Calhoun,261,1,9,0,2020-10-16,31.53169785,-84.62725131
Georgia,Camden,1377,8,16,0,2020-10-16,30.92951916,-81.66601818
Georgia,Candler,513,4,24,1,2020-10-16,32.40209349,-82.07702563
Georgia,Carroll,3126,48,74,0,2020-10-16,33.58138199,-85.07976677
Georgia,Catoosa,1328,14,20,1,2020-10-16,34.89872298,-85.13757014
Georgia,Charlton,642,-2,10,1,2020-10-16,30.78371028,-82.13951596
Georgia,Chatham,9042,58,181,3,2020-10-16,32.00043026,-81.12489526
Georgia,Chattahoochee,1718,0,1,0,2020-10-16,32.34341231,-84.78809239
Georgia,Chattooga,865,2,27,1,2020-10-16,34.47197698,-85.34535662
Georgia,Cherokee,6680,55,100,2,2020-10-16,34.24393976,-84.47431861
Georgia,Clarke,5517,40,46,0,2020-10-16,33.95436462,-83.37124007
Georgia,Clay,122,0,3,0,2020-10-16,31.62221166,-84.97713865
Georgia,Clayton,7754,68,171,1,2020-10-16,33.54187245,-84.35594188
Georgia,Clinch,419,2,11,0,2020-10-16,30.91395822,-82.70432472
Georgia,Cobb,21041,117,446,2,2020-10-16,33.94243204,-84.5761255
Georgia,Coffee,2181,12,57,0,2020-10-16,31.54892966,-82.85492059999999
Georgia,Colquitt,2050,33,37,0,2020-10-16,31.18810588,-83.7677946
Georgia,Columbia,4114,44,63,1,2020-10-16,33.54534185,-82.263524
Georgia,Cook,569,0,15,0,2020-10-16,31.16068491,-83.42947229
Georgia,Coweta,2833,26,60,2,2020-10-16,33.35334302,-84.76129976
Georgia,Crawford,188,2,6,0,2020-10-16,32.71391813,-83.98061238
Georgia,Crisp,627,14,22,2,2020-10-16,31.92289565,-83.76811843
Georgia,Dade,321,5,5,0,2020-10-16,34.854916700000004,-85.50490424
Georgia,Dawson,879,1,10,0,2020-10-16,34.44244079,-84.16964071
Georgia,Decatur,1253,5,34,0,2020-10-16,30.87967778,-84.57619536
Georgia,DeKalb,20088,119,387,3,2020-10-16,33.76944049,-84.22396017
Georgia,Dodge,517,18,13,0,2020-10-16,32.17265114,-83.16948926
Georgia,Dooly,355,3,14,0,2020-10-16,32.15630737,-83.79746561
Georgia,Dougherty,3251,6,190,1,2020-10-16,31.53328528,-84.21722377
Georgia,Douglas,3911,15,71,0,2020-10-16,33.70291126,-84.77026156
Georgia,Early,523,3,33,0,2020-10-16,31.32155345,-84.90255207
Georgia,Echols,244,0,2,0,2020-10-16,30.71101099,-82.89687287
Georgia,Effingham,1654,17,28,0,2020-10-16,32.36616021,-81.34280942
Georgia,Elbert,736,3,8,0,2020-10-16,34.11302332,-82.83936148
Georgia,Emanuel,1148,3,36,1,2020-10-16,32.59221302,-82.30239915
Georgia,Evans,457,7,6,0,2020-10-16,32.15328841,-81.8870105
Georgia,Fannin,768,8,28,0,2020-10-16,34.86430205,-84.316964
Georgia,Fayette,2012,7,52,0,2020-10-16,33.41357794,-84.49089434
Georgia,Floyd,3553,34,53,2,2020-10-16,34.26268279,-85.21577392
Georgia,Forsyth,4502,36,50,2,2020-10-16,34.22604035,-84.12315129999998
Georgia,Franklin,828,8,16,0,2020-10-16,34.37525597,-83.23159927
Georgia,Fulton,29562,133,603,4,2020-10-16,33.79216944,-84.46319413
Georgia,Gilmer,958,6,17,1,2020-10-16,34.69316688,-84.45802506
Georgia,Glascock,40,0,2,0,2020-10-16,33.22879932,-82.61297636
Georgia,Glynn,3604,14,99,0,2020-10-16,31.23279254,-81.53811412
Georgia,Gordon,2092,26,39,0,2020-10-16,34.50487351,-84.87296253
Georgia,Grady,838,4,25,2,2020-10-16,30.87454847,-84.23418364
Georgia,Greene,550,3,25,1,2020-10-16,33.5769205,-83.17139104
Georgia,Gwinnett,29418,123,429,1,2020-10-16,33.96044201,-84.02137802
Georgia,Habersham,1819,11,74,2,2020-10-16,34.63331566,-83.53094677
Georgia,Hall,10233,70,165,1,2020-10-16,34.32207823,-83.81896936
Georgia,Hancock,410,0,44,0,2020-10-16,33.2721566,-82.99766919
Georgia,Haralson,576,6,10,1,2020-10-16,33.79602175,-85.21005667
Georgia,Harris,833,1,25,0,2020-10-16,32.73709786,-84.90538572
Georgia,Hart,554,3,16,0,2020-10-16,34.34626973,-82.96567682
Georgia,Heard,207,2,6,0,2020-10-16,33.29686567,-85.12886832
Georgia,Henry,5816,46,109,3,2020-10-16,33.4533428,-84.14814659999998
Georgia,Houston,3392,23,86,0,2020-10-16,32.45802497,-83.66879087
Georgia,Irwin,345,2,6,0,2020-10-16,31.60213036,-83.27501387
Georgia,Jackson,2231,31,39,0,2020-10-16,34.13794553,-83.56814788
Georgia,Jasper,242,2,4,0,2020-10-16,33.31535543,-83.68844964
Georgia,Jeff Davis,770,6,22,0,2020-10-16,31.80405727,-82.63724870000001
Georgia,Jefferson,831,2,32,1,2020-10-16,33.05867328,-82.41609057
Georgia,Jenkins,460,0,32,1,2020-10-16,32.79248718,-81.96040187
Georgia,Johnson,436,0,22,0,2020-10-16,32.70211082,-82.66166794
Georgia,Jones,620,1,13,0,2020-10-16,33.02512137,-83.56019163
Georgia,Lamar,394,1,19,0,2020-10-16,33.07841647,-84.14263877
Georgia,Lanier,311,1,7,0,2020-10-16,31.038285700000007,-83.06472457
Georgia,Laurens,1890,11,85,3,2020-10-16,32.46325233,-82.92221316
Georgia,Lee,734,3,26,0,2020-10-16,31.779330600000005,-84.14324253
Georgia,Liberty,1183,7,24,0,2020-10-16,31.82588896,-81.49251135
Georgia,Lincoln,221,1,7,0,2020-10-16,33.79201475,-82.45024131
Georgia,Long,268,-1,4,0,2020-10-16,31.75218791,-81.74952375
Georgia,Lowndes,4258,38,85,0,2020-10-16,30.83568832,-83.27056716
Georgia,Lumpkin,1002,7,14,0,2020-10-16,34.57286511,-84.00425681
Georgia,McDuffie,657,4,15,1,2020-10-16,33.47851918,-82.48252774
Georgia,McIntosh,300,0,7,0,2020-10-16,31.49683595,-81.40163426
Georgia,Macon,241,1,10,0,2020-10-16,32.35207048,-84.04234127
Georgia,Madison,750,5,11,0,2020-10-16,34.12920917,-83.21218732
Georgia,Marion,195,0,9,0,2020-10-16,32.3483402,-84.52733571
Georgia,Meriwether,569,0,14,0,2020-10-16,33.04163534,-84.68859732
Georgia,Miller,295,0,2,0,2020-10-16,31.16568912,-84.73151117
Georgia,Mitchell,843,2,45,-1,2020-10-16,31.22483255,-84.19381821
Georgia,Monroe,735,-1,55,1,2020-10-16,33.014289,-83.92097166
Georgia,Montgomery,353,2,7,0,2020-10-16,32.17201038,-82.53527476
Georgia,Morgan,513,3,4,0,2020-10-16,33.59232073,-83.49129491
Georgia,Murray,934,15,8,0,2020-10-16,34.78897608,-84.74993177
Georgia,Muscogee,6244,7,173,0,2020-10-16,32.50931999,-84.87142262
Georgia,Newton,2762,12,93,0,2020-10-16,33.55514538,-83.84547140000002
Georgia,Oconee,817,4,27,0,2020-10-16,33.83749973,-83.43679568
Georgia,Oglethorpe,387,2,11,0,2020-10-16,33.878629600000004,-83.08278123
Georgia,Paulding,2993,6,59,0,2020-10-16,33.91969522,-84.86848792
Georgia,Peach,729,3,24,0,2020-10-16,32.56934316,-83.82937
Georgia,Pickens,677,4,9,0,2020-10-16,34.46589159,-84.46406611
Georgia,Pierce,641,2,24,1,2020-10-16,31.35928155,-82.21598442
Georgia,Pike,372,2,11,0,2020-10-16,33.09310242,-84.38790389
Georgia,Polk,1597,13,25,1,2020-10-16,34.00267074,-85.18677781
Georgia,Pulaski,324,1,22,0,2020-10-16,32.23334561,-83.47549959999998
Georgia,Putnam,761,6,27,0,2020-10-16,33.32056115,-83.37552891
Georgia,Quitman,38,0,1,0,2020-10-16,31.86728114,-85.01773177
Georgia,Rabun,408,4,11,0,2020-10-16,34.88389445,-83.40304637
Georgia,Randolph,338,0,29,0,2020-10-16,31.76622818,-84.75732369
Georgia,Richmond,7652,42,173,0,2020-10-16,33.35777107,-82.07026432
Georgia,Rockdale,2003,20,40,0,2020-10-16,33.65145002,-84.02202167
Georgia,Schley,108,0,2,0,2020-10-16,32.2654021,-84.31258912
Georgia,Screven,440,3,11,0,2020-10-16,32.74976524,-81.60779441
Georgia,Seminole,379,0,11,1,2020-10-16,30.93464824,-84.86823924
Georgia,Spalding,1463,8,62,0,2020-10-16,33.26310031,-84.28013991
Georgia,Stephens,1231,7,42,0,2020-10-16,34.55151201,-83.29405315
Georgia,Stewart,525,1,16,0,2020-10-16,32.07996777,-84.83208037
Georgia,Sumter,953,2,68,2,2020-10-16,32.03650571,-84.19821492
Georgia,Talbot,167,0,7,0,2020-10-16,32.69642758,-84.53351366
Georgia,Taliaferro,25,0,0,0,2020-10-16,33.56543317,-82.88136816
Georgia,Tattnall,888,9,13,1,2020-10-16,32.04785085,-82.05539188
Georgia,Taylor,224,0,12,0,2020-10-16,32.55792548,-84.25077141
Georgia,Telfair,429,9,22,0,2020-10-16,31.92829517,-82.93491155
Georgia,Terrell,335,-1,32,0,2020-10-16,31.77527543,-84.44069698
Georgia,Thomas,1567,9,69,1,2020-10-16,30.86392347,-83.91847289
Georgia,Tift,1893,5,60,0,2020-10-16,31.45743864,-83.5236119
Georgia,Toombs,1433,2,56,1,2020-10-16,32.12059861,-82.32957247
Georgia,Towns,402,4,11,1,2020-10-16,34.91369188,-83.74107459999998
Georgia,Treutlen,289,4,11,0,2020-10-16,32.40422134,-82.56904553
Georgia,Troup,2954,7,104,0,2020-10-16,33.03349196,-85.02812115
Georgia,Turner,330,0,24,0,2020-10-16,31.71612656,-83.62069378
Georgia,Twiggs,209,3,9,0,2020-10-16,32.67435595,-83.43078662
Georgia,Union,852,2,23,0,2020-10-16,34.82995757,-83.98967069
Georgia,Upson,826,-2,68,0,2020-10-16,32.87920671,-84.30024826
Georgia,Walker,1725,7,42,0,2020-10-16,34.73376362,-85.30165174
Georgia,Walton,2022,14,64,0,2020-10-16,33.78017694,-83.73552314
Georgia,Ware,1634,10,62,1,2020-10-16,31.05449097,-82.42224148
Georgia,Warren,163,0,5,0,2020-10-16,33.41146451,-82.67795848
Georgia,Washington,722,3,11,0,2020-10-16,32.96711864,-82.79357039
Georgia,Wayne,1193,2,29,0,2020-10-16,31.5521809,-81.91894878
Georgia,Webster,44,0,2,0,2020-10-16,32.04066113,-84.54742852
Georgia,Wheeler,360,4,14,1,2020-10-16,32.12009104,-82.72574721
Georgia,White,976,3,22,0,2020-10-16,34.64624278,-83.74905525
Georgia,Whitfield,5027,34,63,0,2020-10-16,34.80987459,-84.96093476
Georgia,Wilcox,251,0,25,0,2020-10-16,31.97496928,-83.43438555
Georgia,Wilkes,277,4,6,0,2020-10-16,33.78290391,-82.74286107
Georgia,Wilkinson,359,0,18,0,2020-10-16,32.80291082,-83.17140684
Georgia,Worth,584,3,32,0,2020-10-16,31.55162306,-83.85090513
Idaho,Ada,14913,86,156,0,2020-10-16,43.4526575,-116.24155159999998
Idaho,Adams,32,1,2,0,2020-10-16,44.89333571,-116.4545247
Idaho,Bannock,1708,155,9,1,2020-10-16,42.67002716,-112.2233311
Idaho,Bear Lake,57,4,1,0,2020-10-16,42.28269683,-111.32892379999998
Idaho,Benewah,164,2,3,0,2020-10-16,47.21754179,-116.6586851
Idaho,Bingham,1267,70,11,1,2020-10-16,43.21672879999999,-112.3978437
Idaho,Blaine,803,15,6,0,2020-10-16,43.4085812,-113.9752658
Idaho,Boise,74,0,2,0,2020-10-16,43.98829931,-115.7309284
Idaho,Bonner,427,9,1,0,2020-10-16,48.29996017,-116.6017932
Idaho,Bonneville,3685,73,22,0,2020-10-16,43.38713372,-111.6161537
Idaho,Boundary,89,11,1,0,2020-10-16,48.76684761,-116.4630179
Idaho,Butte,71,9,0,0,2020-10-16,43.72592209,-113.1735463
Idaho,Camas,38,0,0,0,2020-10-16,43.46665742,-114.8065892
Idaho,Canyon,9102,75,105,1,2020-10-16,43.61970148,-116.7095499
Idaho,Caribou,182,21,3,1,2020-10-16,42.77149116,-111.5597683
Idaho,Cassia,1070,39,8,0,2020-10-16,42.28347888,-113.6012409
Idaho,Clark,40,0,0,0,2020-10-16,44.28496071,-112.3505704
Idaho,Clearwater,120,8,0,0,2020-10-16,46.67459924,-115.6622393
Idaho,Custer,92,2,1,0,2020-10-16,44.24186819,-114.2855494
Idaho,Elmore,440,3,4,0,2020-10-16,43.3507101,-115.4701578
Idaho,Franklin,237,29,1,0,2020-10-16,42.18332217,-111.8149666
Idaho,Fremont,338,9,3,0,2020-10-16,44.22800938,-111.4809943
Idaho,Gem,384,4,4,0,2020-10-16,44.06482372,-116.398376
Idaho,Gooding,432,19,2,0,2020-10-16,42.96927962,-114.8108306
Idaho,Idaho,287,16,0,0,2020-10-16,45.84721541,-115.4634436
Idaho,Jefferson,814,16,3,0,2020-10-16,43.82078483,-112.3131749
Idaho,Jerome,944,14,7,0,2020-10-16,42.68891267,-114.2655033
Idaho,Kootenai,3277,60,46,1,2020-10-16,47.67282258,-116.7020872
Idaho,Latah,806,31,0,0,2020-10-16,46.81587887,-116.7113698
Idaho,Lemhi,165,6,0,0,2020-10-16,44.9438088,-113.9309747
Idaho,Lewis,64,3,2,0,2020-10-16,46.23315327,-116.434146
Idaho,Lincoln,130,6,0,0,2020-10-16,43.0012336,-114.1358773
Idaho,Madison,1838,80,2,0,2020-10-16,43.78141028,-111.65384740000002
Idaho,Minidoka,996,55,8,0,2020-10-16,42.85518524,-113.6357257
Idaho,Nez Perce,612,24,24,0,2020-10-16,46.32638236,-116.7500975
Idaho,Oneida,31,2,0,0,2020-10-16,42.19494279999999,-112.5407838
Idaho,Owyhee,364,1,5,0,2020-10-16,42.58016894,-116.1693871
Idaho,Payette,1052,14,10,0,2020-10-16,44.00545243,-116.7647695
Idaho,Power,328,16,1,0,2020-10-16,42.69254894,-112.83957420000002
Idaho,Shoshone,229,3,19,0,2020-10-16,47.35364087,-115.8916749
Idaho,Teton,252,4,1,0,2020-10-16,43.75303583,-111.2056773
Idaho,Twin Falls,3220,95,42,1,2020-10-16,42.35440512,-114.6685381
Idaho,Valley,107,0,1,0,2020-10-16,44.76728382,-115.5676773
Idaho,Washington,419,5,7,0,2020-10-16,44.45275475,-116.7847688
Illinois,Adams,1525,37,14,0,2020-10-16,39.98815591,-91.18786813
Illinois,Alexander,105,0,1,0,2020-10-16,37.18049267,-89.32910838
Illinois,Bond,432,15,9,0,2020-10-16,38.88829622,-89.43534887
Illinois,Boone,1562,35,24,0,2020-10-16,42.32359279,-88.82345779
Illinois,Brown,94,7,0,0,2020-10-16,39.96209138,-90.75068024
Illinois,Bureau,827,6,16,0,2020-10-16,41.40385234,-89.5283051
Illinois,Calhoun,67,1,0,0,2020-10-16,39.16840183,-90.66330078
Illinois,Carroll,336,8,7,0,2020-10-16,42.06823429,-89.93395545
Illinois,Cass,445,3,11,0,2020-10-16,39.96991073,-90.24734436
Illinois,Champaign,5596,37,28,0,2020-10-16,40.13919438,-88.20046615
Illinois,Christian,747,8,25,2,2020-10-16,39.54581621,-89.27780482
Illinois,Clark,247,6,6,0,2020-10-16,39.33425789,-87.78705622
Illinois,Clay,268,6,11,2,2020-10-16,38.75388572,-88.48914513
Illinois,Clinton,1515,35,23,0,2020-10-16,38.60704876,-89.42385254
Illinois,Coles,1730,36,38,0,2020-10-16,39.51949084,-88.22358557
Illinois,Cook,160645,1610,5339,7,2020-10-16,41.84144849,-87.81658794
Illinois,Crawford,608,4,6,0,2020-10-16,39.0032229,-87.75954624
Illinois,Cumberland,246,2,5,0,2020-10-16,39.27432424,-88.2401158
Illinois,DeKalb,2006,22,42,0,2020-10-16,41.89373302,-88.76958483
Illinois,De Witt,219,0,3,0,2020-10-16,40.17514519,-88.90959682
Illinois,Douglas,470,23,8,0,2020-10-16,39.76768052,-88.21854195
Illinois,DuPage,20277,310,595,3,2020-10-16,41.85116968,-88.08642662
Illinois,Edgar,136,1,8,0,2020-10-16,39.6809186,-87.74759563
Illinois,Edwards,93,6,0,0,2020-10-16,38.41353228,-88.05720863
Illinois,Effingham,1044,16,3,0,2020-10-16,39.05935711,-88.58969584
Illinois,Fayette,597,8,17,1,2020-10-16,39.00072038,-89.02452658
Illinois,Ford,162,0,9,2,2020-10-16,40.59706922,-88.22350769
Illinois,Franklin,801,22,6,0,2020-10-16,37.99189086,-88.92567818
Illinois,Fulton,364,20,0,0,2020-10-16,40.47289135,-90.20862357
Illinois,Gallatin,101,1,2,0,2020-10-16,37.76430935,-88.22953869
Illinois,Greene,260,7,15,0,2020-10-16,39.35907414,-90.388865
Illinois,Grundy,838,18,7,0,2020-10-16,41.28569601,-88.41905692
Illinois,Hamilton,103,2,2,0,2020-10-16,38.08163641,-88.53883373
Illinois,Hancock,270,6,3,0,2020-10-16,40.40423981,-91.16313899
Illinois,Hardin,49,1,0,0,2020-10-16,37.51810645,-88.26873022
Illinois,Henderson,95,2,0,0,2020-10-16,40.81908672,-90.92491462
Illinois,Henry,785,10,5,0,2020-10-16,41.3533994,-90.13296166
Illinois,Iroquois,439,3,19,0,2020-10-16,40.74717633,-87.82466784
Illinois,Jackson,1410,18,25,0,2020-10-16,37.78595185,-89.38232563
Illinois,Jasper,237,3,10,0,2020-10-16,39.01054275,-88.15437049
Illinois,Jefferson,840,6,43,2,2020-10-16,38.29980057,-88.9240025
Illinois,Jersey,446,8,21,0,2020-10-16,39.08869046,-90.35393073
Illinois,Jo Daviess,392,11,5,2,2020-10-16,42.36542373,-90.21094405
Illinois,Johnson,298,9,0,0,2020-10-16,37.45939802,-88.88165419
Illinois,Kane,14925,223,338,0,2020-10-16,41.93842729,-88.42861412
Illinois,Kankakee,3089,38,78,0,2020-10-16,41.13746989,-87.86205334
Illinois,Kendall,2382,33,27,0,2020-10-16,41.59081014,-88.42869583
Illinois,Knox,1029,47,9,0,2020-10-16,40.93148779,-90.21330340000002
Illinois,Lake,19077,218,501,2,2020-10-16,42.3224907,-88.00367925
Illinois,LaSalle,2100,31,58,0,2020-10-16,41.34426129999999,-88.88633881
Illinois,Lawrence,302,6,8,1,2020-10-16,38.71987914,-87.72884035
Illinois,Lee,562,13,1,0,2020-10-16,41.74583951,-89.29977132
Illinois,Livingston,517,18,9,0,2020-10-16,40.89188292,-88.55784752
Illinois,Logan,526,1,4,0,2020-10-16,40.12581572,-89.36638784
Illinois,McDonough,621,23,15,0,2020-10-16,40.45674722,-90.67775541
Illinois,McHenry,5396,86,120,1,2020-10-16,42.32451172,-88.45248227
Illinois,McLean,3815,36,30,0,2020-10-16,40.48996987,-88.84621113
Illinois,Macon,2371,98,48,0,2020-10-16,39.86064913,-88.96342505
Illinois,Macoupin,703,18,8,0,2020-10-16,39.26119767,-89.92424028
Illinois,Madison,6650,85,152,2,2020-10-16,38.83042506,-89.90422563
Illinois,Marion,814,7,11,0,2020-10-16,38.64963204,-88.91899208
Illinois,Marshall,132,3,3,0,2020-10-16,41.0327901,-89.34510444
Illinois,Mason,225,8,1,0,2020-10-16,40.23917274,-89.91824452
Illinois,Massac,136,1,2,0,2020-10-16,37.22078441,-88.71036614
Illinois,Menard,156,4,1,0,2020-10-16,40.02742725,-89.80246001
Illinois,Mercer,205,10,6,0,2020-10-16,41.20596782,-90.74290052
Illinois,Monroe,829,10,27,0,2020-10-16,38.27594376,-90.17761038
Illinois,Montgomery,511,5,14,0,2020-10-16,39.23198845,-89.47809254
Illinois,Morgan,786,17,24,0,2020-10-16,39.71654544,-90.20255104
Illinois,Moultrie,333,14,5,0,2020-10-16,39.64187451,-88.62099969
Illinois,Ogle,1001,37,7,1,2020-10-16,42.04165196,-89.32184679
Illinois,Peoria,4136,67,59,0,2020-10-16,40.78702156,-89.76078901
Illinois,Perry,394,7,16,0,2020-10-16,38.08510853,-89.36856219
Illinois,Piatt,195,8,0,0,2020-10-16,40.01360584,-88.59319339
Illinois,Pike,230,21,2,0,2020-10-16,39.62265059,-90.8877017
Illinois,Pope,36,0,1,0,2020-10-16,37.41391284,-88.56152109
Illinois,Pulaski,218,0,1,0,2020-10-16,37.22631423,-89.13085001
Illinois,Putnam,81,6,0,0,2020-10-16,41.2013541,-89.2869272
Illinois,Randolph,1107,17,14,0,2020-10-16,38.05095369,-89.82512254
Illinois,Richland,306,8,14,2,2020-10-16,38.71240969,-88.08475366
Illinois,Rock Island,3544,61,87,1,2020-10-16,41.46613806,-90.57042164
Illinois,St. Clair,7430,48,210,2,2020-10-16,38.46996033,-89.93063427
Illinois,Saline,468,5,7,0,2020-10-16,37.75332999,-88.54119706
Illinois,Sangamon,3293,89,54,1,2020-10-16,39.75836914,-89.65872023
Illinois,Schuyler,78,3,1,0,2020-10-16,40.1571798,-90.61114163
Illinois,Scott,88,0,0,0,2020-10-16,39.6429169,-90.47814431
Illinois,Shelby,563,24,8,0,2020-10-16,39.39133527,-88.80611122
Illinois,Stark,78,4,2,0,2020-10-16,41.09309773,-89.79745866
Illinois,Stephenson,746,14,7,0,2020-10-16,42.35129217,-89.662598
Illinois,Tazewell,2334,87,45,0,2020-10-16,40.50716185,-89.51404662
Illinois,Union,713,18,25,0,2020-10-16,37.47119609,-89.25548938
Illinois,Vermilion,1444,38,7,0,2020-10-16,40.18417171,-87.73384359
Illinois,Wabash,200,10,5,0,2020-10-16,38.44272901,-87.84922065
Illinois,Warren,432,4,6,0,2020-10-16,40.84925021,-90.6147432
Illinois,Washington,271,2,1,0,2020-10-16,38.35309213,-89.40982703
Illinois,Wayne,422,11,9,1,2020-10-16,38.42955355,-88.42586459
Illinois,White,228,5,1,0,2020-10-16,38.08706198,-88.17657461
Illinois,Whiteside,1087,23,21,0,2020-10-16,41.75509713,-89.91556058
Illinois,Will,16321,247,414,2,2020-10-16,41.44619267,-87.97862712
Illinois,Williamson,1655,34,57,1,2020-10-16,37.73033511,-88.92994027
Illinois,Winnebago,8580,183,163,0,2020-10-16,42.33641854,-89.16085327
Illinois,Woodford,534,30,10,0,2020-10-16,40.78579374,-89.20973757
Indiana,Adams,432,17,5,0,2020-10-16,40.7457653,-84.93671406
Indiana,Allen,7542,136,219,3,2020-10-16,41.09194313,-85.06800636
Indiana,Bartholomew,1343,14,57,0,2020-10-16,39.20744865,-85.89558181
Indiana,Benton,100,2,0,0,2020-10-16,40.60626947,-87.31093999
Indiana,Blackford,176,6,3,0,2020-10-16,40.47388153,-85.32499702
Indiana,Boone,1158,15,48,0,2020-10-16,40.0509304,-86.46841646
Indiana,Brown,125,1,3,0,2020-10-16,39.19605589,-86.22868909
Indiana,Carroll,305,4,13,0,2020-10-16,40.580783200000006,-86.56198812
Indiana,Cass,2185,25,17,1,2020-10-16,40.76135835,-86.34830753
Indiana,Clark,2722,42,57,0,2020-10-16,38.48015445,-85.70510334
Indiana,Clay,405,12,6,0,2020-10-16,39.39561833,-87.11723506
Indiana,Clinton,783,17,15,0,2020-10-16,40.30319754,-86.47277257
Indiana,Crawford,138,4,1,0,2020-10-16,38.28814402,-86.44518825
Indiana,Daviess,805,26,31,0,2020-10-16,38.70186039,-87.07185406
Indiana,Dearborn,854,20,28,0,2020-10-16,39.14647946,-84.97333539
Indiana,Decatur,489,5,39,0,2020-10-16,39.30712658,-85.50087166
Indiana,DeKalb,643,5,11,0,2020-10-16,41.39804622,-84.99906934
Indiana,Delaware,2667,58,73,1,2020-10-16,40.22787247,-85.39732772
Indiana,Dubois,1302,37,21,0,2020-10-16,38.36597551,-86.87924170000002
Indiana,Elkhart,8039,114,128,2,2020-10-16,41.59761169,-85.85875695
Indiana,Fayette,531,6,15,0,2020-10-16,39.63684962,-85.17797541
Indiana,Floyd,1667,23,65,0,2020-10-16,38.32117957,-85.90385377
Indiana,Fountain,257,17,3,0,2020-10-16,40.12361933,-87.24217689
Indiana,Franklin,349,13,25,0,2020-10-16,39.4142482,-85.06062647
Indiana,Fulton,320,6,2,0,2020-10-16,41.0469907,-86.26252745
Indiana,Gibson,794,24,9,0,2020-10-16,38.30393723,-87.58054938
Indiana,Grant,1141,24,39,0,2020-10-16,40.51587228,-85.65468702
Indiana,Greene,493,11,36,0,2020-10-16,39.03630547,-86.96223202
Indiana,Hamilton,5759,100,112,0,2020-10-16,40.07306535,-86.05244729
Indiana,Hancock,1098,8,44,0,2020-10-16,39.82304555,-85.77566351
Indiana,Harrison,716,23,24,0,2020-10-16,38.19467379,-86.10948271
Indiana,Hendricks,3068,39,128,0,2020-10-16,39.76719009,-86.51037283
Indiana,Henry,1139,51,27,0,2020-10-16,39.93029017,-85.39625719
Indiana,Howard,1530,15,66,0,2020-10-16,40.48527731,-86.11351892
Indiana,Huntington,353,0,5,0,2020-10-16,40.82907273,-85.48822092
Indiana,Jackson,1010,24,11,1,2020-10-16,38.90915820000001,-86.03851889
Indiana,Jasper,495,17,4,1,2020-10-16,41.02078733,-87.11553319
Indiana,Jay,267,9,6,1,2020-10-16,40.43781032,-85.00576229
Indiana,Jefferson,321,5,4,0,2020-10-16,38.78576239,-85.43633383
Indiana,Jennings,354,6,13,0,2020-10-16,38.99588883,-85.62710784
Indiana,Johnson,2885,36,127,0,2020-10-16,39.48994426,-86.10149107
Indiana,Knox,647,11,10,0,2020-10-16,38.68861576,-87.4194665
Indiana,Kosciusko,1620,53,20,0,2020-10-16,41.24521668,-85.86312322
Indiana,LaGrange,748,6,14,0,2020-10-16,41.64232188,-85.42674232
Indiana,Lake,12528,202,346,3,2020-10-16,41.41874274,-87.38277575
Indiana,LaPorte,2008,36,52,1,2020-10-16,41.54366008,-86.74072188
Indiana,Lawrence,714,44,32,1,2020-10-16,38.84112637,-86.48361629
Indiana,Madison,2158,47,86,2,2020-10-16,40.16143691,-85.71964711
Indiana,Marion,24034,182,777,1,2020-10-16,39.78163624,-86.13826325
Indiana,Marshall,1261,22,26,0,2020-10-16,41.32467367,-86.26185087
Indiana,Martin,187,1,0,0,2020-10-16,38.7099921,-86.80373186
Indiana,Miami,540,19,4,0,2020-10-16,40.76940965,-86.04525048
Indiana,Monroe,3117,30,38,0,2020-10-16,39.16130004,-86.52414358
Indiana,Montgomery,548,8,22,0,2020-10-16,40.04034823,-86.89335024
Indiana,Morgan,889,22,40,0,2020-10-16,39.47899078,-86.44573375
Indiana,Newton,197,5,11,0,2020-10-16,40.95610449,-87.39635768
Indiana,Noble,1074,16,33,0,2020-10-16,41.39672484,-85.41966713
Indiana,Ohio,109,4,7,0,2020-10-16,38.955305,-84.96515993
Indiana,Orange,366,6,24,0,2020-10-16,38.54118920000001,-86.49523093
Indiana,Owen,195,5,1,0,2020-10-16,39.31145587,-86.83900724
Indiana,Parke,202,15,2,0,2020-10-16,39.77202286,-87.20375833
Indiana,Perry,269,6,14,1,2020-10-16,38.07809328,-86.63741946
Indiana,Pike,303,9,9,0,2020-10-16,38.40112197,-87.23574907
Indiana,Porter,2798,52,47,0,2020-10-16,41.45986947,-87.06848888
Indiana,Posey,631,8,3,0,2020-10-16,38.02097333,-87.86480429
Indiana,Pulaski,131,5,1,0,2020-10-16,41.04166107,-86.69890683
Indiana,Putnam,678,4,15,0,2020-10-16,39.66437981,-86.84517605
Indiana,Randolph,312,13,8,0,2020-10-16,40.15734772,-85.01139319
Indiana,Ripley,400,8,8,0,2020-10-16,39.10235626,-85.26212744
Indiana,Rush,181,3,4,0,2020-10-16,39.62002287,-85.4655599
Indiana,St. Joseph,8433,112,151,1,2020-10-16,41.61756781,-86.29040834
Indiana,Scott,493,7,13,0,2020-10-16,38.68672078,-85.74627859
Indiana,Shelby,757,15,29,0,2020-10-16,39.52305623,-85.79158570000001
Indiana,Spencer,348,3,6,0,2020-10-16,38.01519732,-87.0079644
Indiana,Starke,362,7,7,0,2020-10-16,41.27890281,-86.64686895
Indiana,Steuben,558,14,8,-1,2020-10-16,41.64423868,-85.00101094
Indiana,Sullivan,394,3,12,0,2020-10-16,39.08952258,-87.41414469
Indiana,Switzerland,79,2,0,0,2020-10-16,38.82767338,-85.03022429
Indiana,Tippecanoe,3377,66,13,0,2020-10-16,40.38872739,-86.89413959
Indiana,Tipton,258,1,23,0,2020-10-16,40.31123252,-86.05234925
Indiana,Union,94,2,0,0,2020-10-16,39.62550777,-84.92497066
Indiana,Vanderburgh,5225,58,48,0,2020-10-16,38.02658833,-87.58763124
Indiana,Vermillion,191,6,1,0,2020-10-16,39.8523352,-87.46160542
Indiana,Vigo,2343,21,32,1,2020-10-16,39.42944561,-87.39169027
Indiana,Wabash,350,6,9,0,2020-10-16,40.84704239,-85.79328272
Indiana,Warren,65,5,1,0,2020-10-16,40.34728141,-87.35602659
Indiana,Warrick,1790,16,60,1,2020-10-16,38.08922676,-87.2716085
Indiana,Washington,339,17,2,0,2020-10-16,38.60219804,-86.1049363
Indiana,Wayne,1093,31,19,1,2020-10-16,39.8633444,-85.01044989
Indiana,Wells,392,13,5,0,2020-10-16,40.72934187,-85.22132966
Indiana,White,545,5,15,0,2020-10-16,40.74911165,-86.86492015
Indiana,Whitley,404,14,6,0,2020-10-16,41.13863784,-85.50791236
Iowa,Adair,117,4,1,0,2020-10-16,41.33075609,-94.47105874
Iowa,Adams,63,3,0,0,2020-10-16,41.02903567,-94.69932645
Iowa,Allamakee,317,10,8,0,2020-10-16,43.28383218,-91.37860922
Iowa,Appanoose,194,4,3,0,2020-10-16,40.74324454,-92.86865906
Iowa,Audubon,127,3,1,0,2020-10-16,41.6844628,-94.90581859
Iowa,Benton,483,20,1,0,2020-10-16,42.08011739,-92.06463573
Iowa,Black Hawk,5112,70,96,0,2020-10-16,42.4704581,-92.30524729
Iowa,Boone,661,19,8,0,2020-10-16,42.03657094,-93.9313999
Iowa,Bremer,602,10,7,0,2020-10-16,42.77461496,-92.31795937
Iowa,Buchanan,385,10,3,0,2020-10-16,42.4709188,-91.83510825
Iowa,Buena Vista,2189,12,12,0,2020-10-16,42.73545875,-95.15100162
Iowa,Butler,336,6,2,0,2020-10-16,42.73172833,-92.79015971
Iowa,Calhoun,256,5,3,0,2020-10-16,42.38521079,-94.64046046
Iowa,Carroll,1001,20,8,1,2020-10-16,42.03617207,-94.86032705
Iowa,Cass,276,15,2,0,2020-10-16,41.33149454,-94.92792482
Iowa,Cedar,338,13,5,0,2020-10-16,41.77233777,-91.13246684
Iowa,Cerro Gordo,1218,9,23,0,2020-10-16,43.08177563,-93.2612239
Iowa,Cherokee,354,6,2,0,2020-10-16,42.73538914,-95.62389402
Iowa,Chickasaw,317,0,1,0,2020-10-16,43.06001295,-92.31773347
Iowa,Clarke,301,2,3,0,2020-10-16,41.02868181,-93.78499767
Iowa,Clay,471,11,4,0,2020-10-16,43.08247182,-95.15096481
Iowa,Clayton,339,7,3,0,2020-10-16,42.84443388,-91.34133693
Iowa,Clinton,1330,9,25,0,2020-10-16,41.89981633,-90.53275096
Iowa,Crawford,1292,12,12,0,2020-10-16,42.03718237,-95.3819718
Iowa,Dallas,3263,49,43,0,2020-10-16,41.68560356,-94.04127625
Iowa,Davis,153,3,4,0,2020-10-16,40.74773536,-92.41005468
Iowa,Decatur,121,2,0,0,2020-10-16,40.73742757,-93.78645949
Iowa,Delaware,653,20,8,0,2020-10-16,42.47104597,-91.3664492
Iowa,Des Moines,1175,71,9,0,2020-10-16,40.92012606,-91.18326592
Iowa,Dickinson,671,8,7,0,2020-10-16,43.37787725,-95.1510206
Iowa,Dubuque,4528,105,52,0,2020-10-16,42.46815349,-90.88181925
Iowa,Emmet,381,5,14,0,2020-10-16,43.37782951,-94.67858943
Iowa,Fayette,329,9,2,0,2020-10-16,42.86271799,-91.8441231
Iowa,Floyd,410,3,11,0,2020-10-16,43.06000529999999,-92.78940097
Iowa,Franklin,366,1,18,0,2020-10-16,42.73270384,-93.26256925
Iowa,Fremont,177,1,1,0,2020-10-16,40.74542720000001,-95.60129045
Iowa,Greene,168,10,0,0,2020-10-16,42.03614551,-94.39658081
Iowa,Grundy,272,7,4,0,2020-10-16,42.40183723,-92.78829551
Iowa,Guthrie,357,4,14,0,2020-10-16,41.68378965,-94.50111014
Iowa,Hamilton,427,5,3,0,2020-10-16,42.38382428,-93.70197703
Iowa,Hancock,267,6,4,0,2020-10-16,43.08178477,-93.73454884
Iowa,Hardin,416,8,5,0,2020-10-16,42.38353877,-93.23654611
Iowa,Harrison,542,18,7,0,2020-10-16,41.68330137,-95.81558439
Iowa,Henry,962,16,5,0,2020-10-16,40.98767962,-91.54436349
Iowa,Howard,237,7,8,0,2020-10-16,43.35671042,-92.31702714
Iowa,Humboldt,277,7,3,0,2020-10-16,42.7764426,-94.20722537
Iowa,Ida,173,1,2,0,2020-10-16,42.38696136,-95.51355387
Iowa,Iowa,366,5,2,0,2020-10-16,41.68630265,-92.0643373
Iowa,Jackson,508,20,3,0,2020-10-16,42.17178824,-90.57354837
Iowa,Jasper,1005,12,34,0,2020-10-16,41.68576082,-93.05567785
Iowa,Jefferson,185,3,1,0,2020-10-16,41.03192394,-91.94849466
Iowa,Johnson,5586,27,30,0,2020-10-16,41.67169354,-91.58754744
Iowa,Jones,385,7,3,0,2020-10-16,42.12118609,-91.13139641
Iowa,Keokuk,136,1,1,0,2020-10-16,41.33649833,-92.1785067
Iowa,Kossuth,411,7,0,0,2020-10-16,43.20405458,-94.20691791
Iowa,Lee,850,25,9,0,2020-10-16,40.64181461,-91.48183025
Iowa,Linn,4926,62,122,0,2020-10-16,42.07923082,-91.59809485
Iowa,Louisa,482,6,15,0,2020-10-16,41.21842119,-91.26102611
Iowa,Lucas,179,1,6,0,2020-10-16,41.02958964,-93.32780803
Iowa,Lyon,500,2,7,0,2020-10-16,43.38107862,-96.20926845
Iowa,Madison,333,4,2,0,2020-10-16,41.33081904,-94.01554631
Iowa,Mahaska,592,25,22,0,2020-10-16,41.33521503,-92.64083907
Iowa,Marion,907,12,10,0,2020-10-16,41.33445101,-93.09934783
Iowa,Marshall,1911,21,36,0,2020-10-16,42.03586837,-92.9990819
Iowa,Mills,318,11,1,0,2020-10-16,41.03299766,-95.61920963
Iowa,Mitchell,220,9,0,0,2020-10-16,43.35638371,-92.78887719
Iowa,Monona,222,2,1,0,2020-10-16,42.05220391,-95.95743843
Iowa,Monroe,232,6,11,0,2020-10-16,41.02988815,-92.8690667
Iowa,Montgomery,149,5,5,0,2020-10-16,41.03018714,-95.15642896
Iowa,Muscatine,1307,43,57,0,2020-10-16,41.48370744,-91.1121697
Iowa,O'Brien,553,13,9,0,2020-10-16,43.08310673,-95.62474482
Iowa,Osceola,240,4,0,0,2020-10-16,43.37824276,-95.62422844
Iowa,Page,336,14,0,0,2020-10-16,40.7393172,-95.1497813
Iowa,Palo Alto,277,4,1,0,2020-10-16,43.08193849,-94.67824621
Iowa,Plymouth,1498,29,24,0,2020-10-16,42.737633,-96.21366621
Iowa,Pocahontas,202,5,2,0,2020-10-16,42.73420133,-94.67862564
Iowa,Polk,17754,181,281,0,2020-10-16,41.68679484,-93.57767461
Iowa,Pottawattamie,2860,69,44,1,2020-10-16,41.33640314,-95.53907776
Iowa,Poweshiek,413,10,11,0,2020-10-16,41.68625425,-92.53155731
Iowa,Ringgold,80,0,2,0,2020-10-16,40.73518949,-94.24368535
Iowa,Sac,357,11,3,1,2020-10-16,42.38624071,-95.10547892
Iowa,Scott,3919,98,33,1,2020-10-16,41.63935978,-90.61959493
Iowa,Shelby,334,5,1,0,2020-10-16,41.6850066,-95.31015553
Iowa,Sioux,2250,32,11,0,2020-10-16,43.08221074,-96.1767568
Iowa,Story,3817,41,17,0,2020-10-16,42.03621213,-93.46499005
Iowa,Tama,888,9,36,0,2020-10-16,42.07991767,-92.53266945
Iowa,Taylor,216,8,2,0,2020-10-16,40.73710579,-94.69778563
Iowa,Union,204,3,3,0,2020-10-16,41.0277278,-94.24234847
Iowa,Van Buren,150,6,2,0,2020-10-16,40.75326764,-91.95017958
Iowa,Wapello,1458,5,62,2,2020-10-16,41.03064984,-92.40954728
Iowa,Warren,1126,19,6,0,2020-10-16,41.33559454,-93.56007641
Iowa,Washington,595,10,11,0,2020-10-16,41.33577126,-91.71725711
Iowa,Wayne,110,0,3,0,2020-10-16,40.73969028,-93.32752197
Iowa,Webster,1658,22,14,0,2020-10-16,42.42853483,-94.17987389
Iowa,Winnebago,407,17,16,0,2020-10-16,43.37751174,-93.73407298
Iowa,Winneshiek,422,14,9,0,2020-10-16,43.29094334,-91.84422722
Iowa,Woodbury,6689,84,85,2,2020-10-16,42.38979414,-96.0459439
Iowa,Worth,126,2,0,0,2020-10-16,43.37750768,-93.26087602
Iowa,Wright,678,5,1,0,2020-10-16,42.73305373,-93.73515113
Kansas,Allen,104,0,1,0,2020-10-16,37.88582951,-95.30030847
Kansas,Anderson,114,1,0,0,2020-10-16,38.21413251,-95.29272815
Kansas,Atchison,460,0,4,0,2020-10-16,39.53185661,-95.30870026
Kansas,Barber,26,2,0,0,2020-10-16,37.2288586,-98.68460053
Kansas,Barton,676,31,7,0,2020-10-16,38.47889676,-98.75636726
Kansas,Bourbon,267,0,3,0,2020-10-16,37.85508555,-94.84865997
Kansas,Brown,182,0,5,0,2020-10-16,39.82652589,-95.56421698
Kansas,Butler,759,10,3,0,2020-10-16,37.78134351,-96.83878537
Kansas,Chase,90,3,2,0,2020-10-16,38.30292938,-96.59563862
Kansas,Chautauqua,21,-1,0,0,2020-10-16,37.14994405,-96.2454192
Kansas,Cherokee,606,0,7,0,2020-10-16,37.16928494,-94.8462897
Kansas,Cheyenne,94,6,5,0,2020-10-16,39.78580976,-101.7318201
Kansas,Clark,59,1,1,0,2020-10-16,37.23577007,-99.81883015
Kansas,Clay,76,13,2,0,2020-10-16,39.34948772,-97.16518128
Kansas,Cloud,97,3,1,0,2020-10-16,39.48028352,-97.64925343
Kansas,Coffey,136,0,9,0,2020-10-16,38.2365018,-95.73379515
Kansas,Comanche,19,0,0,0,2020-10-16,37.19114520000001,-99.27113247
Kansas,Cowley,458,18,9,0,2020-10-16,37.23781842,-96.83776647
Kansas,Crawford,1226,0,10,0,2020-10-16,37.50675523,-94.85245778
Kansas,Decatur,45,4,1,0,2020-10-16,39.78468441,-100.4594081
Kansas,Dickinson,267,7,3,0,2020-10-16,38.86600962,-97.15532383
Kansas,Doniphan,153,12,0,0,2020-10-16,39.79067154,-95.14056866
Kansas,Douglas,2692,8,15,1,2020-10-16,38.88503636,-95.2925121
Kansas,Edwards,60,0,0,0,2020-10-16,37.88735543,-99.31263309
Kansas,Elk,13,0,0,0,2020-10-16,37.45338105,-96.24369667
Kansas,Ellis,1277,38,16,2,2020-10-16,38.91458712,-99.31751551
Kansas,Ellsworth,142,9,0,0,2020-10-16,38.69677695,-98.20462799
Kansas,Finney,2567,0,16,0,2020-10-16,38.04340344,-100.7381938
Kansas,Ford,3108,35,13,0,2020-10-16,37.69200114,-99.88825298
Kansas,Franklin,475,4,3,0,2020-10-16,38.56443815,-95.28644341
Kansas,Geary,357,1,4,0,2020-10-16,38.99871131,-96.7577178
Kansas,Gove,148,12,9,7,2020-10-16,38.91588178,-100.4829321
Kansas,Graham,56,0,1,0,2020-10-16,39.34987223,-99.88332493
Kansas,Grant,379,0,8,0,2020-10-16,37.56227336,-101.3079758
Kansas,Gray,181,0,0,0,2020-10-16,37.73836671,-100.4369088
Kansas,Greeley,22,0,0,0,2020-10-16,38.4808095,-101.8061079
Kansas,Greenwood,71,5,0,0,2020-10-16,37.8774388,-96.23250453
Kansas,Hamilton,51,3,0,0,2020-10-16,37.99978709,-101.7921066
Kansas,Harper,133,7,2,0,2020-10-16,37.19175361,-98.07578384
Kansas,Harvey,466,5,7,0,2020-10-16,38.04293782,-97.42747573
Kansas,Haskell,103,0,1,0,2020-10-16,37.5620394,-100.8710738
Kansas,Hodgeman,30,0,0,0,2020-10-16,38.08780079,-99.89829881
Kansas,Jackson,285,5,4,0,2020-10-16,39.41673394,-95.79356799
Kansas,Jefferson,248,11,4,0,2020-10-16,39.2347941,-95.38289232
Kansas,Jewell,21,1,1,0,2020-10-16,39.78470589,-98.21820662
Kansas,Johnson,12818,133,173,2,2020-10-16,38.88548175,-94.82250877
Kansas,Kearny,128,8,3,0,2020-10-16,38.00017981,-101.321681
Kansas,Kingman,107,0,3,0,2020-10-16,37.55909527,-98.13638678
Kansas,Kiowa,43,0,0,0,2020-10-16,37.55848695,-99.2856537
Kansas,Labette,330,0,5,0,2020-10-16,37.19113093,-95.29849679
Kansas,Lane,17,1,0,0,2020-10-16,38.48119447,-100.4660754
Kansas,Leavenworth,2424,38,17,0,2020-10-16,39.20183497,-95.03620809
Kansas,Lincoln,15,0,1,0,2020-10-16,39.04549684,-98.20756994
Kansas,Linn,109,0,1,0,2020-10-16,38.21267844,-94.84254089
Kansas,Logan,68,0,0,0,2020-10-16,38.91735806,-101.148475
Kansas,Lyon,1243,11,37,0,2020-10-16,38.45576156,-96.15275715
Kansas,McPherson,338,0,5,0,2020-10-16,38.39184858,-97.64769869
Kansas,Marion,103,4,1,0,2020-10-16,38.35855394,-97.0985251
Kansas,Marshall,59,3,0,0,2020-10-16,39.78359669,-96.52278974
Kansas,Meade,140,3,1,0,2020-10-16,37.23859987,-100.364831
Kansas,Miami,474,0,2,0,2020-10-16,38.56383358,-94.83832189
Kansas,Mitchell,57,0,0,0,2020-10-16,39.39331582,-98.20906732
Kansas,Montgomery,612,72,6,0,2020-10-16,37.19236568,-95.74329258
Kansas,Morris,49,1,0,0,2020-10-16,38.68827511,-96.65128437
Kansas,Morton,32,0,2,0,2020-10-16,37.19141121,-101.79925190000002
Kansas,Nemaha,215,0,1,0,2020-10-16,39.78345387,-96.01392079
Kansas,Neosho,206,5,0,0,2020-10-16,37.55862897,-95.30670046
Kansas,Ness,107,0,8,0,2020-10-16,38.47974157,-99.91547333
Kansas,Norton,252,48,1,0,2020-10-16,39.78443827,-99.90286639
Kansas,Osage,142,10,1,0,2020-10-16,38.65235984,-95.72707998
Kansas,Osborne,21,3,0,0,2020-10-16,39.3503437,-98.76753828
Kansas,Ottawa,104,7,0,0,2020-10-16,39.13237408,-97.65020313
Kansas,Pawnee,406,0,1,0,2020-10-16,38.18108732,-99.23692334
Kansas,Phillips,151,1,9,0,2020-10-16,39.78465501,-99.34668865
Kansas,Pottawatomie,350,11,0,0,2020-10-16,39.37925655,-96.34564657
Kansas,Pratt,101,5,0,0,2020-10-16,37.64780729,-98.73922153
Kansas,Rawlins,67,0,0,0,2020-10-16,39.78525843,-101.0761617
Kansas,Reno,1577,23,9,0,2020-10-16,37.95230263,-98.08607292
Kansas,Republic,71,9,1,0,2020-10-16,39.82799632,-97.65036709
Kansas,Rice,117,10,1,0,2020-10-16,38.34616184,-98.19992118
Kansas,Riley,2047,32,11,2,2020-10-16,39.28935726,-96.73420026
Kansas,Rooks,131,1,7,0,2020-10-16,39.35022773,-99.32484567
Kansas,Rush,93,0,0,0,2020-10-16,38.52275276,-99.30863983
Kansas,Russell,155,0,3,0,2020-10-16,38.91462787,-98.76254297
Kansas,Saline,953,19,13,1,2020-10-16,38.78369175,-97.65185177
Kansas,Scott,160,2,1,0,2020-10-16,38.48222076,-100.9066539
Kansas,Sedgwick,9799,126,120,6,2020-10-16,37.6842718,-97.4608198
Kansas,Seward,1948,0,7,0,2020-10-16,37.19324632,-100.8507201
Kansas,Shawnee,3175,39,69,4,2020-10-16,39.04100763,-95.7557264
Kansas,Sheridan,101,15,0,0,2020-10-16,39.35018161,-100.4418259
Kansas,Sherman,130,0,0,0,2020-10-16,39.35147699,-101.7197624
Kansas,Smith,19,0,0,0,2020-10-16,39.78516566,-98.78566062
Kansas,Stafford,65,0,1,0,2020-10-16,38.03100851,-98.71762001
Kansas,Stanton,48,0,2,0,2020-10-16,37.56304714,-101.7843534
Kansas,Stevens,201,7,1,0,2020-10-16,37.1923008,-101.3118967
Kansas,Sumner,232,7,3,0,2020-10-16,37.23682549,-97.47721621
Kansas,Thomas,256,14,2,0,2020-10-16,39.35107575,-101.0553705
Kansas,Trego,74,5,3,0,2020-10-16,38.91467218,-99.87284448
Kansas,Wabaunsee,76,1,1,0,2020-10-16,38.95471985,-96.20350509
Kansas,Wallace,27,0,0,0,2020-10-16,38.91686134,-101.7638876
Kansas,Washington,27,1,0,0,2020-10-16,39.78420784,-97.0875323
Kansas,Wichita,16,6,0,0,2020-10-16,38.48178252,-101.3471509
Kansas,Wilson,104,25,2,0,2020-10-16,37.55937174,-95.74323255
Kansas,Woodson,26,0,0,0,2020-10-16,37.8865336,-95.74006277
Kansas,Wyandotte,7814,80,145,0,2020-10-16,39.11727348,-94.76378225
Kentucky,Adair,426,4,20,1,2020-10-16,37.10459774,-85.28129668
Kentucky,Allen,460,5,9,0,2020-10-16,36.75197631,-86.19457544
Kentucky,Anderson,213,3,1,0,2020-10-16,38.00671029,-84.99171713
Kentucky,Ballard,63,0,1,0,2020-10-16,37.05842757,-88.99427697
Kentucky,Barren,926,33,13,0,2020-10-16,36.96469836,-85.93338945
Kentucky,Bath,102,3,1,0,2020-10-16,38.14735938,-83.74588932
Kentucky,Bell,592,12,16,0,2020-10-16,36.73355174,-83.67766671
Kentucky,Boone,1868,20,25,0,2020-10-16,38.97065142,-84.72615357
Kentucky,Bourbon,263,7,1,0,2020-10-16,38.2054607,-84.21827874
Kentucky,Boyd,568,8,15,0,2020-10-16,38.36176608,-82.68652187
Kentucky,Boyle,388,10,0,0,2020-10-16,37.62680923,-84.8633779
Kentucky,Bracken,49,1,1,0,2020-10-16,38.69158994,-84.08532444
Kentucky,Breathitt,108,2,0,0,2020-10-16,37.52333168,-83.31959161
Kentucky,Breckinridge,164,1,2,0,2020-10-16,37.77377239,-86.42885017
Kentucky,Bullitt,1170,26,14,1,2020-10-16,37.97162523,-85.68955617
Kentucky,Butler,378,1,16,0,2020-10-16,37.20946153,-86.68748787
Kentucky,Caldwell,230,6,0,0,2020-10-16,37.14749129,-87.86948214
Kentucky,Calloway,828,10,9,0,2020-10-16,36.62093411,-88.2731593
Kentucky,Campbell,1051,14,16,0,2020-10-16,38.94384345,-84.37875208
Kentucky,Carlisle,96,5,1,0,2020-10-16,36.85372876,-88.96692220000001
Kentucky,Carroll,208,1,5,0,2020-10-16,38.66599534,-85.12601074
Kentucky,Carter,282,2,4,0,2020-10-16,38.31690743,-83.05092385
Kentucky,Casey,288,0,15,0,2020-10-16,37.32533118,-84.92726209
Kentucky,Christian,1655,21,26,0,2020-10-16,36.89267803,-87.49055367
Kentucky,Clark,429,21,10,0,2020-10-16,37.9689263,-84.14615986
Kentucky,Clay,418,10,6,0,2020-10-16,37.16451126,-83.712575
Kentucky,Clinton,182,5,2,0,2020-10-16,36.72581156,-85.13377529
Kentucky,Crittenden,146,7,1,0,2020-10-16,37.35839237,-88.08826090000002
Kentucky,Cumberland,117,4,0,0,2020-10-16,36.78926125,-85.39050034
Kentucky,Daviess,1758,16,24,0,2020-10-16,37.73028906,-87.09019479999998
Kentucky,Edmonson,157,0,12,0,2020-10-16,37.21218923,-86.23955613
Kentucky,Elliott,62,0,0,0,2020-10-16,38.11624059,-83.09771563
Kentucky,Estill,241,8,0,0,2020-10-16,37.69241417,-83.95956369
Kentucky,Fayette,9705,148,82,0,2020-10-16,38.0368225,-84.45576892
Kentucky,Fleming,116,7,0,0,2020-10-16,38.36758311,-83.69657514
Kentucky,Floyd,259,5,4,0,2020-10-16,37.56213922,-82.74750924
Kentucky,Franklin,779,8,13,0,2020-10-16,38.2379395,-84.87962551
Kentucky,Fulton,213,4,3,0,2020-10-16,36.55238827,-89.20140068
Kentucky,Gallatin,113,3,8,0,2020-10-16,38.75398691,-84.8558382
Kentucky,Garrard,233,13,3,0,2020-10-16,37.6388668,-84.53289319
Kentucky,Grant,214,1,6,0,2020-10-16,38.64962758,-84.62415957
Kentucky,Graves,836,1,29,0,2020-10-16,36.72292505,-88.65143315
Kentucky,Grayson,449,6,15,0,2020-10-16,37.46231118,-86.34248968
Kentucky,Green,305,1,8,0,2020-10-16,37.26484328,-85.5540745
Kentucky,Greenup,543,9,7,0,2020-10-16,38.54332505,-82.9215658
Kentucky,Hancock,112,1,1,0,2020-10-16,37.83766422,-86.78280584
Kentucky,Hardin,1662,42,12,0,2020-10-16,37.6976111,-85.96319251
Kentucky,Harlan,548,11,13,0,2020-10-16,36.85699301,-83.21899516
Kentucky,Harrison,236,7,1,0,2020-10-16,38.44188174,-84.32869741
Kentucky,Hart,253,7,1,0,2020-10-16,37.29943898,-85.88461055
Kentucky,Henderson,1171,28,17,0,2020-10-16,37.79344553,-87.57392021
Kentucky,Henry,225,3,2,0,2020-10-16,38.44942688,-85.11587507
Kentucky,Hickman,96,0,1,0,2020-10-16,36.67948079999999,-88.97875928
Kentucky,Hopkins,889,12,40,0,2020-10-16,37.30939025,-87.54670406
Kentucky,Jackson,416,6,17,0,2020-10-16,37.41866422,-83.99825483
Kentucky,Jefferson,18855,251,326,0,2020-10-16,38.18664655,-85.65931031
Kentucky,Jessamine,808,21,1,0,2020-10-16,37.87119786,-84.58252003
Kentucky,Johnson,216,7,2,0,2020-10-16,37.85106355,-82.8264322
Kentucky,Kenton,2328,20,49,0,2020-10-16,38.93950319,-84.53241199
Kentucky,Knott,285,0,2,0,2020-10-16,37.35388197,-82.94981134
Kentucky,Knox,714,9,9,0,2020-10-16,36.89225732,-83.85403396
Kentucky,Larue,212,5,1,0,2020-10-16,37.54567114,-85.70138352
Kentucky,Laurel,1208,15,7,0,2020-10-16,37.10975748,-84.11321779
Kentucky,Lawrence,115,5,0,0,2020-10-16,38.07136018,-82.72882223
Kentucky,Lee,33,3,0,0,2020-10-16,37.59645942,-83.71513901
Kentucky,Leslie,111,2,0,0,2020-10-16,37.09246661,-83.37999606
Kentucky,Letcher,268,5,2,0,2020-10-16,37.12306748,-82.85346474
Kentucky,Lewis,257,1,15,0,2020-10-16,38.53184419,-83.37735618
Kentucky,Lincoln,271,9,16,0,2020-10-16,37.45475628,-84.6565327
Kentucky,Livingston,112,3,1,0,2020-10-16,37.21137452,-88.34797529
Kentucky,Logan,665,8,30,0,2020-10-16,36.85949479,-86.877635
Kentucky,Lyon,93,1,4,0,2020-10-16,37.02080035,-88.07886257
Kentucky,McCracken,943,18,11,0,2020-10-16,37.05350953,-88.70445755
Kentucky,McCreary,232,3,1,0,2020-10-16,36.73874143,-84.48102924
Kentucky,McLean,117,3,2,0,2020-10-16,37.5301951,-87.26803443
Kentucky,Madison,2116,11,11,2,2020-10-16,37.71659336,-84.27220275
Kentucky,Magoffin,123,2,0,0,2020-10-16,37.70820545,-83.0657714
Kentucky,Marion,318,8,8,0,2020-10-16,37.55218078,-85.26898542
Kentucky,Marshall,406,1,4,0,2020-10-16,36.88007070000001,-88.32803576
Kentucky,Martin,117,10,3,0,2020-10-16,37.79990579,-82.51247478
Kentucky,Mason,146,1,2,0,2020-10-16,38.59471935,-83.82151043
Kentucky,Meade,303,4,3,0,2020-10-16,37.96163597,-86.21028219
Kentucky,Menifee,76,1,1,0,2020-10-16,37.94090733,-83.59985712
Kentucky,Mercer,306,8,5,0,2020-10-16,37.81474237,-84.87488475
Kentucky,Metcalfe,152,1,2,0,2020-10-16,36.99459295,-85.63123699
Kentucky,Monroe,245,2,4,0,2020-10-16,36.71225341,-85.71596443
Kentucky,Montgomery,364,5,4,0,2020-10-16,38.03253032,-83.9145241
Kentucky,Morgan,100,1,0,0,2020-10-16,37.92465657,-83.25558245
Kentucky,Muhlenberg,896,8,12,0,2020-10-16,37.21425819,-87.14632053
Kentucky,Nelson,654,21,4,0,2020-10-16,37.80335779,-85.4657193
Kentucky,Nicholas,86,1,1,0,2020-10-16,38.33342292,-84.01889177
Kentucky,Ohio,550,1,9,0,2020-10-16,37.47751843,-86.85368087
Kentucky,Oldham,1312,34,26,0,2020-10-16,38.39791089,-85.448222
Kentucky,Owen,108,0,2,0,2020-10-16,38.51679143,-84.82404619
Kentucky,Owsley,63,6,1,0,2020-10-16,37.42823949,-83.68811419
Kentucky,Pendleton,109,0,0,0,2020-10-16,38.69607718,-84.35599463
Kentucky,Perry,411,12,9,0,2020-10-16,37.25023553,-83.22922731
Kentucky,Pike,677,11,3,0,2020-10-16,37.47088263,-82.39487445
Kentucky,Powell,131,2,0,0,2020-10-16,37.83218794,-83.82553961
Kentucky,Pulaski,937,13,12,0,2020-10-16,37.10466131,-84.57629079
Kentucky,Robertson,13,0,1,0,2020-10-16,38.51923469,-84.05055616
Kentucky,Rockcastle,264,9,1,0,2020-10-16,37.36642393,-84.31176452
Kentucky,Rowan,314,5,1,0,2020-10-16,38.19484205,-83.42088935
Kentucky,Russell,324,13,6,0,2020-10-16,36.99308373,-85.06070117
Kentucky,Scott,978,7,17,0,2020-10-16,38.29622293,-84.5816631
Kentucky,Shelby,1248,22,24,0,2020-10-16,38.21476019,-85.194223
Kentucky,Simpson,309,4,8,0,2020-10-16,36.74058474,-86.58047435
Kentucky,Spencer,254,4,0,0,2020-10-16,38.03223971,-85.32749335
Kentucky,Taylor,404,5,7,0,2020-10-16,37.3677562,-85.3329931
Kentucky,Todd,256,6,8,0,2020-10-16,36.8381152,-87.17878374
Kentucky,Trigg,219,3,0,0,2020-10-16,36.80767017,-87.87333656
Kentucky,Trimble,81,2,0,0,2020-10-16,38.61056487,-85.33775972
Kentucky,Union,462,14,5,0,2020-10-16,37.66166713,-87.94300009
Kentucky,Warren,4828,37,57,0,2020-10-16,36.99903045,-86.42672751
Kentucky,Washington,183,3,1,0,2020-10-16,37.75599461,-85.17407732
Kentucky,Wayne,222,7,0,0,2020-10-16,36.80310688,-84.8251971
Kentucky,Webster,272,6,5,0,2020-10-16,37.52168356,-87.67989953
Kentucky,Whitley,668,14,5,0,2020-10-16,36.75700531,-84.14541217
Kentucky,Wolfe,58,0,0,0,2020-10-16,37.73941626,-83.49303612
Kentucky,Woodford,341,8,0,0,2020-10-16,38.04178222,-84.7417556
Louisiana,Acadia,3053,-2,99,0,2020-10-16,30.2950649,-92.41419698
Louisiana,Allen,1790,8,53,1,2020-10-16,30.65385745,-92.82442028
Louisiana,Ascension,3921,36,98,0,2020-10-16,30.20406249,-90.91328409999998
Louisiana,Assumption,780,0,24,0,2020-10-16,29.89946234,-91.06461642
Louisiana,Avoyelles,1656,4,62,0,2020-10-16,31.07796211,-92.00079449
Louisiana,Beauregard,1041,0,39,0,2020-10-16,30.64836518,-93.34173616
Louisiana,Bienville,553,-2,33,0,2020-10-16,32.34569994,-93.05398492
Louisiana,Bossier,3821,60,112,1,2020-10-16,32.67932307,-93.60460152
Louisiana,Caddo,9532,54,382,1,2020-10-16,32.57991587,-93.88375652
Louisiana,Calcasieu,8138,32,221,0,2020-10-16,30.22931235,-93.35400434
Louisiana,Caldwell,334,6,3,0,2020-10-16,32.0902519,-92.11752148
Louisiana,Cameron,234,-2,2,0,2020-10-16,29.87592238,-93.19310676
Louisiana,Catahoula,452,-1,13,1,2020-10-16,31.66778967,-91.84526385
Louisiana,Claiborne,582,-1,24,1,2020-10-16,32.82308512,-92.99526883
Louisiana,Concordia,558,1,16,1,2020-10-16,31.44817835,-91.63814433
Louisiana,De Soto,979,4,35,0,2020-10-16,32.05457447,-93.74130302
Louisiana,East Baton Rouge,15636,96,452,0,2020-10-16,30.53842039,-91.09777565
Louisiana,East Carroll,563,5,6,0,2020-10-16,32.73926954,-91.23425694
Louisiana,East Feliciana,1784,4,75,0,2020-10-16,30.84425359,-91.04976723
Louisiana,Evangeline,1380,3,37,0,2020-10-16,30.72985248,-92.39915924
Louisiana,Franklin,1263,2,44,0,2020-10-16,32.13675181,-91.67589857
Louisiana,Grant,512,-2,30,0,2020-10-16,31.59882456,-92.56124347
Louisiana,Iberia,3029,2,93,0,2020-10-16,29.86803617,-91.75871777
Louisiana,Iberville,1434,3,58,0,2020-10-16,30.25734305,-91.3499598
Louisiana,Jackson,787,7,22,0,2020-10-16,32.30251776,-92.55692092
Louisiana,Jefferson,18252,70,580,2,2020-10-16,29.74075478,-90.11115756
Louisiana,Jefferson Davis,1300,-6,42,0,2020-10-16,30.26896765,-92.81210004
Louisiana,Lafayette,9241,29,136,0,2020-10-16,30.2049055,-92.06959876
Louisiana,Lafourche,3810,3,124,1,2020-10-16,29.52470226,-90.40976986
Louisiana,LaSalle,468,2,10,0,2020-10-16,31.67884782,-92.15907765
Louisiana,Lincoln,1592,10,48,0,2020-10-16,32.6003154,-92.6659741
Louisiana,Livingston,4047,57,79,2,2020-10-16,30.44143993,-90.73061664
Louisiana,Madison,889,-2,8,0,2020-10-16,32.36918118,-91.23973355
Louisiana,Morehouse,861,1,24,1,2020-10-16,32.81686191,-91.80421614
Louisiana,Natchitoches,1353,28,26,0,2020-10-16,31.72321584,-93.09816516
Louisiana,Orleans,13150,44,589,0,2020-10-16,30.06971951,-89.92660315
Louisiana,Ouachita,6714,23,158,5,2020-10-16,32.47645559,-92.15704172
Louisiana,Plaquemines,824,7,19,0,2020-10-16,29.42245447,-89.60322085
Louisiana,Pointe Coupee,1096,1,40,0,2020-10-16,30.71409502,-91.60209535
Louisiana,Rapides,4514,40,153,1,2020-10-16,31.19778499,-92.52997303
Louisiana,Red River,384,3,24,0,2020-10-16,32.09530039,-93.34213308
Louisiana,Richland,841,8,15,0,2020-10-16,32.41391005,-91.76634876
Louisiana,Sabine,942,5,14,0,2020-10-16,31.56388699,-93.55433981
Louisiana,St. Bernard,1508,7,32,0,2020-10-16,29.87761636,-89.51887093
Louisiana,St. Charles,1896,3,63,0,2020-10-16,29.90709658,-90.35555967
Louisiana,St. Helena,424,-1,4,0,2020-10-16,30.82210324,-90.71013176
Louisiana,St. James,828,2,40,0,2020-10-16,30.02531716,-90.80212061
Louisiana,St. John the Baptist,1616,1,105,0,2020-10-16,30.12597499,-90.4753503
Louisiana,St. Landry,3510,7,132,1,2020-10-16,30.59724262,-92.00135806
Louisiana,St. Martin,2152,10,61,0,2020-10-16,30.13112107,-91.61403569
Louisiana,St. Mary,1990,5,83,0,2020-10-16,29.69262097,-91.44702164
Louisiana,St. Tammany,7479,23,269,0,2020-10-16,30.40942847,-89.95642711
Louisiana,Tangipahoa,4859,46,122,0,2020-10-16,30.62888673,-90.40664996
Louisiana,Tensas,186,1,2,0,2020-10-16,32.00760749,-91.32915234
Louisiana,Terrebonne,3779,10,122,1,2020-10-16,29.37343766,-90.82626855
Louisiana,Union,1058,5,49,0,2020-10-16,32.83121059,-92.3749373
Louisiana,Vermilion,2080,-6,68,0,2020-10-16,29.83517605,-92.30292538
Louisiana,Vernon,1108,2,55,0,2020-10-16,31.10884837,-93.18153838
Louisiana,Washington,1708,-2,68,0,2020-10-16,30.85288548,-90.03866652
Louisiana,Webster,1412,6,34,0,2020-10-16,32.70847669,-93.33121835
Louisiana,West Baton Rouge,942,1,42,0,2020-10-16,30.46058217,-91.30989571
Louisiana,West Carroll,361,1,10,0,2020-10-16,32.78550125,-91.461201
Louisiana,West Feliciana,744,2,25,0,2020-10-16,30.87882871,-91.4148538
Louisiana,Winn,666,8,19,0,2020-10-16,31.94449367,-92.63789413
Maine,Androscoggin,830,4,10,0,2020-10-16,44.1664747,-70.20380627
Maine,Aroostook,56,2,1,0,2020-10-16,46.65926321,-68.59841248
Maine,Cumberland,2403,4,70,0,2020-10-16,43.8370751,-70.37226999
Maine,Franklin,73,0,1,0,2020-10-16,44.97330019,-70.44381045
Maine,Hancock,56,0,1,0,2020-10-16,44.59816444,-68.38401854
Maine,Kennebec,285,2,11,0,2020-10-16,44.40759555,-69.76738544
Maine,Knox,55,1,1,0,2020-10-16,44.11486325,-69.10529169
Maine,Lincoln,50,-2,1,0,2020-10-16,44.05996956,-69.54227124
Maine,Oxford,160,0,2,0,2020-10-16,44.49952995,-70.75682123
Maine,Penobscot,270,0,6,0,2020-10-16,45.40194593,-68.65020455
Maine,Piscataquis,10,0,0,0,2020-10-16,45.83839062,-69.2860223
Maine,Sagadahoc,76,3,0,0,2020-10-16,43.95415864,-69.85074999
Maine,Somerset,125,0,8,0,2020-10-16,45.51229767,-69.95995554
Maine,Waldo,95,11,14,0,2020-10-16,44.4858305,-69.12061935
Maine,Washington,20,0,0,0,2020-10-16,45.01607142,-67.62813524
Maine,York,1299,4,19,1,2020-10-16,43.47808377,-70.71052375
Maryland,Allegany,543,5,23,0,2020-10-16,39.62357628,-78.69280486
Maryland,Anne Arundel,11151,98,262,0,2020-10-16,39.00670238,-76.60329337
Maryland,Baltimore,19403,128,650,1,2020-10-16,39.45784712,-76.62911955
Maryland,Calvert,1098,16,28,0,2020-10-16,38.53961642,-76.56820632
Maryland,Caroline,687,-1,8,0,2020-10-16,38.87172293,-75.82904158
Maryland,Carroll,2120,12,128,0,2020-10-16,39.56453592,-77.02373735
Maryland,Cecil,1244,52,36,0,2020-10-16,39.56647682,-75.94627411
Maryland,Charles,2991,8,101,0,2020-10-16,38.51092331,-76.98580666
Maryland,Dorchester,661,8,10,0,2020-10-16,38.45413522,-76.02752426
Maryland,Frederick,4464,28,137,0,2020-10-16,39.47296601,-77.39999394
Maryland,Garrett,94,6,1,0,2020-10-16,39.52786077,-79.27355126
Maryland,Harford,3353,18,77,0,2020-10-16,39.55010644,-76.30775940000002
Maryland,Howard,5534,26,123,0,2020-10-16,39.25305293,-76.93126208
Maryland,Kent,326,0,24,0,2020-10-16,39.24976208,-76.04741541
Maryland,Montgomery,24174,159,860,0,2020-10-16,39.13676329,-77.20358245
Maryland,Prince George's,31210,108,841,0,2020-10-16,38.83070039,-76.8496441
Maryland,Queen Anne's,719,5,26,0,2020-10-16,39.06198912,-76.03530977
Maryland,St. Mary's,1385,3,59,0,2020-10-16,38.30058422,-76.60629279999998
Maryland,Somerset,368,5,5,0,2020-10-16,38.1163542,-75.75118623
Maryland,Talbot,602,6,6,0,2020-10-16,38.76618159,-76.10882561
Maryland,Washington,2075,21,42,0,2020-10-16,39.60835778,-77.82002295
Maryland,Wicomico,2287,28,49,0,2020-10-16,38.37301947,-75.62705831
Maryland,Worcester,1159,8,30,0,2020-10-16,38.21274277,-75.33200012
Maryland,Baltimore,19403,128,650,1,2020-10-16,39.45784712,-76.62911955
Massachusetts,Barnstable,1888,6,180,2,2020-10-16,41.72980578,-70.28854339
Massachusetts,Berkshire,735,0,51,0,2020-10-16,42.37428441,-73.20524838
Massachusetts,Bristol,10864,36,729,2,2020-10-16,41.79228404,-71.10872211
Massachusetts,Essex,21736,117,1320,2,2020-10-16,42.6687626,-70.94687179
Massachusetts,Franklin,432,6,71,0,2020-10-16,42.58119713,-72.58602547
Massachusetts,Hampden,8971,50,796,2,2020-10-16,42.13440424,-72.63235561
Massachusetts,Hampshire,1386,10,152,0,2020-10-16,42.33997957,-72.65898478
Massachusetts,Middlesex,29728,141,2214,9,2020-10-16,42.48607732,-71.39049229
Massachusetts,Norfolk,11050,42,1087,1,2020-10-16,42.16073095,-71.20530408
Massachusetts,Plymouth,10540,54,800,7,2020-10-16,41.94070556,-70.80802823
Massachusetts,Suffolk,26160,148,1155,2,2020-10-16,42.3279514,-71.07850442
Massachusetts,Worcester,15357,77,1140,3,2020-10-16,42.35026951,-71.90493363
Michigan,Alcona,50,0,2,0,2020-10-16,44.6846864,-83.59507875
Michigan,Alger,77,10,0,0,2020-10-16,46.41292944,-86.60260122
Michigan,Allegan,1015,26,7,0,2020-10-16,42.59147037,-85.89102866
Michigan,Alpena,148,0,14,0,2020-10-16,45.03477666,-83.62212411
Michigan,Antrim,89,1,0,0,2020-10-16,44.99690221,-85.15503082
Michigan,Arenac,84,0,3,0,2020-10-16,44.0636262,-83.89277559
Michigan,Baraga,65,2,4,1,2020-10-16,46.6720582,-88.36363591
Michigan,Barry,504,10,5,0,2020-10-16,42.59513984,-85.30834519
Michigan,Bay,1199,12,55,0,2020-10-16,43.70639106,-83.98731479
Michigan,Benzie,101,0,2,0,2020-10-16,44.63899297,-86.01608482
Michigan,Berrien,2286,66,78,1,2020-10-16,41.95447397,-86.41313079999998
Michigan,Branch,756,14,10,0,2020-10-16,41.91600556,-85.05929476
Michigan,Calhoun,2150,63,53,2,2020-10-16,42.24633834,-85.00493569
Michigan,Cass,788,35,23,0,2020-10-16,41.91522292,-85.99405727
Michigan,Charlevoix,131,2,4,0,2020-10-16,45.37790017,-85.19614053
Michigan,Cheboygan,112,4,2,0,2020-10-16,45.44787015,-84.50122149
Michigan,Chippewa,101,4,0,0,2020-10-16,46.29552653,-84.54353449
Michigan,Clare,198,9,6,0,2020-10-16,43.98794227,-84.84819859999998
Michigan,Clinton,857,13,14,0,2020-10-16,42.94400871,-84.60145248
Michigan,Crawford,135,3,5,0,2020-10-16,44.68255561,-84.61006219
Michigan,Delta,949,37,16,0,2020-10-16,45.90484910000001,-86.9080745
Michigan,Dickinson,414,32,5,0,2020-10-16,46.00999672,-87.86961634
Michigan,Eaton,894,16,10,0,2020-10-16,42.59599185,-84.83740035
Michigan,Emmet,181,0,4,0,2020-10-16,45.52625509,-84.89083249
Michigan,Genesee,5811,117,321,1,2020-10-16,43.02244215,-83.70589709
Michigan,Gladwin,156,9,2,0,2020-10-16,43.98901072,-84.38774817
Michigan,Gogebic,239,15,2,0,2020-10-16,46.40862701,-89.69377193
Michigan,Grand Traverse,628,9,12,0,2020-10-16,44.69565625,-85.55585247
Michigan,Gratiot,389,0,16,0,2020-10-16,43.29265605,-84.60505416
Michigan,Hillsdale,440,11,27,0,2020-10-16,41.88753639,-84.59312019
Michigan,Houghton,839,7,6,0,2020-10-16,46.89988536,-88.68495385
Michigan,Huron,253,2,5,0,2020-10-16,43.83353985,-83.04078453
Michigan,Ingham,4217,41,57,0,2020-10-16,42.59716886,-84.37472069
Michigan,Ionia,531,15,7,0,2020-10-16,42.94502238,-85.07413319
Michigan,Iosco,255,2,14,0,2020-10-16,44.35486835,-83.63484895
Michigan,Iron,326,11,17,0,2020-10-16,46.20974132,-88.53136251
Michigan,Isabella,897,19,15,0,2020-10-16,43.64060976,-84.84664923
Michigan,Jackson,1482,48,60,0,2020-10-16,42.24807035,-84.42258681
Michigan,Kalamazoo,4045,113,98,-1,2020-10-16,42.24542231,-85.53038622
Michigan,Kalkaska,110,7,4,0,2020-10-16,44.68512729,-85.09085699
Michigan,Kent,12201,177,178,5,2020-10-16,43.03197711,-85.54934642
Michigan,Keweenaw,18,2,0,0,2020-10-16,47.63197653,-88.41434263
Michigan,Lake,41,1,0,0,2020-10-16,43.99050893,-85.802173
Michigan,Lapeer,772,15,38,0,2020-10-16,43.09052506,-83.22153148
Michigan,Leelanau,129,4,1,0,2020-10-16,44.94430054,-85.80150326
Michigan,Lenawee,997,14,18,0,2020-10-16,41.89475156,-84.06603727
Michigan,Livingston,1709,21,32,0,2020-10-16,42.60302282,-83.91297209
Michigan,Luce,37,0,0,0,2020-10-16,46.47227431,-85.54471223
Michigan,Mackinac,134,11,0,0,2020-10-16,46.07028979,-85.04980537
Michigan,Macomb,16751,203,1059,4,2020-10-16,42.69158356,-82.92752801
Michigan,Manistee,106,3,3,0,2020-10-16,44.33352407,-86.05626916
Michigan,Marquette,702,48,12,0,2020-10-16,46.4338914,-87.64043701
Michigan,Mason,168,7,1,0,2020-10-16,43.99509218,-86.24988902
Michigan,Mecosta,342,18,4,0,2020-10-16,43.64064262,-85.32463223
Michigan,Menominee,609,32,3,0,2020-10-16,45.58038692,-87.55370409
Michigan,Midland,781,14,13,0,2020-10-16,43.64330771,-84.38804374
Michigan,Missaukee,75,5,1,0,2020-10-16,44.33772443,-85.09256478
Michigan,Monroe,1784,31,30,1,2020-10-16,41.92734151,-83.53749864
Michigan,Montcalm,462,8,8,1,2020-10-16,43.31082541,-85.15252824
Michigan,Montmorency,20,1,0,0,2020-10-16,45.0275929,-84.12696227
Michigan,Muskegon,1778,18,74,0,2020-10-16,43.29123859,-86.15176712
Michigan,Newaygo,505,12,2,0,2020-10-16,43.554374,-85.80070107
Michigan,Oakland,22752,181,1224,0,2020-10-16,42.66090111,-83.38595416
Michigan,Oceana,561,3,6,0,2020-10-16,43.64124435,-86.26726673
Michigan,Ogemaw,83,2,5,0,2020-10-16,44.33481032,-84.12725175
Michigan,Ontonagon,64,4,0,0,2020-10-16,46.665226200000006,-89.31390481
Michigan,Osceola,119,2,0,0,2020-10-16,43.98992088,-85.32566756
Michigan,Oscoda,50,0,1,0,2020-10-16,44.68192279,-84.12939244
Michigan,Otsego,205,2,11,0,2020-10-16,45.02085831,-84.59898295
Michigan,Ottawa,4238,79,70,0,2020-10-16,42.95996803,-85.9969107
Michigan,Presque Isle,34,1,1,0,2020-10-16,45.34018577,-83.91498656
Michigan,Roscommon,128,3,4,0,2020-10-16,44.33473082,-84.61067651
Michigan,Saginaw,3338,26,148,0,2020-10-16,43.33433923,-84.05131209999998
Michigan,St. Clair,1256,36,62,0,2020-10-16,42.92655373,-82.67937954
Michigan,St. Joseph,1028,30,12,0,2020-10-16,41.91441767,-85.52797979
Michigan,Sanilac,163,0,7,0,2020-10-16,43.42406072,-82.82055898
Michigan,Schoolcraft,53,0,0,0,2020-10-16,46.19235734,-86.19972234
Michigan,Shiawassee,605,7,33,0,2020-10-16,42.95392800000001,-84.14585902
Michigan,Tuscola,573,16,34,0,2020-10-16,43.46606813,-83.41897025
Michigan,Van Buren,914,10,18,0,2020-10-16,42.25190229,-86.01939087
Michigan,Washtenaw,4544,78,116,0,2020-10-16,42.253105,-83.83853204
Michigan,Wayne,37951,249,3017,0,2020-10-16,42.28098405,-83.281255
Michigan,Wexford,145,0,4,0,2020-10-16,44.33853602,-85.57712739
Minnesota,Aitkin,140,7,1,0,2020-10-16,46.60962049,-93.4116826
Minnesota,Anoka,7715,101,147,0,2020-10-16,45.27476015,-93.24604565
Minnesota,Becker,460,33,2,0,2020-10-16,46.93479392,-95.67158144
Minnesota,Beltrami,714,8,7,1,2020-10-16,47.97373527,-94.93732139
Minnesota,Benton,790,35,4,0,2020-10-16,45.69804958,-93.99514135
Minnesota,Big Stone,121,3,0,0,2020-10-16,45.42712824,-96.41403739
Minnesota,Blue Earth,1933,43,7,0,2020-10-16,44.03554215,-94.06699781
Minnesota,Brown,285,9,3,0,2020-10-16,44.24205652,-94.72562874
Minnesota,Carlton,368,4,1,0,2020-10-16,46.59180601,-92.67601019
Minnesota,Carver,1646,22,7,0,2020-10-16,44.82017001,-93.8009918
Minnesota,Cass,289,15,4,0,2020-10-16,46.95043611,-94.32603968
Minnesota,Chippewa,357,23,2,0,2020-10-16,45.02343421,-95.56403693
Minnesota,Chisago,787,24,2,0,2020-10-16,45.5021011,-92.90861945
Minnesota,Clay,1919,57,43,0,2020-10-16,46.89289518,-96.48761922
Minnesota,Clearwater,64,5,0,0,2020-10-16,47.57992111,-95.37790562
Minnesota,Cook,8,0,0,0,2020-10-16,47.90504893,-90.52629546
Minnesota,Cottonwood,253,0,0,0,2020-10-16,44.00715262,-95.18138802
Minnesota,Crow Wing,810,44,21,0,2020-10-16,46.48096553,-94.06755609
Minnesota,Dakota,8930,116,133,0,2020-10-16,44.67172617,-93.06299363
Minnesota,Dodge,349,9,0,0,2020-10-16,44.02238415,-92.86244324
Minnesota,Douglas,556,24,3,0,2020-10-16,45.93348491,-95.45335469
Minnesota,Faribault,198,5,0,0,2020-10-16,43.67381499,-93.94787458
Minnesota,Fillmore,223,12,0,0,2020-10-16,43.67394126,-92.08980382
Minnesota,Freeborn,618,21,4,0,2020-10-16,43.67385583,-93.34884422
Minnesota,Goodhue,477,15,11,0,2020-10-16,44.40849741,-92.7234195
Minnesota,Grant,84,3,4,0,2020-10-16,45.93424769,-96.01139609
Minnesota,Hennepin,31472,311,962,0,2020-10-16,45.00761521,-93.47694895
Minnesota,Houston,174,5,1,0,2020-10-16,43.67129565,-91.49143057
Minnesota,Hubbard,264,21,2,0,2020-10-16,47.10778564,-94.91693868
Minnesota,Isanti,460,9,3,0,2020-10-16,45.56181234,-93.29487636
Minnesota,Itasca,638,21,17,1,2020-10-16,47.51009045,-93.63092229
Minnesota,Jackson,183,2,1,0,2020-10-16,43.67423373,-95.15398258
Minnesota,Kanabec,178,8,10,0,2020-10-16,45.9459309,-93.29275192
Minnesota,Kandiyohi,1464,76,4,0,2020-10-16,45.1526059,-95.00586446
Minnesota,Kittson,23,4,0,0,2020-10-16,48.77754106,-96.78317184
Minnesota,Koochiching,156,7,4,0,2020-10-16,48.24539665,-93.78352843
Minnesota,Lac qui Parle,118,3,2,0,2020-10-16,44.9973857,-96.17488219
Minnesota,Lake,94,2,0,0,2020-10-16,47.64270764,-91.44557998
Minnesota,Lake of the Woods,39,0,1,0,2020-10-16,48.77217001,-94.90274472
Minnesota,Le Sueur,574,21,5,0,2020-10-16,44.37136597,-93.72844721
Minnesota,Lincoln,156,5,0,0,2020-10-16,44.41311883,-96.26688165
Minnesota,Lyon,896,9,6,1,2020-10-16,44.41327865,-95.83806103
Minnesota,McLeod,555,5,3,0,2020-10-16,44.82367677,-94.27287017
Minnesota,Mahnomen,85,6,1,0,2020-10-16,47.32557075,-95.80921485
Minnesota,Marshall,76,2,1,0,2020-10-16,48.35825983,-96.37017407
Minnesota,Martin,567,9,16,0,2020-10-16,43.67429718,-94.55099908
Minnesota,Meeker,294,15,3,0,2020-10-16,45.12328869,-94.52839455
Minnesota,Mille Lacs,329,30,7,0,2020-10-16,45.93705297,-93.63236823
Minnesota,Morrison,536,58,5,1,2020-10-16,46.01265363,-94.27341528
Minnesota,Mower,1473,19,11,4,2020-10-16,43.67142874,-92.75234549
Minnesota,Murray,234,6,3,0,2020-10-16,44.02216709,-95.76328482
Minnesota,Nicollet,651,13,17,0,2020-10-16,44.35291112,-94.24710352
Minnesota,Nobles,2093,8,16,0,2020-10-16,43.67434621,-95.75329576
Minnesota,Norman,88,2,0,0,2020-10-16,47.32628443,-96.45620947
Minnesota,Olmsted,2979,67,29,0,2020-10-16,44.00374114,-92.40209944
Minnesota,Otter Tail,670,27,6,0,2020-10-16,46.40846929,-95.70835255
Minnesota,Pennington,153,2,1,0,2020-10-16,48.06642577,-96.0370814
Minnesota,Pine,488,9,0,0,2020-10-16,46.12105238,-92.74070188
Minnesota,Pipestone,320,3,16,0,2020-10-16,44.02301619,-96.25841142
Minnesota,Polk,455,8,4,0,2020-10-16,47.77372465,-96.40134647
Minnesota,Pope,136,5,0,0,2020-10-16,45.58606667,-95.44451209
Minnesota,Ramsey,12922,136,341,3,2020-10-16,45.01625271,-93.09872295
Minnesota,Red Lake,52,3,2,0,2020-10-16,47.87197525,-96.09561104
Minnesota,Redwood,231,8,10,1,2020-10-16,44.40555844,-95.25207021
Minnesota,Renville,216,0,11,1,2020-10-16,44.72836381,-94.94553734
Minnesota,Rice,1522,14,8,0,2020-10-16,44.3543376,-93.29658715
Minnesota,Rock,281,5,1,0,2020-10-16,43.67482683,-96.25296832
Minnesota,Roseau,172,11,0,0,2020-10-16,48.77501878,-95.81079919
Minnesota,St. Louis,2498,97,61,5,2020-10-16,47.6048407,-92.46879855
Minnesota,Scott,3057,41,34,0,2020-10-16,44.6490231,-93.53340251
Minnesota,Sherburne,1467,39,20,0,2020-10-16,45.44447208,-93.77617511
Minnesota,Sibley,232,5,3,0,2020-10-16,44.5796592,-94.23164924
Minnesota,Stearns,5094,206,33,0,2020-10-16,45.55192576,-94.61078221
Minnesota,Steele,692,22,2,0,2020-10-16,44.02240351,-93.22627088
Minnesota,Stevens,153,2,1,0,2020-10-16,45.58613007,-96.00163705
Minnesota,Swift,179,1,1,0,2020-10-16,45.2829032,-95.68264092
Minnesota,Todd,657,31,2,0,2020-10-16,46.06996226,-94.89785296
Minnesota,Traverse,47,0,0,0,2020-10-16,45.77298854,-96.47062949
Minnesota,Wabasha,303,18,0,0,2020-10-16,44.28424356,-92.23121312
Minnesota,Wadena,170,17,0,0,2020-10-16,46.58589171,-94.96968506
Minnesota,Waseca,893,8,9,0,2020-10-16,44.02211116,-93.58720034
Minnesota,Washington,4942,83,66,0,2020-10-16,45.03864533,-92.88429635
Minnesota,Watonwan,557,4,4,0,2020-10-16,43.97823903,-94.61413846
Minnesota,Wilkin,110,2,4,0,2020-10-16,46.35721532,-96.4684375
Minnesota,Winona,1136,40,18,0,2020-10-16,43.98772283,-91.78081305
Minnesota,Wright,2170,27,13,1,2020-10-16,45.17297924,-93.96234781
Minnesota,Yellow Medicine,260,4,5,1,2020-10-16,44.71710183,-95.86842453
Mississippi,Adams,1032,13,40,-1,2020-10-16,31.47669768,-91.35326037
Mississippi,Alcorn,938,18,12,0,2020-10-16,34.88084463,-88.57996173
Mississippi,Amite,412,2,13,0,2020-10-16,31.17467303,-90.80501621
Mississippi,Attala,755,6,25,0,2020-10-16,33.08658803,-89.57838564
Mississippi,Benton,296,4,4,0,2020-10-16,34.81681228,-89.18945516
Mississippi,Bolivar,1973,6,75,0,2020-10-16,33.79696941,-90.87372121
Mississippi,Calhoun,605,11,12,0,2020-10-16,33.93683395,-89.33686647
Mississippi,Carroll,453,4,12,0,2020-10-16,33.44834567,-89.91994479
Mississippi,Chickasaw,811,10,24,0,2020-10-16,33.91983202,-88.9481545
Mississippi,Choctaw,202,0,6,0,2020-10-16,33.34598242,-89.24809382
Mississippi,Claiborne,528,1,16,0,2020-10-16,31.97061673,-90.90702196
Mississippi,Clarke,704,3,48,0,2020-10-16,32.04158545,-88.68896219999998
Mississippi,Clay,663,3,21,0,2020-10-16,33.65358105,-88.77784255
Mississippi,Coahoma,1223,4,36,1,2020-10-16,34.22772299,-90.60415045
Mississippi,Copiah,1328,9,36,1,2020-10-16,31.86977774,-90.44565118
Mississippi,Covington,902,5,25,0,2020-10-16,31.63225413,-89.55389939
Mississippi,DeSoto,6495,94,77,0,2020-10-16,34.87625235,-89.99091418
Mississippi,Forrest,2906,19,77,0,2020-10-16,31.18961454,-89.25832496
Mississippi,Franklin,223,3,3,0,2020-10-16,31.47786634,-90.89672989
Mississippi,George,927,5,16,0,2020-10-16,30.86259065,-88.64436789
Mississippi,Greene,444,1,17,0,2020-10-16,31.21444233,-88.63922281
Mississippi,Grenada,1193,3,37,0,2020-10-16,33.77036166,-89.80245083
Mississippi,Hancock,739,17,27,0,2020-10-16,30.41830223,-89.48851033
Mississippi,Harrison,4713,113,81,1,2020-10-16,30.51359752,-89.12467576
Mississippi,Hinds,7707,88,170,0,2020-10-16,32.2656285,-90.44435448
Mississippi,Holmes,1129,3,60,0,2020-10-16,33.12345854,-90.08923538
Mississippi,Humphreys,394,2,16,0,2020-10-16,33.12825718,-90.52252707
Mississippi,Issaquena,106,0,3,0,2020-10-16,32.72531359,-90.97392828
Mississippi,Itawamba,1070,11,24,0,2020-10-16,34.27993475,-88.3606733
Mississippi,Jackson,4258,65,77,1,2020-10-16,30.54020656,-88.64184064
Mississippi,Jasper,657,2,16,0,2020-10-16,32.01922104,-89.11786866
Mississippi,Jefferson,259,3,10,0,2020-10-16,31.73397872,-91.03764977
Mississippi,Jefferson Davis,390,6,11,0,2020-10-16,31.56884708,-89.82670990000003
Mississippi,Jones,2799,20,81,0,2020-10-16,31.62257767,-89.16896899999998
Mississippi,Kemper,315,1,15,0,2020-10-16,32.75462946,-88.64105766
Mississippi,Lafayette,2405,10,42,0,2020-10-16,34.35687874,-89.48490961
Mississippi,Lamar,2100,25,38,0,2020-10-16,31.20572971,-89.5077704
Mississippi,Lauderdale,2311,6,130,1,2020-10-16,32.40419769,-88.66229662
Mississippi,Lawrence,489,6,14,0,2020-10-16,31.55147224,-90.10841127
Mississippi,Leake,1110,16,39,0,2020-10-16,32.7536828,-89.52402044
Mississippi,Lee,3354,38,79,0,2020-10-16,34.291877500000005,-88.68149954
Mississippi,Leflore,1582,12,86,2,2020-10-16,33.55545125,-90.29900733
Mississippi,Lincoln,1321,19,54,0,2020-10-16,31.53288662,-90.45391915
Mississippi,Lowndes,1729,16,62,1,2020-10-16,33.47386518,-88.44191529999998
Mississippi,Madison,3683,60,92,0,2020-10-16,32.63389156,-90.03513564
Mississippi,Marion,926,10,42,0,2020-10-16,31.23132643,-89.8209217
Mississippi,Marshall,1273,29,25,0,2020-10-16,34.76216286,-89.50299462
Mississippi,Monroe,1422,12,72,0,2020-10-16,33.89236763,-88.4808438
Mississippi,Montgomery,523,1,23,0,2020-10-16,33.49419589,-89.61729103
Mississippi,Neshoba,1790,11,110,0,2020-10-16,32.75339664,-89.11726492
Mississippi,Newton,840,5,27,0,2020-10-16,32.40021118,-89.11843336
Mississippi,Noxubee,593,2,16,0,2020-10-16,33.11009499,-88.56949061
Mississippi,Oktibbeha,1932,9,54,0,2020-10-16,33.42491685,-88.87905132
Mississippi,Panola,1642,22,36,0,2020-10-16,34.36398677,-89.95064249
Mississippi,Pearl River,1063,11,55,0,2020-10-16,30.77090935,-89.58677275
Mississippi,Perry,469,3,22,0,2020-10-16,31.17161885,-88.99281835
Mississippi,Pike,1351,3,55,0,2020-10-16,31.17507789,-90.40392572
Mississippi,Pontotoc,1426,13,19,0,2020-10-16,34.226046000000004,-89.03636807
Mississippi,Prentiss,1007,19,19,0,2020-10-16,34.61810501,-88.51986294
Mississippi,Quitman,410,3,6,0,2020-10-16,34.25157572,-90.28908
Mississippi,Rankin,3773,45,86,0,2020-10-16,32.26469147,-89.94537876
Mississippi,Scott,1216,3,29,0,2020-10-16,32.406704100000006,-89.53789439
Mississippi,Sharkey,277,0,14,0,2020-10-16,32.88149103,-90.8159538
Mississippi,Simpson,1174,3,48,0,2020-10-16,31.91282117,-89.91716179
Mississippi,Smith,576,1,16,0,2020-10-16,32.01744532,-89.50644846
Mississippi,Stone,443,6,14,0,2020-10-16,30.79187949,-89.11547539
Mississippi,Sunflower,1557,4,49,0,2020-10-16,33.60192578,-90.58882684
Mississippi,Tallahatchie,817,2,25,0,2020-10-16,33.95339918,-90.1729398
Mississippi,Tate,1119,8,39,0,2020-10-16,34.65133709,-89.94485778
Mississippi,Tippah,844,21,20,0,2020-10-16,34.76872156,-88.90988194
Mississippi,Tishomingo,779,8,40,0,2020-10-16,34.74023475,-88.23917219
Mississippi,Tunica,518,2,17,0,2020-10-16,34.64967704,-90.37481167
Mississippi,Union,1119,13,25,0,2020-10-16,34.49162015,-89.00776006
Mississippi,Walthall,628,1,27,0,2020-10-16,31.14971548,-90.10446654
Mississippi,Warren,1511,25,54,0,2020-10-16,32.35810271,-90.83352619
Mississippi,Washington,2493,16,95,0,2020-10-16,33.28392041,-90.94196237
Mississippi,Wayne,972,7,21,0,2020-10-16,31.64135687,-88.69573913
Mississippi,Webster,361,1,13,0,2020-10-16,33.61300486,-89.28392912
Mississippi,Wilkinson,329,10,20,1,2020-10-16,31.16078225,-91.31018819
Mississippi,Winston,810,4,21,0,2020-10-16,33.08747908,-89.03391385
Mississippi,Yalobusha,479,0,14,0,2020-10-16,34.02824175,-89.70762049999998
Mississippi,Yazoo,1160,20,33,0,2020-10-16,32.77890365,-90.39656148
Missouri,Adair,444,8,0,0,2020-10-16,40.19058551,-92.60078167
Missouri,Andrew,372,7,4,1,2020-10-16,39.98492163,-94.80163024
Missouri,Atchison,70,0,1,0,2020-10-16,40.43238737,-95.42970639
Missouri,Audrain,520,4,5,0,2020-10-16,39.215877,-91.84242683
Missouri,Barry,651,19,7,0,2020-10-16,36.70978521,-93.82919888
Missouri,Barton,373,8,2,0,2020-10-16,37.50207671,-94.34757022
Missouri,Bates,221,8,3,0,2020-10-16,38.25271289,-94.34113157
Missouri,Benton,432,1,5,0,2020-10-16,38.29503305,-93.28756116
Missouri,Bollinger,423,5,2,0,2020-10-16,37.32449052,-90.02725304
Missouri,Boone,5508,49,14,0,2020-10-16,38.99186229,-92.30723575
Missouri,Buchanan,2641,27,33,0,2020-10-16,39.65816401,-94.80138942
Missouri,Butler,951,36,8,0,2020-10-16,36.71462476,-90.40421163
Missouri,Caldwell,150,6,1,0,2020-10-16,39.65620858,-93.98308093
Missouri,Callaway,974,24,4,0,2020-10-16,38.83674754,-91.92186505
Missouri,Camden,1406,20,23,1,2020-10-16,38.02199522,-92.76083747
Missouri,Cape Girardeau,2402,46,35,0,2020-10-16,37.38489388,-89.6843587
Missouri,Carroll,162,0,2,0,2020-10-16,39.42762566,-93.50626255
Missouri,Carter,144,1,3,0,2020-10-16,36.94160441,-90.96051322
Missouri,Cass,1831,17,27,0,2020-10-16,38.64789422,-94.353399
Missouri,Cedar,205,7,2,0,2020-10-16,37.72391475,-93.85445441
Missouri,Chariton,54,0,1,0,2020-10-16,39.51499357,-92.9629191
Missouri,Christian,2018,46,8,0,2020-10-16,36.9711783,-93.18537118
Missouri,Clark,95,0,0,0,2020-10-16,40.41040752,-91.73661677
Missouri,Clay,2257,47,46,0,2020-10-16,39.31132056,-94.41850862
Missouri,Clinton,402,17,7,3,2020-10-16,39.6013098,-94.40465394
Missouri,Cole,2327,69,16,0,2020-10-16,38.50455671,-92.27860244
Missouri,Cooper,541,29,2,0,2020-10-16,38.844478,-92.80896081
Missouri,Crawford,518,7,6,0,2020-10-16,37.97663738,-91.30528104
Missouri,Dade,126,3,0,0,2020-10-16,37.431814,-93.8503345
Missouri,Dallas,269,5,1,0,2020-10-16,37.6811355,-93.02127031
Missouri,Daviess,194,0,2,0,2020-10-16,39.96145298,-93.98519678
Missouri,DeKalb,221,9,2,0,2020-10-16,39.89201062,-94.40476508
Missouri,Dent,221,4,2,0,2020-10-16,37.60663134,-91.50790473
Missouri,Douglas,259,3,3,0,2020-10-16,36.9325593,-92.49905109
Missouri,Dunklin,951,13,11,0,2020-10-16,36.27167174,-90.09122243
Missouri,Franklin,2240,38,34,0,2020-10-16,38.41127108,-91.07522826
Missouri,Gasconade,206,4,24,0,2020-10-16,38.43947277,-91.50847147
Missouri,Gentry,167,2,10,0,2020-10-16,40.21097916,-94.40944419
Missouri,Greene,8131,105,103,7,2020-10-16,37.2575872,-93.34230916
Missouri,Grundy,231,1,8,0,2020-10-16,40.11406587,-93.56509276
Missouri,Harrison,160,3,1,0,2020-10-16,40.35570088,-93.99222144
Missouri,Henry,328,9,5,0,2020-10-16,38.38482826,-93.79293734
Missouri,Hickory,171,3,3,0,2020-10-16,37.94163617,-93.3203037
Missouri,Holt,98,2,1,0,2020-10-16,40.09799248,-95.2163888
Missouri,Howard,217,3,2,0,2020-10-16,39.1435761,-92.69756691
Missouri,Howell,976,17,4,0,2020-10-16,36.77383887,-91.88683935
Missouri,Iron,87,5,0,0,2020-10-16,37.55487945,-90.7735296
Missouri,Jackson,9062,85,117,0,2020-10-16,39.01002188,-94.34724536
Missouri,Jasper,4659,40,59,0,2020-10-16,37.20351921,-94.34050458
Missouri,Jefferson,5032,44,69,0,2020-10-16,38.25926778,-90.53870896
Missouri,Johnson,1344,9,10,0,2020-10-16,38.74719601,-93.80691168
Missouri,Knox,58,0,1,0,2020-10-16,40.12699751,-92.14780832
Missouri,Laclede,1026,15,15,2,2020-10-16,37.65896829,-92.5888493
Missouri,Lafayette,718,9,19,0,2020-10-16,39.06986886,-93.78076396
Missouri,Lawrence,928,21,13,0,2020-10-16,37.10626634,-93.83293097
Missouri,Lewis,161,8,2,0,2020-10-16,40.09673161,-91.72070156
Missouri,Lincoln,1017,13,4,0,2020-10-16,39.05345619,-90.95588181
Missouri,Linn,150,5,1,0,2020-10-16,39.87001769,-93.10704106
Missouri,Livingston,530,-5,5,0,2020-10-16,39.78110272,-93.54645978
Missouri,McDonald,1169,3,11,-1,2020-10-16,36.62869595,-94.34867205
Missouri,Macon,188,1,0,0,2020-10-16,39.83049768,-92.56453089
Missouri,Madison,415,9,2,0,2020-10-16,37.47865134,-90.3467143
Missouri,Maries,126,4,0,0,2020-10-16,38.16193985,-91.92249662
Missouri,Marion,801,12,14,0,2020-10-16,39.80601912,-91.62203062
Missouri,Mercer,30,0,0,0,2020-10-16,40.42212303,-93.5682959
Missouri,Miller,723,42,5,2,2020-10-16,38.21450288,-92.42610898
Missouri,Mississippi,372,17,5,1,2020-10-16,36.82516239,-89.29505753
Missouri,Moniteau,459,14,6,0,2020-10-16,38.63571781,-92.57976951
Missouri,Monroe,113,1,1,0,2020-10-16,39.49593978,-92.00043978
Missouri,Montgomery,100,1,1,0,2020-10-16,38.94022054,-91.47000721
Missouri,Morgan,551,16,5,0,2020-10-16,38.4181765,-92.88791859
Missouri,New Madrid,673,6,17,0,2020-10-16,36.59666326,-89.66070007
Missouri,Newton,1841,11,16,0,2020-10-16,36.90519407,-94.3394104
Missouri,Nodaway,976,14,10,0,2020-10-16,40.36079813,-94.88133008
Missouri,Oregon,202,9,0,0,2020-10-16,36.68710164,-91.4033755
Missouri,Osage,351,27,3,0,2020-10-16,38.46036182,-91.8613635
Missouri,Ozark,169,4,1,0,2020-10-16,36.64916339,-92.44459066
Missouri,Pemiscot,650,10,12,1,2020-10-16,36.2130572,-89.78742322
Missouri,Perry,731,5,7,0,2020-10-16,37.70660776,-89.82741088
Missouri,Pettis,1351,30,13,0,2020-10-16,38.72798918,-93.28471706
Missouri,Phelps,727,12,19,0,2020-10-16,37.87736118,-91.79351727
Missouri,Pike,291,3,4,0,2020-10-16,39.34310674,-91.16980779
Missouri,Platte,876,12,12,0,2020-10-16,39.38154439,-94.77068479
Missouri,Polk,849,15,7,0,2020-10-16,37.6162296,-93.39828174
Missouri,Pulaski,865,8,8,0,2020-10-16,37.82462075,-92.20783203
Missouri,Putnam,47,1,1,0,2020-10-16,40.47942497,-93.02042674
Missouri,Ralls,179,2,0,0,2020-10-16,39.52817427,-91.51838643
Missouri,Randolph,463,11,3,0,2020-10-16,39.44007257,-92.4971374
Missouri,Ray,226,4,2,0,2020-10-16,39.3537468,-93.98905745
Missouri,Reynolds,54,4,0,0,2020-10-16,37.36085952,-90.97009925
Missouri,Ripley,199,2,3,0,2020-10-16,36.65460667,-90.85990261
Missouri,St. Charles,9353,157,130,0,2020-10-16,38.77875681,-90.66662425
Missouri,St. Clair,100,1,1,0,2020-10-16,38.03699437,-93.77631447
Missouri,Ste. Genevieve,268,3,1,0,2020-10-16,37.89090059,-90.1949941
Missouri,St. Francois,2551,11,19,0,2020-10-16,37.81214171,-90.47598685
Missouri,St. Louis,27472,422,854,0,2020-10-16,38.63770039999999,-90.4458375
Missouri,Saline,873,9,9,0,2020-10-16,39.13734288,-93.20259964
Missouri,Schuyler,35,3,0,0,2020-10-16,40.46921489,-92.52311943
Missouri,Scotland,54,6,1,0,2020-10-16,40.45214695,-92.14709064
Missouri,Scott,1186,22,18,0,2020-10-16,37.05588075,-89.56474493
Missouri,Shannon,183,2,2,0,2020-10-16,37.15772072,-91.40190382
Missouri,Shelby,90,2,1,0,2020-10-16,39.79742518,-92.07634971
Missouri,Stoddard,723,15,15,0,2020-10-16,36.85571651,-89.9444155
