State,County,Total Cases,New Cases,Total Deaths,New Deaths,Date,Latitude,Longitude
Alabama,Autauga,2023,2,30,0,2020-10-22,32.53952745,-86.64408227
Alabama,Baldwin,6475,32,69,0,2020-10-22,30.72774991,-87.72207058
Alabama,Barbour,997,1,9,0,2020-10-22,31.868263,-85.3871286
Alabama,Bibb,811,10,14,0,2020-10-22,32.99642064,-87.12511459999997
Alabama,Blount,1893,20,25,0,2020-10-22,33.98210918,-86.56790593
Alabama,Bullock,637,0,17,0,2020-10-22,32.10030533,-85.71265535
Alabama,Butler,1001,3,40,0,2020-10-22,31.75300095,-86.68057478
Alabama,Calhoun,4189,29,60,1,2020-10-22,33.77483727,-85.82630386
Alabama,Chambers,1336,6,43,0,2020-10-22,32.91360079,-85.39072749
Alabama,Cherokee,726,3,14,0,2020-10-22,34.17805983,-85.60638968
Alabama,Chilton,1841,15,32,0,2020-10-22,32.85044126,-86.7173256
Alabama,Choctaw,388,1,12,0,2020-10-22,32.02227341,-88.26564429999998
Alabama,Clarke,1300,27,17,0,2020-10-22,31.68099859,-87.83548597
Alabama,Clay,729,7,12,0,2020-10-22,33.26984193,-85.85836077
Alabama,Cleburne,543,11,8,1,2020-10-22,33.67679204,-85.52005899
Alabama,Coffee,1717,35,10,1,2020-10-22,31.39932826,-85.98901039
Alabama,Colbert,1967,34,31,1,2020-10-22,34.69847452,-87.80168544
Alabama,Conecuh,557,1,13,0,2020-10-22,31.43401703,-86.99320044
Alabama,Coosa,202,3,3,0,2020-10-22,32.93690146,-86.24847739
Alabama,Covington,1699,33,29,0,2020-10-22,31.2477854,-86.45050893
Alabama,Crenshaw,602,4,30,0,2020-10-22,31.72941803,-86.31593104
Alabama,Cullman,2357,47,24,0,2020-10-22,34.13020303,-86.86888037
Alabama,Dale,1654,16,51,0,2020-10-22,31.43037123,-85.61095742
Alabama,Dallas,1862,2,27,0,2020-10-22,32.32688101,-87.10866709999998
Alabama,DeKalb,3302,48,29,1,2020-10-22,34.45946862,-85.80782906
Alabama,Elmore,3148,20,52,0,2020-10-22,32.59785413,-86.14415284
Alabama,Escambia,1719,5,29,1,2020-10-22,31.1256789,-87.15918694
Alabama,Etowah,4187,65,49,0,2020-10-22,34.04567266,-86.04051873
Alabama,Fayette,561,4,13,0,2020-10-22,33.72076938,-87.73886638
Alabama,Franklin,2021,4,31,0,2020-10-22,34.44235334,-87.84289505
Alabama,Geneva,852,8,7,0,2020-10-22,31.09389027,-85.83572839
Alabama,Greene,342,2,16,0,2020-10-22,32.85504247,-87.95684022
Alabama,Hale,749,1,30,0,2020-10-22,32.76039258,-87.63284988
Alabama,Henry,639,1,6,0,2020-10-22,31.51148016,-85.24267944
Alabama,Houston,3692,37,32,0,2020-10-22,31.15197924,-85.29939599
Alabama,Jackson,2100,45,15,0,2020-10-22,34.78144169,-85.99750489
Alabama,Jefferson,22861,141,374,0,2020-10-22,33.55554728,-86.89506300000002
Alabama,Lamar,466,7,5,0,2020-10-22,33.77995024,-88.09668032
Alabama,Lauderdale,2148,23,41,1,2020-10-22,34.90171875,-87.65624729
Alabama,Lawrence,821,10,31,0,2020-10-22,34.52041498,-87.31069453
Alabama,Lee,6496,35,65,0,2020-10-22,32.60154883,-85.35132246
Alabama,Limestone,2765,29,30,0,2020-10-22,34.81185586,-86.98310072
Alabama,Lowndes,703,1,28,0,2020-10-22,32.1597283,-86.65158371
Alabama,Macon,529,-1,20,0,2020-10-22,32.38759944,-85.69267724
Alabama,Madison,9150,72,94,0,2020-10-22,34.76327133,-86.55069633
Alabama,Marengo,992,10,22,0,2020-10-22,32.24767634,-87.78796182
Alabama,Marion,1062,12,29,0,2020-10-22,34.13697363,-87.88704173
Alabama,Marshall,4330,20,49,1,2020-10-22,34.36975964,-86.30486727
Alabama,Mobile,14468,63,314,0,2020-10-22,30.78472347,-88.20842409
Alabama,Monroe,640,4,10,0,2020-10-22,31.56729412,-87.36995001
Alabama,Montgomery,9875,55,196,0,2020-10-22,32.2206831,-86.20969272
Alabama,Morgan,4036,36,35,2,2020-10-22,34.45500589,-86.85475946
Alabama,Perry,583,2,6,0,2020-10-22,32.64048341,-87.29770589
Alabama,Pickens,824,13,17,0,2020-10-22,33.28094866,-88.08818103
Alabama,Pike,1323,10,13,0,2020-10-22,31.80396383,-85.9408295
Alabama,Randolph,812,7,16,2,2020-10-22,33.29526734,-85.45708831
Alabama,Russell,1923,18,3,0,2020-10-22,32.28725256,-85.18415324
Alabama,St. Clair,2871,33,42,0,2020-10-22,33.71902176,-86.31029372
Alabama,Shelby,7204,51,62,1,2020-10-22,33.26879845,-86.66232561
Alabama,Sumter,470,2,21,0,2020-10-22,32.59117397,-88.19916205
Alabama,Talladega,2610,19,35,0,2020-10-22,33.37823223,-86.16886178
Alabama,Tallapoosa,1305,10,87,0,2020-10-22,32.86698258,-85.79833053
Alabama,Tuscaloosa,10148,82,139,2,2020-10-22,33.28726072,-87.52556818
Alabama,Walker,2722,23,93,0,2020-10-22,33.80270512,-87.30027177
Alabama,Washington,634,11,12,0,2020-10-22,31.4092794,-88.20689944
Alabama,Wilcox,562,3,12,0,2020-10-22,31.98773215,-87.30891118
Alabama,Winston,913,7,13,0,2020-10-22,34.15030532,-87.37325922
Alaska,Aleutians East,5,0,0,0,2020-10-22,55.32222414,-161.9722021
Alaska,Bristol Bay,0,0,0,0,2020-10-22,58.74513976,-156.701064
Alaska,Denali,20,0,0,0,2020-10-22,63.67264044,-150.0076108
Alaska,Fairbanks North Star,1837,5,13,0,2020-10-22,64.80726247,-146.5692662
Alaska,Haines,5,0,0,0,2020-10-22,59.09893571,-135.4679843
Alaska,Kenai Peninsula,623,13,3,0,2020-10-22,60.24429722,-151.53888840000005
Alaska,Ketchikan Gateway,59,0,0,0,2020-10-22,55.57445008,-130.975561
Alaska,Kodiak Island,49,0,0,0,2020-10-22,57.65529415,-153.7493579
Alaska,Matanuska-Susitna,922,26,2,0,2020-10-22,62.31305045,-149.5741743
Alaska,North Slope,217,2,0,0,2020-10-22,69.31479216,-153.4836093
Alaska,Northwest Arctic,207,0,0,0,2020-10-22,67.04919196,-159.7503946
Arizona,Apache,3825,15,168,0,2020-10-22,35.39465006,-109.4892383
Arizona,Cochise,2093,18,73,0,2020-10-22,31.87934684,-109.7516088
Arizona,Coconino,4888,74,147,0,2020-10-22,35.83883429,-111.7707178
Arizona,Gila,1812,35,67,1,2020-10-22,33.80190085,-110.8132779
Arizona,Graham,1083,20,27,0,2020-10-22,32.93166885,-109.8882178
Arizona,Greenlee,84,2,1,0,2020-10-22,33.21498827,-109.2405279
Arizona,La Paz,610,4,16,0,2020-10-22,33.72854224,-113.9810029
Arizona,Maricopa,152101,574,3536,4,2020-10-22,33.34835867,-112.4918154
Arizona,Mohave,4234,11,230,0,2020-10-22,35.70471703,-113.7577902
Arizona,Navajo,6218,21,236,0,2020-10-22,35.3997715,-110.3218983
Arizona,Pima,27208,80,635,0,2020-10-22,32.0971334,-111.7890033
Arizona,Pinal,11583,45,217,0,2020-10-22,32.90525627,-111.3449483
Arizona,Santa Cruz,2967,6,65,0,2020-10-22,31.52508998,-110.8479088
Arizona,Yavapai,2841,27,87,0,2020-10-22,34.59933926,-112.5538588
Arizona,Yuma,13359,62,353,0,2020-10-22,32.76895712,-113.90666740000002
Arkansas,Arkansas,634,15,12,0,2020-10-22,34.29145151,-91.37277296
Arkansas,Ashley,515,8,11,0,2020-10-22,33.19153461,-91.7698471
Arkansas,Baxter,599,11,7,0,2020-10-22,36.28784385,-92.33782872
Arkansas,Benton,7851,94,114,2,2020-10-22,36.33644656,-94.25680817
Arkansas,Boone,979,7,29,0,2020-10-22,36.3084504,-93.09374925
Arkansas,Bradley,365,0,8,0,2020-10-22,33.46755808,-92.15980837
Arkansas,Calhoun,47,1,0,0,2020-10-22,33.55598792,-92.49974403
Arkansas,Carroll,970,15,12,0,2020-10-22,36.34038560000001,-93.54270261
Arkansas,Chicot,1041,3,22,0,2020-10-22,33.26458973,-91.29539209
Arkansas,Clark,480,5,4,0,2020-10-22,34.04613432,-93.17484713
Arkansas,Clay,452,7,12,0,2020-10-22,36.36826212,-90.4148172
Arkansas,Cleburne,442,3,15,1,2020-10-22,35.53864922,-92.02640019
Arkansas,Cleveland,213,2,13,0,2020-10-22,33.89723187,-92.18537045
Arkansas,Columbia,667,5,19,0,2020-10-22,33.21230701,-93.22642793
Arkansas,Conway,338,4,3,0,2020-10-22,35.26205537,-92.70506566
Arkansas,Craighead,4249,81,38,0,2020-10-22,35.83018283,-90.63235729
Arkansas,Crawford,1936,16,25,0,2020-10-22,35.58928601,-94.2446814
Arkansas,Crittenden,2261,16,51,0,2020-10-22,35.21247318,-90.30839406
Arkansas,Cross,557,3,22,0,2020-10-22,35.29631396,-90.77185818
Arkansas,Dallas,178,0,5,0,2020-10-22,33.97042763,-92.65167437
Arkansas,Desha,386,2,7,0,2020-10-22,33.83011025,-91.25500948
Arkansas,Drew,417,5,7,0,2020-10-22,33.59035001,-91.71777921
Arkansas,Faulkner,3216,25,30,1,2020-10-22,35.14719007,-92.33717519
Arkansas,Franklin,485,11,2,0,2020-10-22,35.51202821,-93.89299569
Arkansas,Fulton,299,3,9,0,2020-10-22,36.38177105,-91.81729127
Arkansas,Garland,2340,38,62,0,2020-10-22,34.57692074,-93.14921604
Arkansas,Grant,349,6,4,0,2020-10-22,34.29017991,-92.42320562
Arkansas,Greene,1331,20,16,0,2020-10-22,36.11735460000001,-90.55832668
Arkansas,Hempstead,526,9,5,0,2020-10-22,33.73325583,-93.66935133
Arkansas,Hot Spring,2160,37,32,0,2020-10-22,34.31709259,-92.95396325
Arkansas,Howard,556,10,14,0,2020-10-22,34.09007427,-93.9934871
Arkansas,Independence,1427,19,42,1,2020-10-22,35.74242707,-91.57001641
Arkansas,Izard,550,3,1,0,2020-10-22,36.09604046,-91.90847954
Arkansas,Jackson,658,6,6,0,2020-10-22,35.59802983,-91.21494602
Arkansas,Jefferson,4064,25,101,1,2020-10-22,34.26767081,-91.92619839
Arkansas,Johnson,976,14,7,0,2020-10-22,35.56759135,-93.46036368
Arkansas,Lafayette,159,4,3,0,2020-10-22,33.24116713,-93.60677071
Arkansas,Lawrence,766,8,17,0,2020-10-22,36.04188196,-91.10867198
Arkansas,Lee,1102,0,18,0,2020-10-22,34.78498904,-90.78383866
Arkansas,Lincoln,2290,66,17,0,2020-10-22,33.95317155,-91.74002806
Arkansas,Little River,432,6,38,0,2020-10-22,33.70375665,-94.23468591
Arkansas,Logan,567,5,3,1,2020-10-22,35.21413234,-93.71951016
Arkansas,Lonoke,1622,28,26,0,2020-10-22,34.75392199,-91.88742357
Arkansas,Madison,418,1,6,1,2020-10-22,36.01038185,-93.72524943
Arkansas,Marion,141,3,2,0,2020-10-22,36.26844485,-92.68451899
Arkansas,Miller,1271,36,15,0,2020-10-22,33.31403423,-93.89285258
Arkansas,Mississippi,2144,16,66,2,2020-10-22,35.76271485,-90.05194370000002
Arkansas,Monroe,206,5,1,0,2020-10-22,34.6815935,-91.20540287
Arkansas,Montgomery,181,0,8,0,2020-10-22,34.53704874,-93.65824478
Arkansas,Nevada,286,3,14,0,2020-10-22,33.66340119,-93.30632432
Arkansas,Newton,292,2,20,1,2020-10-22,35.91947491,-93.21612969
Arkansas,Ouachita,351,5,9,1,2020-10-22,33.58839816,-92.87795984
Arkansas,Perry,132,2,0,0,2020-10-22,34.9459153,-92.94372564
Arkansas,Phillips,710,11,16,1,2020-10-22,34.43268455,-90.84800154
Arkansas,Pike,260,2,1,0,2020-10-22,34.16250414,-93.65789349
Arkansas,Poinsett,983,18,17,0,2020-10-22,35.57433534,-90.66268713
Arkansas,Polk,342,1,5,1,2020-10-22,34.48254879,-94.22728802
Arkansas,Pope,2645,29,37,0,2020-10-22,35.44871474,-93.03212219
Arkansas,Prairie,200,5,4,0,2020-10-22,34.83624419,-91.55162157
Arkansas,Pulaski,11485,130,200,1,2020-10-22,34.77054088,-92.31355101
Arkansas,Randolph,621,14,24,0,2020-10-22,36.3415714,-91.02455531
Arkansas,St. Francis,1678,10,10,0,2020-10-22,35.02201976,-90.74828138
Arkansas,Saline,2693,24,29,1,2020-10-22,34.64916145,-92.67583224
Arkansas,Scott,185,27,1,0,2020-10-22,34.85588887,-94.0632176
Arkansas,Searcy,183,4,1,0,2020-10-22,35.9109364,-92.69936482
Arkansas,Sebastian,4666,34,90,0,2020-10-22,35.19605503,-94.27162713
Arkansas,Sevier,1301,10,16,0,2020-10-22,33.99780401,-94.2424869
Arkansas,Sharp,324,7,10,0,2020-10-22,36.16258158,-91.47819342
Arkansas,Stone,392,2,21,0,2020-10-22,35.86251946,-92.15684085
Arkansas,Union,1100,11,49,2,2020-10-22,33.16887091,-92.59746952
Arkansas,Van Buren,204,3,3,0,2020-10-22,35.58095779,-92.51295036
Arkansas,Washington,11099,57,146,3,2020-10-22,35.976844,-94.21800746
Arkansas,White,1362,15,32,0,2020-10-22,35.25688493,-91.74908296
Arkansas,Woodruff,101,5,0,0,2020-10-22,35.18902527,-91.2439489
Arkansas,Yell,1330,3,30,0,2020-10-22,35.00292371,-93.41171338
California,Alameda,23001,69,456,21,2020-10-22,37.64629437,-121.8929271
California,Alpine,3,0,0,0,2020-10-22,38.59678594,-119.8223594
California,Amador,313,0,16,0,2020-10-22,38.44583082,-120.65696
California,Butte,3041,15,51,0,2020-10-22,39.66727762,-121.6005252
California,Calaveras,339,0,17,0,2020-10-22,38.20537103,-120.552913
California,Colusa,549,1,6,0,2020-10-22,39.17881957,-122.2331726
California,Contra Costa,18342,69,240,2,2020-10-22,37.91923498,-121.9289527
California,Del Norte,175,0,1,0,2020-10-22,41.74228275,-123.8974063
California,El Dorado,1306,4,4,0,2020-10-22,38.77965956,-120.5233166
California,Fresno,30328,108,430,0,2020-10-22,36.75733899,-119.6466953
California,Glenn,649,2,3,0,2020-10-22,39.59875897,-122.3938452
California,Humboldt,561,1,9,0,2020-10-22,40.69923009,-123.876044
California,Imperial,12668,58,336,0,2020-10-22,33.0393082,-115.3669042
California,Inyo,220,2,15,0,2020-10-22,36.51112084,-117.41119779999998
California,Kern,33630,79,415,2,2020-10-22,35.34329425,-118.7277796
California,Kings,8186,13,83,0,2020-10-22,36.07409056,-119.8159973
California,Lake,678,0,15,0,2020-10-22,39.10124298,-122.7536244
California,Lassen,764,3,1,0,2020-10-22,40.67311306,-120.59350990000002
California,Los Angeles,294065,3579,6956,12,2020-10-22,34.30828379,-118.2282411
California,Madera,4945,17,74,1,2020-10-22,37.21513971,-119.76655890000002
California,Marin,7038,2,128,1,2020-10-22,38.07122463,-122.7210631
California,Mariposa,78,0,2,0,2020-10-22,37.57978556,-119.9073334
California,Mendocino,1118,7,21,0,2020-10-22,39.4381191,-123.3911313
California,Merced,9415,29,154,1,2020-10-22,37.18922369,-120.7209035
California,Modoc,28,1,0,0,2020-10-22,41.58965602,-120.7244817
California,Mono,176,1,2,0,2020-10-22,37.93899289,-118.8872409
California,Monterey,11225,67,86,2,2020-10-22,36.21862405,-121.2413397
California,Napa,1918,10,15,1,2020-10-22,38.50735751,-122.332839
California,Nevada,601,3,8,0,2020-10-22,39.30394768,-120.7627281
California,Orange,57848,213,1434,11,2020-10-22,33.70147516,-117.76459979999998
California,Placer,4052,29,57,2,2020-10-22,39.06167234,-120.7240569
California,Plumas,63,2,0,0,2020-10-22,40.00355989,-120.8395236
California,Riverside,65386,330,1279,4,2020-10-22,33.74314981,-115.9933578
California,Sacramento,24957,146,480,6,2020-10-22,38.45106826,-121.3425374
California,San Benito,1419,8,15,1,2020-10-22,36.60308176,-121.069975
California,San Bernardino,61550,605,1070,5,2020-10-22,34.84060306,-116.1774685
California,San Diego,53498,235,866,3,2020-10-22,33.03484597,-116.7365326
California,San Joaquin,21473,37,488,4,2020-10-22,37.93433732,-121.2730061
California,San Luis Obispo,4092,12,32,0,2020-10-22,35.38822029,-120.4039028
California,San Mateo,10961,43,157,0,2020-10-22,37.4228808,-122.32755459999998
California,Santa Barbara,9688,17,119,0,2020-10-22,34.65329488,-120.0188492
California,Santa Clara,23679,88,385,3,2020-10-22,37.23104908,-121.6970462
California,Santa Cruz,2744,19,25,1,2020-10-22,37.05580291,-122.0066524
California,Shasta,1839,53,30,1,2020-10-22,40.76391419,-122.0396884
California,Sierra,6,0,0,0,2020-10-22,39.57713498,-120.52007009999998
California,Siskiyou,187,1,0,0,2020-10-22,41.59198861,-122.5407434
California,Solano,7249,44,74,0,2020-10-22,38.26827353,-121.9357113
California,Sonoma,9099,83,134,0,2020-10-22,38.52746429,-122.8862506
California,Stanislaus,17455,52,395,1,2020-10-22,37.55862499,-120.9970722
California,Sutter,1830,9,12,0,2020-10-22,39.03417539,-121.6945899
California,Tehama,824,31,8,0,2020-10-22,40.12570935,-122.2370171
California,Trinity,25,0,0,0,2020-10-22,40.64917670000001,-123.114713
California,Tulare,17365,48,282,3,2020-10-22,36.22026558,-118.8020203
California,Tuolumne,258,1,4,0,2020-10-22,38.02644018,-119.9525093
California,Ventura,14050,120,160,0,2020-10-22,34.44465746,-119.0910613
California,Yolo,3119,20,58,0,2020-10-22,38.68278902,-121.9018288
California,Yuba,1288,8,10,0,2020-10-22,39.26255932,-121.3535644
Colorado,Adams,12677,269,249,0,2020-10-22,39.87432092,-104.3362578
Colorado,Alamosa,292,0,9,0,2020-10-22,37.57250606,-105.7885451
Colorado,Arapahoe,11661,132,377,0,2020-10-22,39.64977461,-104.3353617
Colorado,Archuleta,61,0,0,0,2020-10-22,37.19474156,-107.0476867
Colorado,Baca,27,2,0,0,2020-10-22,37.31940883,-102.5603223
Colorado,Bent,13,1,0,0,2020-10-22,37.95474293,-103.0720195
Colorado,Boulder,5198,57,84,0,2020-10-22,40.09313619,-105.3546767
Colorado,Chaffee,375,1,20,0,2020-10-22,38.74745778,-106.19265729999998
Colorado,Cheyenne,14,0,0,0,2020-10-22,38.82777431,-102.6032558
Colorado,Clear Creek,64,1,1,0,2020-10-22,39.68864463,-105.6463118
Colorado,Conejos,62,1,0,0,2020-10-22,37.201606,-106.19174879999998
Colorado,Costilla,35,0,1,0,2020-10-22,37.27732493,-105.4276548
Colorado,Crowley,83,0,1,0,2020-10-22,38.32608609,-103.7844965
Colorado,Custer,19,0,0,0,2020-10-22,38.10883162,-105.3683478
Colorado,Delta,198,2,4,0,2020-10-22,38.86246243,-107.8631342
Colorado,Dolores,3,0,0,0,2020-10-22,37.75208676,-108.5211585
Colorado,Douglas,3472,38,64,0,2020-10-22,39.33133796,-104.930001
Colorado,Eagle,1379,13,10,0,2020-10-22,39.62754308,-106.6933637
Colorado,Elbert,191,1,3,0,2020-10-22,39.28656773,-104.1358721
Colorado,El Paso,9172,169,194,2,2020-10-22,38.83240149,-104.5251411
Colorado,Fremont,602,53,1,0,2020-10-22,38.47362326,-105.4399667
Colorado,Garfield,1107,20,5,0,2020-10-22,39.59921777,-107.902708
Colorado,Gilpin,27,1,0,0,2020-10-22,39.85646523,-105.5252597
Colorado,Grand,142,1,1,0,2020-10-22,40.10603347,-106.1178042
Colorado,Gunnison,305,1,7,0,2020-10-22,38.66611652,-107.0320729
Colorado,Hinsdale,3,0,0,0,2020-10-22,37.82247444,-107.3004345
Colorado,Huerfano,29,0,2,0,2020-10-22,37.68473101,-104.9612585
Colorado,Jackson,9,0,0,0,2020-10-22,40.66593870000001,-106.3408905
Colorado,Jefferson,7599,107,301,0,2020-10-22,39.58635604,-105.2517692
Colorado,Kiowa,3,0,0,0,2020-10-22,38.43260896,-102.7392145
Colorado,Kit Carson,114,5,3,0,2020-10-22,39.30497777,-102.6022199
Colorado,Lake,122,0,0,0,2020-10-22,39.20278823,-106.3555697
Colorado,La Plata,331,0,2,0,2020-10-22,37.28632032,-107.8429014
Colorado,Larimer,3718,78,55,0,2020-10-22,40.66671597,-105.4625784
Colorado,Las Animas,65,0,1,0,2020-10-22,37.3153406,-104.0376458
Colorado,Lincoln,24,0,0,0,2020-10-22,38.98749519,-103.5136649
Colorado,Logan,1129,11,10,0,2020-10-22,40.7249637,-103.110817
Colorado,Mesa,1117,26,8,0,2020-10-22,39.01787888,-108.469799
Colorado,Mineral,21,0,0,0,2020-10-22,37.66954283,-106.9281698
Colorado,Moffat,56,0,1,0,2020-10-22,40.61810999,-108.2070876
Colorado,Montezuma,187,2,5,0,2020-10-22,37.33859579,-108.5958857
Colorado,Montrose,431,3,13,0,2020-10-22,38.40214114,-108.26390220000002
Colorado,Morgan,829,2,48,0,2020-10-22,40.26279810000001,-103.8093302
Colorado,Otero,122,3,6,0,2020-10-22,37.9014485,-103.7173385
Colorado,Ouray,34,0,2,0,2020-10-22,38.14717457,-107.7675136
Colorado,Park,88,3,1,0,2020-10-22,39.120926,-105.7182065
Colorado,Phillips,42,2,0,0,2020-10-22,40.59414277,-102.3577703
Colorado,Pitkin,271,10,2,0,2020-10-22,39.21720112,-106.9310027
Colorado,Prowers,138,1,0,0,2020-10-22,37.95544985,-102.3926052
Colorado,Pueblo,1725,28,40,0,2020-10-22,38.17359144,-104.5127437
Colorado,Rio Blanco,27,1,0,0,2020-10-22,39.97913541,-108.2179009
Colorado,Rio Grande,115,0,3,1,2020-10-22,37.5836865,-106.3847838
Colorado,Routt,197,1,8,0,2020-10-22,40.48596505,-106.9905548
Colorado,Saguache,128,4,2,0,2020-10-22,38.08054629,-106.282466
Colorado,San Juan,7,0,0,0,2020-10-22,37.76248981,-107.67632890000002
Colorado,San Miguel,100,0,0,0,2020-10-22,38.00450883,-108.4020725
Colorado,Sedgwick,38,4,1,0,2020-10-22,40.87595412,-102.3519227
Colorado,Summit,620,16,4,0,2020-10-22,39.63803232,-106.1150762
Colorado,Teller,201,1,4,0,2020-10-22,38.88133511,-105.1614893
Colorado,Washington,83,1,0,0,2020-10-22,39.97015535,-103.202587
Colorado,Weld,5639,76,159,1,2020-10-22,40.55499405,-104.3929621
Colorado,Yuma,204,3,1,0,2020-10-22,40.00346839,-102.4258673
Connecticut,Fairfield,22088,190,1429,0,2020-10-22,41.26809896,-73.3881171
Connecticut,Hartford,16911,116,1459,0,2020-10-22,41.80283011,-72.73103891
Connecticut,Litchfield,2086,22,143,0,2020-10-22,41.7937534,-73.2451475
Connecticut,Middlesex,1853,15,196,0,2020-10-22,41.45949668,-72.53714864
Connecticut,New Haven,15952,76,1122,1,2020-10-22,41.4080325,-72.93620426
Connecticut,New London,3386,57,135,1,2020-10-22,41.48896435,-72.10430976
Connecticut,Tolland,1655,17,68,0,2020-10-22,41.85853803,-72.3308481
Connecticut,Windham,1305,25,17,0,2020-10-22,41.82972709,-71.98182316
Delaware,Kent,3376,12,119,0,2020-10-22,39.08646628,-75.56884914
Delaware,New Castle,12401,90,335,0,2020-10-22,39.57992638,-75.64054974
Delaware,Sussex,7660,51,216,0,2020-10-22,38.66143781,-75.39031349
Florida,Alachua,9807,191,74,0,2020-10-22,29.67866525,-82.35928158
Florida,Baker,1723,14,18,1,2020-10-22,30.33060121,-82.28467476
Florida,Bay,6579,67,132,0,2020-10-22,30.26548745,-85.62122584
Florida,Bradford,1214,7,15,3,2020-10-22,29.95079741,-82.16611613
Florida,Brevard,10747,151,352,0,2020-10-22,28.29409504,-80.73091022
Florida,Broward,82250,546,1519,0,2020-10-22,26.15184651,-80.48725556
Florida,Calhoun,697,16,14,0,2020-10-22,30.40666734,-85.19394153
Florida,Charlotte,3440,36,156,0,2020-10-22,26.90131002,-81.92949121
Florida,Citrus,3091,21,130,-1,2020-10-22,28.84804315,-82.47614748
Florida,Clay,5868,55,117,0,2020-10-22,29.98319144,-81.85609986
Florida,Collier,13864,102,249,0,2020-10-22,26.11091986,-81.34687065
Florida,Columbia,4158,22,71,0,2020-10-22,30.22509788,-82.62160164
Florida,DeSoto,1641,5,29,0,2020-10-22,27.18677893,-81.80941373
Florida,Dixie,879,7,11,0,2020-10-22,29.60631086,-83.15724673
Florida,Duval,33676,416,512,0,2020-10-22,30.33225875,-81.66976468
Florida,Escambia,13130,70,269,0,2020-10-22,30.67652764,-87.37284571
Florida,Flagler,2035,37,37,0,2020-10-22,29.45933576,-81.31508595
Florida,Franklin,737,15,4,0,2020-10-22,29.83791238,-84.82731662
Florida,Gadsden,3038,4,54,0,2020-10-22,30.57796289,-84.61915825
Florida,Gilchrist,600,9,18,0,2020-10-22,29.72856978,-82.79880657
Florida,Glades,593,2,6,0,2020-10-22,26.95635849,-81.18996211
Florida,Gulf,931,3,15,0,2020-10-22,29.93543004,-85.24270990000002
Florida,Hamilton,894,4,9,0,2020-10-22,30.49673973,-82.94998918
Florida,Hardee,1558,11,16,2,2020-10-22,27.49293939,-81.80956574
Florida,Hendry,2172,3,43,0,2020-10-22,26.55386945,-81.16469006
Florida,Hernando,3531,38,165,3,2020-10-22,28.55364461,-82.42700204
Florida,Highlands,2499,21,111,6,2020-10-22,27.34254618,-81.34071957
Florida,Hillsborough,46300,352,755,0,2020-10-22,27.9276559,-82.32013172
Florida,Holmes,860,9,12,0,2020-10-22,30.86747479,-85.81319222
Florida,Indian River,3614,31,123,0,2020-10-22,27.69308961,-80.60556721
Florida,Jackson,3082,15,83,0,2020-10-22,30.7954597,-85.21500423
Florida,Jefferson,640,7,9,0,2020-10-22,30.43669112,-83.89442308
Florida,Lafayette,1265,0,15,0,2020-10-22,29.98484137,-83.18166636
Florida,Lake,8336,70,227,9,2020-10-22,28.76202069,-81.7125123
Florida,Lee,22341,143,500,1,2020-10-22,26.58410348,-81.88399313
Florida,Leon,11854,84,101,0,2020-10-22,30.45955727,-84.27491114
Florida,Levy,1111,7,12,0,2020-10-22,29.31829741,-82.74007147
Florida,Liberty,530,1,10,0,2020-10-22,30.23766008,-84.8829258
Florida,Madison,1068,1,24,0,2020-10-22,30.44396917,-83.47398594
Florida,Manatee,12761,87,324,1,2020-10-22,27.47196942,-82.31831044
Florida,Marion,10593,71,342,3,2020-10-22,29.21227113,-82.05803627
Florida,Martin,5227,26,163,-1,2020-10-22,27.0772071,-80.43109784
Florida,Miami-Dade,180497,853,3585,13,2020-10-22,25.6112362,-80.55170587
Florida,Monroe,2131,30,25,0,2020-10-22,25.20904673,-81.07812416
Florida,Nassau,2387,27,50,0,2020-10-22,30.61037141,-81.80297522
Florida,Okaloosa,5977,83,129,0,2020-10-22,30.69143028,-86.59267105
Florida,Okeechobee,1695,12,37,0,2020-10-22,27.386336199999995,-80.88944347
Florida,Orange,44435,323,532,-1,2020-10-22,28.51367621,-81.31799498
Florida,Osceola,13703,75,186,0,2020-10-22,28.06312234,-81.14882926
Florida,Palm Beach,49759,379,1549,-4,2020-10-22,26.64676272,-80.46536002
Florida,Pasco,10406,90,227,0,2020-10-22,28.30810945,-82.40227529
Florida,Pinellas,24650,228,812,7,2020-10-22,27.93130349,-82.72239666
Florida,Polk,22256,195,593,0,2020-10-22,27.95027105,-81.69732947
Florida,Putnam,2323,29,50,0,2020-10-22,29.60779729,-81.74230285
Florida,St. Johns,6150,66,78,0,2020-10-22,29.90096506,-81.43589967
Florida,St. Lucie,8753,53,323,2,2020-10-22,27.37763908,-80.47106649
Florida,Santa Rosa,5789,33,86,0,2020-10-22,30.693414500000006,-87.02458128
Florida,Sarasota,9235,79,327,1,2020-10-22,27.18546175,-82.33174248
Florida,Seminole,9894,76,236,0,2020-10-22,28.7158582,-81.24060348
Florida,Sumter,2802,18,83,0,2020-10-22,28.70181754,-82.0794267
Florida,Suwannee,2949,9,78,0,2020-10-22,30.19746066,-82.99099670000003
Florida,Taylor,1435,3,16,0,2020-10-22,30.04848048,-83.60445406
Florida,Union,1106,14,41,12,2020-10-22,30.04412971,-82.37497443
Florida,Volusia,12180,100,315,0,2020-10-22,29.05858895,-81.18263252
Florida,Wakulla,1283,16,10,0,2020-10-22,30.16548905,-84.39895211
Florida,Walton,2305,29,29,0,2020-10-22,30.64204028,-86.16935664
Florida,Washington,1196,12,24,0,2020-10-22,30.61359259,-85.66002461
Georgia,Appling,1147,7,36,1,2020-10-22,31.74847232,-82.28909114
Georgia,Atkinson,476,1,5,0,2020-10-22,31.29633502,-82.87545866
Georgia,Bacon,629,-3,15,1,2020-10-22,31.55456473,-82.45936528
Georgia,Baker,89,1,6,0,2020-10-22,31.32669878,-84.44218806
Georgia,Baldwin,2267,7,63,0,2020-10-22,33.06882326,-83.24701748
Georgia,Banks,544,0,8,0,2020-10-22,34.35607081,-83.49644388
Georgia,Barrow,2528,10,50,0,2020-10-22,33.99148694,-83.71436292
Georgia,Bartow,3484,41,94,0,2020-10-22,34.23732119,-84.83887523
Georgia,Ben Hill,859,8,34,2,2020-10-22,31.76095874,-83.22145359
Georgia,Berrien,484,2,12,0,2020-10-22,31.27590016,-83.22529920000002
Georgia,Bibb,6520,21,190,0,2020-10-22,32.80904227,-83.70489165
Georgia,Bleckley,503,2,23,2,2020-10-22,32.43829035,-83.33035166
Georgia,Brantley,419,7,13,0,2020-10-22,31.19576557,-81.97743999
Georgia,Brooks,549,1,27,0,2020-10-22,30.83922642,-83.58303423
Georgia,Bryan,1285,2,14,0,2020-10-22,32.00979311,-81.44002948
Georgia,Bulloch,3037,7,33,0,2020-10-22,32.39577406,-81.74811421
Georgia,Burke,873,2,12,0,2020-10-22,33.05917989,-81.99928721
Georgia,Butts,728,3,43,0,2020-10-22,33.283094500000004,-83.95435040000002
Georgia,Calhoun,263,1,9,0,2020-10-22,31.53169785,-84.62725131
Georgia,Camden,1393,3,17,0,2020-10-22,30.92951916,-81.66601818
Georgia,Candler,529,2,24,0,2020-10-22,32.40209349,-82.07702563
Georgia,Carroll,3243,35,75,0,2020-10-22,33.58138199,-85.07976677
Georgia,Catoosa,1368,7,21,1,2020-10-22,34.89872298,-85.13757014
Georgia,Charlton,644,0,10,0,2020-10-22,30.78371028,-82.13951596
Georgia,Chatham,9245,25,186,0,2020-10-22,32.00043026,-81.12489526
Georgia,Chattahoochee,1735,0,1,0,2020-10-22,32.34341231,-84.78809239
Georgia,Chattooga,902,14,28,0,2020-10-22,34.47197698,-85.34535662
Georgia,Cherokee,6881,61,100,0,2020-10-22,34.24393976,-84.47431861
Georgia,Clarke,5624,28,46,0,2020-10-22,33.95436462,-83.37124007
Georgia,Clay,124,0,3,0,2020-10-22,31.62221166,-84.97713865
Georgia,Clayton,7983,35,175,0,2020-10-22,33.54187245,-84.35594188
Georgia,Clinch,436,4,12,0,2020-10-22,30.91395822,-82.70432472
Georgia,Cobb,21453,86,449,0,2020-10-22,33.94243204,-84.5761255
Georgia,Coffee,2215,15,60,0,2020-10-22,31.54892966,-82.85492059999999
Georgia,Colquitt,2097,3,39,0,2020-10-22,31.18810588,-83.7677946
Georgia,Columbia,4253,27,64,0,2020-10-22,33.54534185,-82.263524
Georgia,Cook,578,3,16,0,2020-10-22,31.16068491,-83.42947229
Georgia,Coweta,2893,12,63,1,2020-10-22,33.35334302,-84.76129976
Georgia,Crawford,191,1,6,0,2020-10-22,32.71391813,-83.98061238
Georgia,Crisp,635,0,23,0,2020-10-22,31.92289565,-83.76811843
Georgia,Dade,337,2,5,0,2020-10-22,34.854916700000004,-85.50490424
Georgia,Dawson,900,3,10,0,2020-10-22,34.44244079,-84.16964071
Georgia,Decatur,1273,5,34,0,2020-10-22,30.87967778,-84.57619536
Georgia,DeKalb,20583,101,393,2,2020-10-22,33.76944049,-84.22396017
Georgia,Dodge,563,19,14,0,2020-10-22,32.17265114,-83.16948926
Georgia,Dooly,364,2,16,0,2020-10-22,32.15630737,-83.79746561
Georgia,Dougherty,3282,5,190,0,2020-10-22,31.53328528,-84.21722377
Georgia,Douglas,4002,19,72,0,2020-10-22,33.70291126,-84.77026156
Georgia,Early,537,2,35,1,2020-10-22,31.32155345,-84.90255207
Georgia,Echols,244,1,2,0,2020-10-22,30.71101099,-82.89687287
Georgia,Effingham,1745,12,27,-1,2020-10-22,32.36616021,-81.34280942
Georgia,Elbert,758,4,9,0,2020-10-22,34.11302332,-82.83936148
Georgia,Emanuel,1176,5,36,0,2020-10-22,32.59221302,-82.30239915
Georgia,Evans,475,4,6,0,2020-10-22,32.15328841,-81.8870105
Georgia,Fannin,802,16,28,0,2020-10-22,34.86430205,-84.316964
Georgia,Fayette,2087,14,56,1,2020-10-22,33.41357794,-84.49089434
Georgia,Floyd,3785,75,57,0,2020-10-22,34.26268279,-85.21577392
Georgia,Forsyth,4607,20,52,0,2020-10-22,34.22604035,-84.12315129999998
Georgia,Franklin,862,6,17,0,2020-10-22,34.37525597,-83.23159927
Georgia,Fulton,30264,123,613,1,2020-10-22,33.79216944,-84.46319413
Georgia,Gilmer,1004,7,22,1,2020-10-22,34.69316688,-84.45802506
Georgia,Glascock,46,3,2,0,2020-10-22,33.22879932,-82.61297636
Georgia,Glynn,3666,16,104,1,2020-10-22,31.23279254,-81.53811412
Georgia,Gordon,2262,27,43,0,2020-10-22,34.50487351,-84.87296253
Georgia,Grady,846,1,25,0,2020-10-22,30.87454847,-84.23418364
Georgia,Greene,561,3,25,0,2020-10-22,33.5769205,-83.17139104
Georgia,Gwinnett,29959,43,438,2,2020-10-22,33.96044201,-84.02137802
Georgia,Habersham,1856,16,75,0,2020-10-22,34.63331566,-83.53094677
Georgia,Hall,10485,41,172,2,2020-10-22,34.32207823,-83.81896936
Georgia,Hancock,412,0,44,0,2020-10-22,33.2721566,-82.99766919
Georgia,Haralson,616,6,10,0,2020-10-22,33.79602175,-85.21005667
Georgia,Harris,847,4,25,0,2020-10-22,32.73709786,-84.90538572
Georgia,Hart,564,3,16,0,2020-10-22,34.34626973,-82.96567682
Georgia,Heard,217,4,6,0,2020-10-22,33.29686567,-85.12886832
Georgia,Henry,5999,25,111,0,2020-10-22,33.4533428,-84.14814659999998
Georgia,Houston,3514,32,91,0,2020-10-22,32.45802497,-83.66879087
Georgia,Irwin,351,1,6,0,2020-10-22,31.60213036,-83.27501387
Georgia,Jackson,2307,13,40,0,2020-10-22,34.13794553,-83.56814788
Georgia,Jasper,241,0,4,0,2020-10-22,33.31535543,-83.68844964
Georgia,Jeff Davis,782,5,23,1,2020-10-22,31.80405727,-82.63724870000001
Georgia,Jefferson,844,4,32,0,2020-10-22,33.05867328,-82.41609057
Georgia,Jenkins,462,0,32,0,2020-10-22,32.79248718,-81.96040187
Georgia,Johnson,439,0,22,0,2020-10-22,32.70211082,-82.66166794
Georgia,Jones,635,4,15,0,2020-10-22,33.02512137,-83.56019163
Georgia,Lamar,402,-1,19,0,2020-10-22,33.07841647,-84.14263877
Georgia,Lanier,316,2,7,0,2020-10-22,31.038285700000007,-83.06472457
Georgia,Laurens,1939,18,86,0,2020-10-22,32.46325233,-82.92221316
Georgia,Lee,743,3,27,0,2020-10-22,31.779330600000005,-84.14324253
Georgia,Liberty,1218,4,25,1,2020-10-22,31.82588896,-81.49251135
Georgia,Lincoln,228,1,7,0,2020-10-22,33.79201475,-82.45024131
Georgia,Long,273,1,4,0,2020-10-22,31.75218791,-81.74952375
Georgia,Lowndes,4382,25,85,0,2020-10-22,30.83568832,-83.27056716
Georgia,Lumpkin,1028,6,14,0,2020-10-22,34.57286511,-84.00425681
Georgia,McDuffie,669,2,15,0,2020-10-22,33.47851918,-82.48252774
Georgia,McIntosh,303,1,7,0,2020-10-22,31.49683595,-81.40163426
Georgia,Macon,246,1,10,0,2020-10-22,32.35207048,-84.04234127
Georgia,Madison,769,3,11,0,2020-10-22,34.12920917,-83.21218732
Georgia,Marion,196,0,9,0,2020-10-22,32.3483402,-84.52733571
Georgia,Meriwether,582,2,16,0,2020-10-22,33.04163534,-84.68859732
Georgia,Miller,302,3,2,0,2020-10-22,31.16568912,-84.73151117
Georgia,Mitchell,846,1,45,0,2020-10-22,31.22483255,-84.19381821
Georgia,Monroe,747,-2,53,-1,2020-10-22,33.014289,-83.92097166
Georgia,Montgomery,364,1,9,0,2020-10-22,32.17201038,-82.53527476
Georgia,Morgan,519,3,5,0,2020-10-22,33.59232073,-83.49129491
Georgia,Murray,996,22,9,1,2020-10-22,34.78897608,-84.74993177
Georgia,Muscogee,6304,7,173,0,2020-10-22,32.50931999,-84.87142262
Georgia,Newton,2815,12,94,0,2020-10-22,33.55514538,-83.84547140000002
Georgia,Oconee,843,5,27,0,2020-10-22,33.83749973,-83.43679568
Georgia,Oglethorpe,398,4,11,0,2020-10-22,33.878629600000004,-83.08278123
Georgia,Paulding,3065,15,60,0,2020-10-22,33.91969522,-84.86848792
Georgia,Peach,749,5,24,0,2020-10-22,32.56934316,-83.82937
Georgia,Pickens,727,7,10,0,2020-10-22,34.46589159,-84.46406611
Georgia,Pierce,655,4,24,0,2020-10-22,31.35928155,-82.21598442
Georgia,Pike,380,3,12,0,2020-10-22,33.09310242,-84.38790389
Georgia,Polk,1683,34,26,1,2020-10-22,34.00267074,-85.18677781
Georgia,Pulaski,330,1,23,0,2020-10-22,32.23334561,-83.47549959999998
Georgia,Putnam,777,1,27,0,2020-10-22,33.32056115,-83.37552891
Georgia,Quitman,38,0,1,0,2020-10-22,31.86728114,-85.01773177
Georgia,Rabun,417,0,11,0,2020-10-22,34.88389445,-83.40304637
Georgia,Randolph,338,0,29,0,2020-10-22,31.76622818,-84.75732369
Georgia,Richmond,7816,40,175,0,2020-10-22,33.35777107,-82.07026432
Georgia,Rockdale,2049,5,40,0,2020-10-22,33.65145002,-84.02202167
Georgia,Schley,109,0,2,0,2020-10-22,32.2654021,-84.31258912
Georgia,Screven,446,1,11,0,2020-10-22,32.74976524,-81.60779441
Georgia,Seminole,386,2,11,0,2020-10-22,30.93464824,-84.86823924
Georgia,Spalding,1532,19,62,0,2020-10-22,33.26310031,-84.28013991
Georgia,Stephens,1258,3,41,0,2020-10-22,34.55151201,-83.29405315
Georgia,Stewart,534,0,16,0,2020-10-22,32.07996777,-84.83208037
Georgia,Sumter,959,1,69,0,2020-10-22,32.03650571,-84.19821492
Georgia,Talbot,170,1,7,0,2020-10-22,32.69642758,-84.53351366
Georgia,Taliaferro,25,0,0,0,2020-10-22,33.56543317,-82.88136816
Georgia,Tattnall,914,4,13,0,2020-10-22,32.04785085,-82.05539188
Georgia,Taylor,226,1,12,0,2020-10-22,32.55792548,-84.25077141
Georgia,Telfair,435,4,23,0,2020-10-22,31.92829517,-82.93491155
Georgia,Terrell,338,0,32,0,2020-10-22,31.77527543,-84.44069698
Georgia,Thomas,1582,3,69,0,2020-10-22,30.86392347,-83.91847289
Georgia,Tift,1924,4,63,0,2020-10-22,31.45743864,-83.5236119
Georgia,Toombs,1463,8,57,1,2020-10-22,32.12059861,-82.32957247
Georgia,Towns,418,5,12,0,2020-10-22,34.91369188,-83.74107459999998
Georgia,Treutlen,292,-3,11,0,2020-10-22,32.40422134,-82.56904553
Georgia,Troup,2995,8,106,0,2020-10-22,33.03349196,-85.02812115
Georgia,Turner,332,0,24,0,2020-10-22,31.71612656,-83.62069378
Georgia,Twiggs,214,3,9,0,2020-10-22,32.67435595,-83.43078662
Georgia,Union,871,8,25,0,2020-10-22,34.82995757,-83.98967069
Georgia,Upson,829,0,69,0,2020-10-22,32.87920671,-84.30024826
Georgia,Walker,1801,6,43,0,2020-10-22,34.73376362,-85.30165174
Georgia,Walton,2218,75,66,0,2020-10-22,33.78017694,-83.73552314
Georgia,Ware,1720,3,62,0,2020-10-22,31.05449097,-82.42224148
Georgia,Warren,163,0,5,0,2020-10-22,33.41146451,-82.67795848
Georgia,Washington,742,5,13,0,2020-10-22,32.96711864,-82.79357039
Georgia,Wayne,1209,4,30,0,2020-10-22,31.5521809,-81.91894878
Georgia,Webster,44,0,2,0,2020-10-22,32.04066113,-84.54742852
Georgia,Wheeler,359,3,16,0,2020-10-22,32.12009104,-82.72574721
Georgia,White,993,2,23,0,2020-10-22,34.64624278,-83.74905525
Georgia,Whitfield,5228,53,64,1,2020-10-22,34.80987459,-84.96093476
Georgia,Wilcox,251,0,25,0,2020-10-22,31.97496928,-83.43438555
Georgia,Wilkes,283,1,6,0,2020-10-22,33.78290391,-82.74286107
Georgia,Wilkinson,361,1,17,0,2020-10-22,32.80291082,-83.17140684
Georgia,Worth,602,1,32,0,2020-10-22,31.55162306,-83.85090513
Idaho,Ada,15746,250,160,2,2020-10-22,43.4526575,-116.24155159999998
Idaho,Adams,32,0,2,0,2020-10-22,44.89333571,-116.4545247
Idaho,Bannock,2117,61,10,0,2020-10-22,42.67002716,-112.2233311
Idaho,Bear Lake,66,2,1,0,2020-10-22,42.28269683,-111.32892379999998
Idaho,Benewah,168,1,3,0,2020-10-22,47.21754179,-116.6586851
Idaho,Bingham,1481,38,15,0,2020-10-22,43.21672879999999,-112.3978437
Idaho,Blaine,844,2,6,0,2020-10-22,43.4085812,-113.9752658
Idaho,Boise,75,0,2,0,2020-10-22,43.98829931,-115.7309284
Idaho,Bonner,454,4,1,0,2020-10-22,48.29996017,-116.6017932
Idaho,Bonneville,4130,62,25,0,2020-10-22,43.38713372,-111.6161537
Idaho,Boundary,121,6,1,0,2020-10-22,48.76684761,-116.4630179
Idaho,Butte,86,0,0,0,2020-10-22,43.72592209,-113.1735463
Idaho,Camas,40,1,0,0,2020-10-22,43.46665742,-114.8065892
Idaho,Canyon,9536,98,108,0,2020-10-22,43.61970148,-116.7095499
Idaho,Caribou,246,19,4,0,2020-10-22,42.77149116,-111.5597683
Idaho,Cassia,1242,21,8,0,2020-10-22,42.28347888,-113.6012409
Idaho,Clark,40,0,0,0,2020-10-22,44.28496071,-112.3505704
Idaho,Clearwater,130,2,0,0,2020-10-22,46.67459924,-115.6622393
Idaho,Custer,93,0,1,0,2020-10-22,44.24186819,-114.2855494
Idaho,Elmore,490,13,4,0,2020-10-22,43.3507101,-115.4701578
Idaho,Franklin,322,13,1,0,2020-10-22,42.18332217,-111.8149666
Idaho,Fremont,389,8,3,0,2020-10-22,44.22800938,-111.4809943
Idaho,Gem,408,7,6,1,2020-10-22,44.06482372,-116.398376
Idaho,Gooding,501,16,5,2,2020-10-22,42.96927962,-114.8108306
Idaho,Idaho,323,12,1,0,2020-10-22,45.84721541,-115.4634436
Idaho,Jefferson,895,17,3,0,2020-10-22,43.82078483,-112.3131749
Idaho,Jerome,1021,15,7,0,2020-10-22,42.68891267,-114.2655033
Idaho,Kootenai,3677,48,48,0,2020-10-22,47.67282258,-116.7020872
Idaho,Latah,862,15,0,0,2020-10-22,46.81587887,-116.7113698
Idaho,Lemhi,196,2,0,0,2020-10-22,44.9438088,-113.9309747
Idaho,Lewis,73,2,3,0,2020-10-22,46.23315327,-116.434146
Idaho,Lincoln,150,7,0,0,2020-10-22,43.0012336,-114.1358773
Idaho,Madison,2236,31,2,0,2020-10-22,43.78141028,-111.65384740000002
Idaho,Minidoka,1113,10,8,0,2020-10-22,42.85518524,-113.6357257
Idaho,Nez Perce,725,35,24,0,2020-10-22,46.32638236,-116.7500975
Idaho,Oneida,38,1,0,0,2020-10-22,42.19494279999999,-112.5407838
Idaho,Owyhee,380,2,5,0,2020-10-22,42.58016894,-116.1693871
Idaho,Payette,1098,9,10,0,2020-10-22,44.00545243,-116.7647695
Idaho,Power,353,11,2,0,2020-10-22,42.69254894,-112.83957420000002
Idaho,Shoshone,245,4,20,0,2020-10-22,47.35364087,-115.8916749
Idaho,Teton,273,5,2,0,2020-10-22,43.75303583,-111.2056773
Idaho,Twin Falls,3637,97,43,1,2020-10-22,42.35440512,-114.6685381
Idaho,Valley,111,1,1,0,2020-10-22,44.76728382,-115.5676773
Idaho,Washington,434,3,8,1,2020-10-22,44.45275475,-116.7847688
Illinois,Adams,1730,29,15,0,2020-10-22,39.98815591,-91.18786813
Illinois,Alexander,113,3,1,0,2020-10-22,37.18049267,-89.32910838
Illinois,Bond,483,3,9,0,2020-10-22,38.88829622,-89.43534887
Illinois,Boone,1774,65,25,0,2020-10-22,42.32359279,-88.82345779
Illinois,Brown,103,0,0,0,2020-10-22,39.96209138,-90.75068024
Illinois,Bureau,879,13,17,0,2020-10-22,41.40385234,-89.5283051
Illinois,Calhoun,67,0,0,0,2020-10-22,39.16840183,-90.66330078
Illinois,Carroll,383,11,9,1,2020-10-22,42.06823429,-89.93395545
Illinois,Cass,455,2,11,0,2020-10-22,39.96991073,-90.24734436
Illinois,Champaign,5893,74,28,0,2020-10-22,40.13919438,-88.20046615
Illinois,Christian,800,6,27,1,2020-10-22,39.54581621,-89.27780482
Illinois,Clark,292,4,10,0,2020-10-22,39.33425789,-87.78705622
Illinois,Clay,298,7,13,1,2020-10-22,38.75388572,-88.48914513
Illinois,Clinton,1687,24,25,0,2020-10-22,38.60704876,-89.42385254
Illinois,Coles,1828,6,38,0,2020-10-22,39.51949084,-88.22358557
Illinois,Cook,170039,1900,5390,8,2020-10-22,41.84144849,-87.81658794
Illinois,Crawford,639,3,6,0,2020-10-22,39.0032229,-87.75954624
Illinois,Cumberland,262,2,6,0,2020-10-22,39.27432424,-88.2401158
Illinois,DeKalb,2213,45,42,0,2020-10-22,41.89373302,-88.76958483
Illinois,De Witt,248,2,4,1,2020-10-22,40.17514519,-88.90959682
Illinois,Douglas,604,20,8,0,2020-10-22,39.76768052,-88.21854195
Illinois,DuPage,21776,306,605,2,2020-10-22,41.85116968,-88.08642662
Illinois,Edgar,150,4,8,0,2020-10-22,39.6809186,-87.74759563
Illinois,Edwards,101,0,0,0,2020-10-22,38.41353228,-88.05720863
Illinois,Effingham,1121,18,4,1,2020-10-22,39.05935711,-88.58969584
Illinois,Fayette,660,8,22,0,2020-10-22,39.00072038,-89.02452658
Illinois,Ford,187,1,11,0,2020-10-22,40.59706922,-88.22350769
Illinois,Franklin,913,25,8,0,2020-10-22,37.99189086,-88.92567818
Illinois,Fulton,460,14,1,0,2020-10-22,40.47289135,-90.20862357
Illinois,Gallatin,106,0,2,0,2020-10-22,37.76430935,-88.22953869
Illinois,Greene,280,4,15,0,2020-10-22,39.35907414,-90.388865
Illinois,Grundy,923,20,7,0,2020-10-22,41.28569601,-88.41905692
Illinois,Hamilton,114,1,2,0,2020-10-22,38.08163641,-88.53883373
Illinois,Hancock,292,4,4,0,2020-10-22,40.40423981,-91.16313899
Illinois,Hardin,53,3,0,0,2020-10-22,37.51810645,-88.26873022
Illinois,Henderson,121,6,0,0,2020-10-22,40.81908672,-90.92491462
Illinois,Henry,820,10,7,0,2020-10-22,41.3533994,-90.13296166
Illinois,Iroquois,468,4,19,0,2020-10-22,40.74717633,-87.82466784
Illinois,Jackson,1491,29,26,0,2020-10-22,37.78595185,-89.38232563
Illinois,Jasper,258,1,10,0,2020-10-22,39.01054275,-88.15437049
Illinois,Jefferson,888,2,45,1,2020-10-22,38.29980057,-88.9240025
Illinois,Jersey,467,5,21,0,2020-10-22,39.08869046,-90.35393073
Illinois,Jo Daviess,461,15,7,0,2020-10-22,42.36542373,-90.21094405
Illinois,Johnson,332,5,0,0,2020-10-22,37.45939802,-88.88165419
Illinois,Kane,16038,236,345,1,2020-10-22,41.93842729,-88.42861412
Illinois,Kankakee,3288,64,78,0,2020-10-22,41.13746989,-87.86205334
Illinois,Kendall,2555,34,28,-1,2020-10-22,41.59081014,-88.42869583
Illinois,Knox,1190,9,16,4,2020-10-22,40.93148779,-90.21330340000002
Illinois,Lake,20042,186,507,0,2020-10-22,42.3224907,-88.00367925
Illinois,LaSalle,2281,46,61,1,2020-10-22,41.34426129999999,-88.88633881
Illinois,Lawrence,323,6,8,0,2020-10-22,38.71987914,-87.72884035
Illinois,Lee,658,17,1,0,2020-10-22,41.74583951,-89.29977132
Illinois,Livingston,597,11,10,0,2020-10-22,40.89188292,-88.55784752
Illinois,Logan,566,13,4,0,2020-10-22,40.12581572,-89.36638784
Illinois,McDonough,708,21,17,1,2020-10-22,40.45674722,-90.67775541
Illinois,McHenry,5943,140,120,0,2020-10-22,42.32451172,-88.45248227
Illinois,McLean,3997,30,31,0,2020-10-22,40.48996987,-88.84621113
Illinois,Macon,2794,61,49,0,2020-10-22,39.86064913,-88.96342505
Illinois,Macoupin,760,9,10,0,2020-10-22,39.26119767,-89.92424028
Illinois,Madison,6957,64,153,0,2020-10-22,38.83042506,-89.90422563
Illinois,Marion,896,5,17,1,2020-10-22,38.64963204,-88.91899208
Illinois,Marshall,142,1,3,0,2020-10-22,41.0327901,-89.34510444
Illinois,Mason,294,55,1,0,2020-10-22,40.23917274,-89.91824452
Illinois,Massac,146,5,2,0,2020-10-22,37.22078441,-88.71036614
Illinois,Menard,171,6,1,0,2020-10-22,40.02742725,-89.80246001
Illinois,Mercer,237,8,6,0,2020-10-22,41.20596782,-90.74290052
Illinois,Monroe,884,11,28,0,2020-10-22,38.27594376,-90.17761038
Illinois,Montgomery,587,17,15,0,2020-10-22,39.23198845,-89.47809254
Illinois,Morgan,865,11,24,0,2020-10-22,39.71654544,-90.20255104
Illinois,Moultrie,390,10,5,0,2020-10-22,39.64187451,-88.62099969
Illinois,Ogle,1137,16,7,0,2020-10-22,42.04165196,-89.32184679
Illinois,Peoria,4388,52,68,1,2020-10-22,40.78702156,-89.76078901
Illinois,Perry,415,3,16,0,2020-10-22,38.08510853,-89.36856219
Illinois,Piatt,224,4,0,0,2020-10-22,40.01360584,-88.59319339
Illinois,Pike,304,23,4,0,2020-10-22,39.62265059,-90.8877017
Illinois,Pope,38,1,1,0,2020-10-22,37.41391284,-88.56152109
Illinois,Pulaski,230,2,1,0,2020-10-22,37.22631423,-89.13085001
Illinois,Putnam,88,0,0,0,2020-10-22,41.2013541,-89.2869272
Illinois,Randolph,1220,25,15,1,2020-10-22,38.05095369,-89.82512254
Illinois,Richland,325,3,16,1,2020-10-22,38.71240969,-88.08475366
Illinois,Rock Island,3822,56,89,0,2020-10-22,41.46613806,-90.57042164
Illinois,St. Clair,7759,85,216,1,2020-10-22,38.46996033,-89.93063427
Illinois,Saline,524,13,9,0,2020-10-22,37.75332999,-88.54119706
Illinois,Sangamon,3722,96,62,1,2020-10-22,39.75836914,-89.65872023
Illinois,Schuyler,84,1,1,0,2020-10-22,40.1571798,-90.61114163
Illinois,Scott,100,2,0,0,2020-10-22,39.6429169,-90.47814431
Illinois,Shelby,631,20,11,1,2020-10-22,39.39133527,-88.80611122
Illinois,Stark,83,1,2,0,2020-10-22,41.09309773,-89.79745866
Illinois,Stephenson,865,14,7,0,2020-10-22,42.35129217,-89.662598
Illinois,Tazewell,2522,47,52,3,2020-10-22,40.50716185,-89.51404662
Illinois,Union,746,0,25,0,2020-10-22,37.47119609,-89.25548938
Illinois,Vermilion,1619,27,8,0,2020-10-22,40.18417171,-87.73384359
Illinois,Wabash,216,1,5,0,2020-10-22,38.44272901,-87.84922065
Illinois,Warren,474,7,7,0,2020-10-22,40.84925021,-90.6147432
Illinois,Washington,289,3,1,0,2020-10-22,38.35309213,-89.40982703
Illinois,Wayne,473,12,12,1,2020-10-22,38.42955355,-88.42586459
Illinois,White,248,6,2,1,2020-10-22,38.08706198,-88.17657461
Illinois,Whiteside,1297,56,25,0,2020-10-22,41.75509713,-89.91556058
Illinois,Will,17616,262,425,1,2020-10-22,41.44619267,-87.97862712
Illinois,Williamson,1800,39,59,0,2020-10-22,37.73033511,-88.92994027
Illinois,Winnebago,9736,272,179,7,2020-10-22,42.33641854,-89.16085327
Illinois,Woodford,568,10,14,0,2020-10-22,40.78579374,-89.20973757
Indiana,Adams,483,2,7,2,2020-10-22,40.7457653,-84.93671406
Indiana,Allen,8129,151,228,6,2020-10-22,41.09194313,-85.06800636
Indiana,Bartholomew,1415,18,58,0,2020-10-22,39.20744865,-85.89558181
Indiana,Benton,110,2,0,0,2020-10-22,40.60626947,-87.31093999
Indiana,Blackford,209,11,3,0,2020-10-22,40.47388153,-85.32499702
Indiana,Boone,1222,27,50,2,2020-10-22,40.0509304,-86.46841646
Indiana,Brown,139,9,3,0,2020-10-22,39.19605589,-86.22868909
Indiana,Carroll,325,8,13,0,2020-10-22,40.580783200000006,-86.56198812
Indiana,Cass,2240,12,22,0,2020-10-22,40.76135835,-86.34830753
Indiana,Clark,2939,48,61,0,2020-10-22,38.48015445,-85.70510334
Indiana,Clay,446,7,7,1,2020-10-22,39.39561833,-87.11723506
Indiana,Clinton,847,18,16,0,2020-10-22,40.30319754,-86.47277257
Indiana,Crawford,158,5,1,0,2020-10-22,38.28814402,-86.44518825
Indiana,Daviess,871,18,33,0,2020-10-22,38.70186039,-87.07185406
Indiana,Dearborn,949,21,28,0,2020-10-22,39.14647946,-84.97333539
Indiana,Decatur,504,5,39,0,2020-10-22,39.30712658,-85.50087166
Indiana,DeKalb,710,11,11,0,2020-10-22,41.39804622,-84.99906934
Indiana,Delaware,2932,87,74,0,2020-10-22,40.22787247,-85.39732772
Indiana,Dubois,1386,19,26,0,2020-10-22,38.36597551,-86.87924170000002
Indiana,Elkhart,8759,229,135,3,2020-10-22,41.59761169,-85.85875695
Indiana,Fayette,666,52,18,1,2020-10-22,39.63684962,-85.17797541
Indiana,Floyd,1791,18,67,0,2020-10-22,38.32117957,-85.90385377
Indiana,Fountain,294,6,3,0,2020-10-22,40.12361933,-87.24217689
Indiana,Franklin,372,6,25,0,2020-10-22,39.4142482,-85.06062647
Indiana,Fulton,352,5,3,1,2020-10-22,41.0469907,-86.26252745
Indiana,Gibson,871,22,11,0,2020-10-22,38.30393723,-87.58054938
Indiana,Grant,1253,27,39,0,2020-10-22,40.51587228,-85.65468702
Indiana,Greene,533,12,37,0,2020-10-22,39.03630547,-86.96223202
Indiana,Hamilton,6117,117,113,0,2020-10-22,40.07306535,-86.05244729
Indiana,Hancock,1182,26,45,0,2020-10-22,39.82304555,-85.77566351
Indiana,Harrison,762,14,24,0,2020-10-22,38.19467379,-86.10948271
Indiana,Hendricks,3268,47,133,3,2020-10-22,39.76719009,-86.51037283
Indiana,Henry,1254,20,29,0,2020-10-22,39.93029017,-85.39625719
Indiana,Howard,1624,24,66,0,2020-10-22,40.48527731,-86.11351892
Indiana,Huntington,390,10,5,0,2020-10-22,40.82907273,-85.48822092
Indiana,Jackson,1129,35,15,2,2020-10-22,38.90915820000001,-86.03851889
Indiana,Jasper,594,20,5,1,2020-10-22,41.02078733,-87.11553319
Indiana,Jay,305,11,6,0,2020-10-22,40.43781032,-85.00576229
Indiana,Jefferson,341,11,5,0,2020-10-22,38.78576239,-85.43633383
Indiana,Jennings,367,7,13,0,2020-10-22,38.99588883,-85.62710784
Indiana,Johnson,3105,54,128,0,2020-10-22,39.48994426,-86.10149107
Indiana,Knox,756,35,10,0,2020-10-22,38.68861576,-87.4194665
Indiana,Kosciusko,1826,34,25,1,2020-10-22,41.24521668,-85.86312322
Indiana,LaGrange,801,24,15,0,2020-10-22,41.64232188,-85.42674232
Indiana,Lake,13570,190,355,3,2020-10-22,41.41874274,-87.38277575
Indiana,LaPorte,2228,19,58,0,2020-10-22,41.54366008,-86.74072188
Indiana,Lawrence,874,48,36,2,2020-10-22,38.84112637,-86.48361629
Indiana,Madison,2350,26,93,0,2020-10-22,40.16143691,-85.71964711
Indiana,Marion,25151,246,785,0,2020-10-22,39.78163624,-86.13826325
Indiana,Marshall,1374,32,26,0,2020-10-22,41.32467367,-86.26185087
Indiana,Martin,199,3,0,0,2020-10-22,38.7099921,-86.80373186
Indiana,Miami,609,22,5,0,2020-10-22,40.76940965,-86.04525048
Indiana,Monroe,3257,35,38,0,2020-10-22,39.16130004,-86.52414358
Indiana,Montgomery,583,5,22,0,2020-10-22,40.04034823,-86.89335024
Indiana,Morgan,937,7,40,0,2020-10-22,39.47899078,-86.44573375
Indiana,Newton,225,3,11,0,2020-10-22,40.95610449,-87.39635768
Indiana,Noble,1159,13,33,0,2020-10-22,41.39672484,-85.41966713
Indiana,Ohio,129,5,7,0,2020-10-22,38.955305,-84.96515993
Indiana,Orange,404,16,25,0,2020-10-22,38.54118920000001,-86.49523093
Indiana,Owen,205,2,1,0,2020-10-22,39.31145587,-86.83900724
Indiana,Parke,232,10,3,0,2020-10-22,39.77202286,-87.20375833
Indiana,Perry,310,13,14,0,2020-10-22,38.07809328,-86.63741946
Indiana,Pike,330,1,18,3,2020-10-22,38.40112197,-87.23574907
Indiana,Porter,3136,100,49,1,2020-10-22,41.45986947,-87.06848888
Indiana,Posey,714,25,6,0,2020-10-22,38.02097333,-87.86480429
Indiana,Pulaski,152,4,1,0,2020-10-22,41.04166107,-86.69890683
Indiana,Putnam,728,12,16,0,2020-10-22,39.66437981,-86.84517605
Indiana,Randolph,352,9,9,0,2020-10-22,40.15734772,-85.01139319
Indiana,Ripley,441,14,8,0,2020-10-22,39.10235626,-85.26212744
Indiana,Rush,215,7,4,0,2020-10-22,39.62002287,-85.4655599
Indiana,St. Joseph,9145,160,161,0,2020-10-22,41.61756781,-86.29040834
Indiana,Scott,518,8,13,0,2020-10-22,38.68672078,-85.74627859
Indiana,Shelby,817,14,30,0,2020-10-22,39.52305623,-85.79158570000001
Indiana,Spencer,390,16,6,0,2020-10-22,38.01519732,-87.0079644
Indiana,Starke,407,10,7,0,2020-10-22,41.27890281,-86.64686895
Indiana,Steuben,627,16,8,0,2020-10-22,41.64423868,-85.00101094
Indiana,Sullivan,437,8,14,1,2020-10-22,39.08952258,-87.41414469
Indiana,Switzerland,92,2,0,0,2020-10-22,38.82767338,-85.03022429
Indiana,Tippecanoe,3695,108,15,1,2020-10-22,40.38872739,-86.89413959
Indiana,Tipton,275,5,23,0,2020-10-22,40.31123252,-86.05234925
Indiana,Union,110,4,0,0,2020-10-22,39.62550777,-84.92497066
Indiana,Vanderburgh,5767,92,60,0,2020-10-22,38.02658833,-87.58763124
Indiana,Vermillion,241,16,1,0,2020-10-22,39.8523352,-87.46160542
Indiana,Vigo,2605,45,38,0,2020-10-22,39.42944561,-87.39169027
Indiana,Wabash,411,9,9,0,2020-10-22,40.84704239,-85.79328272
Indiana,Warren,78,2,1,0,2020-10-22,40.34728141,-87.35602659
Indiana,Warrick,1929,29,65,0,2020-10-22,38.08922676,-87.2716085
Indiana,Washington,375,12,3,1,2020-10-22,38.60219804,-86.1049363
Indiana,Wayne,1269,48,30,3,2020-10-22,39.8633444,-85.01044989
Indiana,Wells,428,8,8,3,2020-10-22,40.72934187,-85.22132966
Indiana,White,585,13,15,0,2020-10-22,40.74911165,-86.86492015
Indiana,Whitley,455,13,6,0,2020-10-22,41.13863784,-85.50791236
Iowa,Adair,148,1,1,0,2020-10-22,41.33075609,-94.47105874
Iowa,Adams,70,0,0,0,2020-10-22,41.02903567,-94.69932645
Iowa,Allamakee,343,8,8,0,2020-10-22,43.28383218,-91.37860922
Iowa,Appanoose,217,8,3,0,2020-10-22,40.74324454,-92.86865906
Iowa,Audubon,138,1,1,0,2020-10-22,41.6844628,-94.90581859
Iowa,Benton,538,9,1,0,2020-10-22,42.08011739,-92.06463573
Iowa,Black Hawk,5350,50,98,0,2020-10-22,42.4704581,-92.30524729
Iowa,Boone,696,10,9,0,2020-10-22,42.03657094,-93.9313999
Iowa,Bremer,638,9,9,0,2020-10-22,42.77461496,-92.31795937
Iowa,Buchanan,419,14,4,0,2020-10-22,42.4709188,-91.83510825
Iowa,Buena Vista,2225,12,12,0,2020-10-22,42.73545875,-95.15100162
Iowa,Butler,354,4,2,0,2020-10-22,42.73172833,-92.79015971
Iowa,Calhoun,285,7,4,0,2020-10-22,42.38521079,-94.64046046
Iowa,Carroll,1072,20,12,2,2020-10-22,42.03617207,-94.86032705
Iowa,Cass,351,6,2,0,2020-10-22,41.33149454,-94.92792482
Iowa,Cedar,420,9,5,0,2020-10-22,41.77233777,-91.13246684
Iowa,Cerro Gordo,1304,26,23,0,2020-10-22,43.08177563,-93.2612239
Iowa,Cherokee,383,7,2,0,2020-10-22,42.73538914,-95.62389402
Iowa,Chickasaw,338,8,1,0,2020-10-22,43.06001295,-92.31773347
Iowa,Clarke,328,9,3,0,2020-10-22,41.02868181,-93.78499767
Iowa,Clay,504,3,4,0,2020-10-22,43.08247182,-95.15096481
Iowa,Clayton,375,17,3,0,2020-10-22,42.84443388,-91.34133693
Iowa,Clinton,1409,27,26,0,2020-10-22,41.89981633,-90.53275096
Iowa,Crawford,1337,13,12,0,2020-10-22,42.03718237,-95.3819718
Iowa,Dallas,3369,32,44,0,2020-10-22,41.68560356,-94.04127625
Iowa,Davis,163,1,4,0,2020-10-22,40.74773536,-92.41005468
Iowa,Decatur,143,3,0,0,2020-10-22,40.73742757,-93.78645949
Iowa,Delaware,729,20,12,3,2020-10-22,42.47104597,-91.3664492
Iowa,Des Moines,1305,24,9,0,2020-10-22,40.92012606,-91.18326592
Iowa,Dickinson,711,10,7,0,2020-10-22,43.37787725,-95.1510206
Iowa,Dubuque,4896,99,54,0,2020-10-22,42.46815349,-90.88181925
Iowa,Emmet,415,3,17,0,2020-10-22,43.37782951,-94.67858943
Iowa,Fayette,354,6,3,0,2020-10-22,42.86271799,-91.8441231
Iowa,Floyd,424,5,11,0,2020-10-22,43.06000529999999,-92.78940097
Iowa,Franklin,378,3,18,0,2020-10-22,42.73270384,-93.26256925
Iowa,Fremont,188,2,1,0,2020-10-22,40.74542720000001,-95.60129045
Iowa,Greene,182,2,0,0,2020-10-22,42.03614551,-94.39658081
Iowa,Grundy,289,4,5,0,2020-10-22,42.40183723,-92.78829551
Iowa,Guthrie,376,2,15,0,2020-10-22,41.68378965,-94.50111014
Iowa,Hamilton,461,7,3,0,2020-10-22,42.38382428,-93.70197703
Iowa,Hancock,298,6,4,0,2020-10-22,43.08178477,-93.73454884
Iowa,Hardin,449,5,5,0,2020-10-22,42.38353877,-93.23654611
Iowa,Harrison,623,31,8,0,2020-10-22,41.68330137,-95.81558439
Iowa,Henry,1007,8,5,0,2020-10-22,40.98767962,-91.54436349
Iowa,Howard,261,3,9,0,2020-10-22,43.35671042,-92.31702714
Iowa,Humboldt,308,8,3,0,2020-10-22,42.7764426,-94.20722537
Iowa,Ida,184,3,2,0,2020-10-22,42.38696136,-95.51355387
Iowa,Iowa,394,9,8,0,2020-10-22,41.68630265,-92.0643373
Iowa,Jackson,558,12,3,0,2020-10-22,42.17178824,-90.57354837
Iowa,Jasper,1055,19,34,0,2020-10-22,41.68576082,-93.05567785
Iowa,Jefferson,212,2,1,0,2020-10-22,41.03192394,-91.94849466
Iowa,Johnson,5717,34,30,0,2020-10-22,41.67169354,-91.58754744
Iowa,Jones,422,5,3,0,2020-10-22,42.12118609,-91.13139641
Iowa,Keokuk,148,3,1,0,2020-10-22,41.33649833,-92.1785067
Iowa,Kossuth,446,3,0,0,2020-10-22,43.20405458,-94.20691791
Iowa,Lee,907,9,10,0,2020-10-22,40.64181461,-91.48183025
Iowa,Linn,5245,72,129,1,2020-10-22,42.07923082,-91.59809485
Iowa,Louisa,507,9,15,0,2020-10-22,41.21842119,-91.26102611
Iowa,Lucas,197,6,6,0,2020-10-22,41.02958964,-93.32780803
Iowa,Lyon,528,3,7,0,2020-10-22,43.38107862,-96.20926845
Iowa,Madison,351,7,2,0,2020-10-22,41.33081904,-94.01554631
Iowa,Mahaska,659,19,24,0,2020-10-22,41.33521503,-92.64083907
Iowa,Marion,957,9,10,0,2020-10-22,41.33445101,-93.09934783
Iowa,Marshall,1959,12,36,0,2020-10-22,42.03586837,-92.9990819
Iowa,Mills,355,5,1,0,2020-10-22,41.03299766,-95.61920963
Iowa,Mitchell,238,2,0,0,2020-10-22,43.35638371,-92.78887719
Iowa,Monona,236,3,1,0,2020-10-22,42.05220391,-95.95743843
Iowa,Monroe,251,2,11,0,2020-10-22,41.02988815,-92.8690667
Iowa,Montgomery,161,2,6,1,2020-10-22,41.03018714,-95.15642896
Iowa,Muscatine,1393,24,58,0,2020-10-22,41.48370744,-91.1121697
Iowa,O'Brien,616,26,14,0,2020-10-22,43.08310673,-95.62474482
Iowa,Osceola,261,7,0,0,2020-10-22,43.37824276,-95.62422844
Iowa,Page,374,6,0,0,2020-10-22,40.7393172,-95.1497813
Iowa,Palo Alto,298,5,2,0,2020-10-22,43.08193849,-94.67824621
Iowa,Plymouth,1594,23,26,0,2020-10-22,42.737633,-96.21366621
Iowa,Pocahontas,217,3,2,0,2020-10-22,42.73420133,-94.67862564
Iowa,Polk,18419,174,283,0,2020-10-22,41.68679484,-93.57767461
Iowa,Pottawattamie,3091,59,44,0,2020-10-22,41.33640314,-95.53907776
Iowa,Poweshiek,441,2,11,0,2020-10-22,41.68625425,-92.53155731
Iowa,Ringgold,83,1,2,0,2020-10-22,40.73518949,-94.24368535
Iowa,Sac,377,5,4,0,2020-10-22,42.38624071,-95.10547892
Iowa,Scott,4210,76,37,0,2020-10-22,41.63935978,-90.61959493
Iowa,Shelby,360,10,1,0,2020-10-22,41.6850066,-95.31015553
Iowa,Sioux,2343,26,14,0,2020-10-22,43.08221074,-96.1767568
Iowa,Story,3910,12,18,0,2020-10-22,42.03621213,-93.46499005
Iowa,Tama,918,7,37,0,2020-10-22,42.07991767,-92.53266945
Iowa,Taylor,230,5,2,0,2020-10-22,40.73710579,-94.69778563
Iowa,Union,219,2,4,0,2020-10-22,41.0277278,-94.24234847
Iowa,Van Buren,166,2,2,0,2020-10-22,40.75326764,-91.95017958
Iowa,Wapello,1494,11,62,0,2020-10-22,41.03064984,-92.40954728
Iowa,Warren,1185,14,6,0,2020-10-22,41.33559454,-93.56007641
Iowa,Washington,627,9,11,0,2020-10-22,41.33577126,-91.71725711
Iowa,Wayne,113,0,3,0,2020-10-22,40.73969028,-93.32752197
Iowa,Webster,1789,49,14,0,2020-10-22,42.42853483,-94.17987389
Iowa,Winnebago,458,11,18,0,2020-10-22,43.37751174,-93.73407298
Iowa,Winneshiek,455,4,9,0,2020-10-22,43.29094334,-91.84422722
Iowa,Woodbury,6979,83,94,0,2020-10-22,42.38979414,-96.0459439
Iowa,Worth,134,1,0,0,2020-10-22,43.37750768,-93.26087602
Iowa,Wright,707,9,1,0,2020-10-22,42.73305373,-93.73515113
Kansas,Allen,112,0,1,0,2020-10-22,37.88582951,-95.30030847
Kansas,Anderson,167,0,0,0,2020-10-22,38.21413251,-95.29272815
Kansas,Atchison,500,0,5,0,2020-10-22,39.53185661,-95.30870026
Kansas,Barber,31,0,0,0,2020-10-22,37.2288586,-98.68460053
Kansas,Barton,716,0,7,0,2020-10-22,38.47889676,-98.75636726
Kansas,Bourbon,306,0,3,0,2020-10-22,37.85508555,-94.84865997
Kansas,Brown,193,0,5,0,2020-10-22,39.82652589,-95.56421698
Kansas,Butler,825,15,3,0,2020-10-22,37.78134351,-96.83878537
Kansas,Chase,90,0,2,0,2020-10-22,38.30292938,-96.59563862
Kansas,Chautauqua,21,0,0,0,2020-10-22,37.14994405,-96.2454192
Kansas,Cherokee,650,0,7,0,2020-10-22,37.16928494,-94.8462897
Kansas,Cheyenne,109,0,5,0,2020-10-22,39.78580976,-101.7318201
Kansas,Clark,63,2,4,3,2020-10-22,37.23577007,-99.81883015
Kansas,Clay,86,0,2,0,2020-10-22,39.34948772,-97.16518128
Kansas,Cloud,104,0,1,0,2020-10-22,39.48028352,-97.64925343
Kansas,Coffey,148,0,9,0,2020-10-22,38.2365018,-95.73379515
Kansas,Comanche,20,0,0,0,2020-10-22,37.19114520000001,-99.27113247
Kansas,Cowley,484,0,10,0,2020-10-22,37.23781842,-96.83776647
Kansas,Crawford,1354,0,10,0,2020-10-22,37.50675523,-94.85245778
Kansas,Decatur,72,0,1,0,2020-10-22,39.78468441,-100.4594081
Kansas,Dickinson,275,0,3,0,2020-10-22,38.86600962,-97.15532383
Kansas,Doniphan,190,0,0,0,2020-10-22,39.79067154,-95.14056866
Kansas,Douglas,2787,18,17,0,2020-10-22,38.88503636,-95.2925121
Kansas,Edwards,64,0,0,0,2020-10-22,37.88735543,-99.31263309
Kansas,Elk,13,0,0,0,2020-10-22,37.45338105,-96.24369667
Kansas,Ellis,1329,0,16,0,2020-10-22,38.91458712,-99.31751551
Kansas,Ellsworth,178,0,0,0,2020-10-22,38.69677695,-98.20462799
Kansas,Finney,2851,85,18,2,2020-10-22,38.04340344,-100.7381938
Kansas,Ford,3171,0,13,0,2020-10-22,37.69200114,-99.88825298
Kansas,Franklin,506,0,3,0,2020-10-22,38.56443815,-95.28644341
Kansas,Geary,384,15,4,0,2020-10-22,38.99871131,-96.7577178
Kansas,Gove,162,0,10,0,2020-10-22,38.91588178,-100.4829321
Kansas,Graham,56,0,1,0,2020-10-22,39.34987223,-99.88332493
Kansas,Grant,417,7,8,0,2020-10-22,37.56227336,-101.3079758
Kansas,Gray,197,0,0,0,2020-10-22,37.73836671,-100.4369088
Kansas,Greeley,27,0,0,0,2020-10-22,38.4808095,-101.8061079
Kansas,Greenwood,75,0,0,0,2020-10-22,37.8774388,-96.23250453
Kansas,Hamilton,57,0,0,0,2020-10-22,37.99978709,-101.7921066
Kansas,Harper,142,0,2,0,2020-10-22,37.19175361,-98.07578384
Kansas,Harvey,506,0,7,0,2020-10-22,38.04293782,-97.42747573
Kansas,Haskell,103,0,1,0,2020-10-22,37.5620394,-100.8710738
Kansas,Hodgeman,32,0,0,0,2020-10-22,38.08780079,-99.89829881
Kansas,Jackson,299,8,4,0,2020-10-22,39.41673394,-95.79356799
Kansas,Jefferson,266,5,4,0,2020-10-22,39.2347941,-95.38289232
Kansas,Jewell,28,0,1,0,2020-10-22,39.78470589,-98.21820662
Kansas,Johnson,13377,80,185,2,2020-10-22,38.88548175,-94.82250877
Kansas,Kearny,133,0,3,0,2020-10-22,38.00017981,-101.321681
Kansas,Kingman,113,0,3,0,2020-10-22,37.55909527,-98.13638678
Kansas,Kiowa,57,0,0,0,2020-10-22,37.55848695,-99.2856537
Kansas,Labette,372,11,6,1,2020-10-22,37.19113093,-95.29849679
Kansas,Lane,20,0,0,0,2020-10-22,38.48119447,-100.4660754
Kansas,Leavenworth,2493,0,18,0,2020-10-22,39.20183497,-95.03620809
Kansas,Lincoln,20,0,1,0,2020-10-22,39.04549684,-98.20756994
Kansas,Linn,109,0,1,0,2020-10-22,38.21267844,-94.84254089
Kansas,Logan,68,0,0,0,2020-10-22,38.91735806,-101.148475
Kansas,Lyon,1277,9,39,0,2020-10-22,38.45576156,-96.15275715
Kansas,McPherson,372,13,6,0,2020-10-22,38.39184858,-97.64769869
Kansas,Marion,115,0,1,0,2020-10-22,38.35855394,-97.0985251
Kansas,Marshall,64,0,0,0,2020-10-22,39.78359669,-96.52278974
Kansas,Meade,140,0,1,0,2020-10-22,37.23859987,-100.364831
Kansas,Miami,509,0,2,0,2020-10-22,38.56383358,-94.83832189
Kansas,Mitchell,59,0,0,0,2020-10-22,39.39331582,-98.20906732
Kansas,Montgomery,656,0,6,0,2020-10-22,37.19236568,-95.74329258
Kansas,Morris,56,0,0,0,2020-10-22,38.68827511,-96.65128437
Kansas,Morton,41,0,2,0,2020-10-22,37.19141121,-101.79925190000002
Kansas,Nemaha,258,0,1,0,2020-10-22,39.78345387,-96.01392079
Kansas,Neosho,255,10,0,0,2020-10-22,37.55862897,-95.30670046
Kansas,Ness,129,0,9,0,2020-10-22,38.47974157,-99.91547333
Kansas,Norton,464,0,10,0,2020-10-22,39.78443827,-99.90286639
Kansas,Osage,152,0,2,0,2020-10-22,38.65235984,-95.72707998
Kansas,Osborne,21,0,0,0,2020-10-22,39.3503437,-98.76753828
Kansas,Ottawa,111,0,0,0,2020-10-22,39.13237408,-97.65020313
Kansas,Pawnee,413,0,1,0,2020-10-22,38.18108732,-99.23692334
Kansas,Phillips,175,3,9,0,2020-10-22,39.78465501,-99.34668865
Kansas,Pottawatomie,367,0,0,0,2020-10-22,39.37925655,-96.34564657
Kansas,Pratt,105,0,0,0,2020-10-22,37.64780729,-98.73922153
Kansas,Rawlins,76,0,0,0,2020-10-22,39.78525843,-101.0761617
Kansas,Reno,1937,46,15,2,2020-10-22,37.95230263,-98.08607292
Kansas,Republic,74,0,1,0,2020-10-22,39.82799632,-97.65036709
Kansas,Rice,132,9,1,0,2020-10-22,38.34616184,-98.19992118
Kansas,Riley,2096,0,11,0,2020-10-22,39.28935726,-96.73420026
Kansas,Rooks,141,0,7,0,2020-10-22,39.35022773,-99.32484567
Kansas,Rush,98,0,0,0,2020-10-22,38.52275276,-99.30863983
Kansas,Russell,165,0,4,0,2020-10-22,38.91462787,-98.76254297
Kansas,Saline,1030,0,13,0,2020-10-22,38.78369175,-97.65185177
Kansas,Scott,174,3,1,0,2020-10-22,38.48222076,-100.9066539
Kansas,Sedgwick,10465,135,127,6,2020-10-22,37.6842718,-97.4608198
Kansas,Seward,2049,18,11,4,2020-10-22,37.19324632,-100.8507201
Kansas,Shawnee,3333,41,77,0,2020-10-22,39.04100763,-95.7557264
Kansas,Sheridan,130,0,0,0,2020-10-22,39.35018161,-100.4418259
Kansas,Sherman,159,0,0,0,2020-10-22,39.35147699,-101.7197624
Kansas,Smith,19,0,0,0,2020-10-22,39.78516566,-98.78566062
Kansas,Stafford,72,0,1,0,2020-10-22,38.03100851,-98.71762001
Kansas,Stanton,48,0,2,0,2020-10-22,37.56304714,-101.7843534
Kansas,Stevens,211,0,1,0,2020-10-22,37.1923008,-101.3118967
Kansas,Sumner,246,0,3,0,2020-10-22,37.23682549,-97.47721621
Kansas,Thomas,295,0,2,0,2020-10-22,39.35107575,-101.0553705
Kansas,Trego,87,13,3,0,2020-10-22,38.91467218,-99.87284448
Kansas,Wabaunsee,81,0,1,0,2020-10-22,38.95471985,-96.20350509
Kansas,Wallace,33,0,0,0,2020-10-22,38.91686134,-101.7638876
Kansas,Washington,31,0,0,0,2020-10-22,39.78420784,-97.0875323
Kansas,Wichita,27,0,0,0,2020-10-22,38.48178252,-101.3471509
Kansas,Wilson,106,0,2,0,2020-10-22,37.55937174,-95.74323255
Kansas,Woodson,27,0,0,0,2020-10-22,37.8865336,-95.74006277
Kansas,Wyandotte,8059,37,161,3,2020-10-22,39.11727348,-94.76378225
Kentucky,Adair,461,6,21,0,2020-10-22,37.10459774,-85.28129668
Kentucky,Allen,512,12,11,2,2020-10-22,36.75197631,-86.19457544
Kentucky,Anderson,237,6,1,0,2020-10-22,38.00671029,-84.99171713
Kentucky,Ballard,69,0,1,0,2020-10-22,37.05842757,-88.99427697
Kentucky,Barren,1048,33,13,0,2020-10-22,36.96469836,-85.93338945
Kentucky,Bath,108,2,1,0,2020-10-22,38.14735938,-83.74588932
Kentucky,Bell,647,16,17,0,2020-10-22,36.73355174,-83.67766671
Kentucky,Boone,2006,20,25,0,2020-10-22,38.97065142,-84.72615357
Kentucky,Bourbon,294,7,1,0,2020-10-22,38.2054607,-84.21827874
Kentucky,Boyd,621,9,20,0,2020-10-22,38.36176608,-82.68652187
Kentucky,Boyle,423,7,0,0,2020-10-22,37.62680923,-84.8633779
Kentucky,Bracken,65,6,1,0,2020-10-22,38.69158994,-84.08532444
Kentucky,Breathitt,115,1,0,0,2020-10-22,37.52333168,-83.31959161
Kentucky,Breckinridge,187,4,2,0,2020-10-22,37.77377239,-86.42885017
Kentucky,Bullitt,1298,12,14,0,2020-10-22,37.97162523,-85.68955617
Kentucky,Butler,393,-1,16,0,2020-10-22,37.20946153,-86.68748787
Kentucky,Caldwell,246,6,0,0,2020-10-22,37.14749129,-87.86948214
Kentucky,Calloway,884,16,9,0,2020-10-22,36.62093411,-88.2731593
Kentucky,Campbell,1126,13,16,0,2020-10-22,38.94384345,-84.37875208
Kentucky,Carlisle,101,0,1,0,2020-10-22,36.85372876,-88.96692220000001
Kentucky,Carroll,214,0,5,0,2020-10-22,38.66599534,-85.12601074
Kentucky,Carter,313,1,4,0,2020-10-22,38.31690743,-83.05092385
Kentucky,Casey,309,2,15,0,2020-10-22,37.32533118,-84.92726209
Kentucky,Christian,1769,18,27,0,2020-10-22,36.89267803,-87.49055367
Kentucky,Clark,460,5,11,0,2020-10-22,37.9689263,-84.14615986
Kentucky,Clay,462,11,6,0,2020-10-22,37.16451126,-83.712575
Kentucky,Clinton,209,1,3,0,2020-10-22,36.72581156,-85.13377529
Kentucky,Crittenden,161,7,1,0,2020-10-22,37.35839237,-88.08826090000002
Kentucky,Cumberland,129,4,0,0,2020-10-22,36.78926125,-85.39050034
Kentucky,Daviess,1861,24,27,0,2020-10-22,37.73028906,-87.09019479999998
Kentucky,Edmonson,174,4,12,0,2020-10-22,37.21218923,-86.23955613
Kentucky,Elliott,104,3,0,0,2020-10-22,38.11624059,-83.09771563
Kentucky,Estill,253,1,0,0,2020-10-22,37.69241417,-83.95956369
Kentucky,Fayette,10142,94,86,1,2020-10-22,38.0368225,-84.45576892
Kentucky,Fleming,155,8,0,0,2020-10-22,38.36758311,-83.69657514
Kentucky,Floyd,310,9,4,0,2020-10-22,37.56213922,-82.74750924
Kentucky,Franklin,813,4,14,0,2020-10-22,38.2379395,-84.87962551
Kentucky,Fulton,229,5,3,0,2020-10-22,36.55238827,-89.20140068
Kentucky,Gallatin,121,0,8,0,2020-10-22,38.75398691,-84.8558382
Kentucky,Garrard,275,6,3,0,2020-10-22,37.6388668,-84.53289319
Kentucky,Grant,225,3,6,0,2020-10-22,38.64962758,-84.62415957
Kentucky,Graves,859,5,29,0,2020-10-22,36.72292505,-88.65143315
Kentucky,Grayson,483,11,15,0,2020-10-22,37.46231118,-86.34248968
Kentucky,Green,321,2,8,0,2020-10-22,37.26484328,-85.5540745
Kentucky,Greenup,584,4,10,2,2020-10-22,38.54332505,-82.9215658
Kentucky,Hancock,125,1,2,1,2020-10-22,37.83766422,-86.78280584
Kentucky,Hardin,1824,36,13,1,2020-10-22,37.6976111,-85.96319251
Kentucky,Harlan,572,7,13,0,2020-10-22,36.85699301,-83.21899516
Kentucky,Harrison,257,8,1,0,2020-10-22,38.44188174,-84.32869741
Kentucky,Hart,323,19,1,0,2020-10-22,37.29943898,-85.88461055
Kentucky,Henderson,1248,19,24,1,2020-10-22,37.79344553,-87.57392021
Kentucky,Henry,248,3,2,0,2020-10-22,38.44942688,-85.11587507
Kentucky,Hickman,109,5,1,0,2020-10-22,36.67948079999999,-88.97875928
Kentucky,Hopkins,970,7,42,0,2020-10-22,37.30939025,-87.54670406
Kentucky,Jackson,431,7,17,0,2020-10-22,37.41866422,-83.99825483
Kentucky,Jefferson,20441,269,341,2,2020-10-22,38.18664655,-85.65931031
Kentucky,Jessamine,903,17,7,1,2020-10-22,37.87119786,-84.58252003
Kentucky,Johnson,272,3,2,0,2020-10-22,37.85106355,-82.8264322
Kentucky,Kenton,2471,16,49,0,2020-10-22,38.93950319,-84.53241199
Kentucky,Knott,308,5,3,1,2020-10-22,37.35388197,-82.94981134
Kentucky,Knox,777,11,9,0,2020-10-22,36.89225732,-83.85403396
Kentucky,Larue,236,9,1,0,2020-10-22,37.54567114,-85.70138352
Kentucky,Laurel,1333,26,7,0,2020-10-22,37.10975748,-84.11321779
Kentucky,Lawrence,137,6,0,0,2020-10-22,38.07136018,-82.72882223
Kentucky,Lee,58,10,1,1,2020-10-22,37.59645942,-83.71513901
Kentucky,Leslie,123,2,0,0,2020-10-22,37.09246661,-83.37999606
Kentucky,Letcher,291,5,2,0,2020-10-22,37.12306748,-82.85346474
Kentucky,Lewis,271,5,15,0,2020-10-22,38.53184419,-83.37735618
Kentucky,Lincoln,297,6,18,0,2020-10-22,37.45475628,-84.6565327
Kentucky,Livingston,123,2,1,0,2020-10-22,37.21137452,-88.34797529
Kentucky,Logan,716,5,30,0,2020-10-22,36.85949479,-86.877635
Kentucky,Lyon,104,6,4,0,2020-10-22,37.02080035,-88.07886257
Kentucky,McCracken,1008,14,12,1,2020-10-22,37.05350953,-88.70445755
Kentucky,McCreary,249,1,1,0,2020-10-22,36.73874143,-84.48102924
Kentucky,McLean,156,3,3,0,2020-10-22,37.5301951,-87.26803443
Kentucky,Madison,2245,28,13,0,2020-10-22,37.71659336,-84.27220275
Kentucky,Magoffin,149,1,0,0,2020-10-22,37.70820545,-83.0657714
Kentucky,Marion,391,24,10,0,2020-10-22,37.55218078,-85.26898542
Kentucky,Marshall,440,7,6,0,2020-10-22,36.88007070000001,-88.32803576
Kentucky,Martin,153,5,3,0,2020-10-22,37.79990579,-82.51247478
Kentucky,Mason,161,1,2,0,2020-10-22,38.59471935,-83.82151043
Kentucky,Meade,355,16,3,0,2020-10-22,37.96163597,-86.21028219
Kentucky,Menifee,77,1,1,0,2020-10-22,37.94090733,-83.59985712
Kentucky,Mercer,331,4,6,0,2020-10-22,37.81474237,-84.87488475
Kentucky,Metcalfe,175,1,2,0,2020-10-22,36.99459295,-85.63123699
Kentucky,Monroe,258,1,4,0,2020-10-22,36.71225341,-85.71596443
Kentucky,Montgomery,397,8,4,0,2020-10-22,38.03253032,-83.9145241
Kentucky,Morgan,114,7,0,0,2020-10-22,37.92465657,-83.25558245
Kentucky,Muhlenberg,938,10,13,0,2020-10-22,37.21425819,-87.14632053
Kentucky,Nelson,776,36,4,0,2020-10-22,37.80335779,-85.4657193
Kentucky,Nicholas,103,0,2,1,2020-10-22,38.33342292,-84.01889177
Kentucky,Ohio,580,8,9,0,2020-10-22,37.47751843,-86.85368087
Kentucky,Oldham,1374,4,26,0,2020-10-22,38.39791089,-85.448222
Kentucky,Owen,115,0,3,0,2020-10-22,38.51679143,-84.82404619
Kentucky,Owsley,76,4,1,0,2020-10-22,37.42823949,-83.68811419
Kentucky,Pendleton,113,1,0,0,2020-10-22,38.69607718,-84.35599463
Kentucky,Perry,472,11,9,0,2020-10-22,37.25023553,-83.22922731
Kentucky,Pike,759,10,3,0,2020-10-22,37.47088263,-82.39487445
Kentucky,Powell,136,3,0,0,2020-10-22,37.83218794,-83.82553961
Kentucky,Pulaski,965,2,13,0,2020-10-22,37.10466131,-84.57629079
Kentucky,Robertson,17,1,1,0,2020-10-22,38.51923469,-84.05055616
Kentucky,Rockcastle,308,13,2,1,2020-10-22,37.36642393,-84.31176452
Kentucky,Rowan,330,6,1,0,2020-10-22,38.19484205,-83.42088935
Kentucky,Russell,364,4,6,0,2020-10-22,36.99308373,-85.06070117
Kentucky,Scott,1056,22,18,1,2020-10-22,38.29622293,-84.5816631
Kentucky,Shelby,1341,29,24,0,2020-10-22,38.21476019,-85.194223
Kentucky,Simpson,329,8,8,0,2020-10-22,36.74058474,-86.58047435
Kentucky,Spencer,280,11,0,0,2020-10-22,38.03223971,-85.32749335
Kentucky,Taylor,448,8,7,0,2020-10-22,37.3677562,-85.3329931
Kentucky,Todd,276,2,11,0,2020-10-22,36.8381152,-87.17878374
Kentucky,Trigg,234,4,0,0,2020-10-22,36.80767017,-87.87333656
Kentucky,Trimble,84,0,0,0,2020-10-22,38.61056487,-85.33775972
Kentucky,Union,493,8,6,0,2020-10-22,37.66166713,-87.94300009
Kentucky,Warren,4999,37,57,0,2020-10-22,36.99903045,-86.42672751
Kentucky,Washington,214,2,1,0,2020-10-22,37.75599461,-85.17407732
Kentucky,Wayne,261,4,1,0,2020-10-22,36.80310688,-84.8251971
Kentucky,Webster,297,4,5,0,2020-10-22,37.52168356,-87.67989953
Kentucky,Whitley,742,5,6,0,2020-10-22,36.75700531,-84.14541217
Kentucky,Wolfe,58,0,0,0,2020-10-22,37.73941626,-83.49303612
Kentucky,Woodford,358,2,0,0,2020-10-22,38.04178222,-84.7417556
Louisiana,Acadia,3112,21,100,0,2020-10-22,30.2950649,-92.41419698
Louisiana,Allen,1835,12,54,0,2020-10-22,30.65385745,-92.82442028
Louisiana,Ascension,3998,6,98,0,2020-10-22,30.20406249,-90.91328409999998
Louisiana,Assumption,794,6,24,0,2020-10-22,29.89946234,-91.06461642
Louisiana,Avoyelles,1692,13,62,0,2020-10-22,31.07796211,-92.00079449
Louisiana,Beauregard,1063,7,40,0,2020-10-22,30.64836518,-93.34173616
Louisiana,Bienville,584,3,33,0,2020-10-22,32.34569994,-93.05398492
Louisiana,Bossier,4082,59,117,0,2020-10-22,32.67932307,-93.60460152
Louisiana,Caddo,9855,71,391,1,2020-10-22,32.57991587,-93.88375652
Louisiana,Calcasieu,8284,28,224,1,2020-10-22,30.22931235,-93.35400434
Louisiana,Caldwell,344,4,3,0,2020-10-22,32.0902519,-92.11752148
Louisiana,Cameron,242,4,2,0,2020-10-22,29.87592238,-93.19310676
Louisiana,Catahoula,459,4,14,0,2020-10-22,31.66778967,-91.84526385
Louisiana,Claiborne,599,6,24,0,2020-10-22,32.82308512,-92.99526883
Louisiana,Concordia,593,17,16,0,2020-10-22,31.44817835,-91.63814433
Louisiana,De Soto,1007,7,35,0,2020-10-22,32.05457447,-93.74130302
Louisiana,East Baton Rouge,15869,23,456,0,2020-10-22,30.53842039,-91.09777565
Louisiana,East Carroll,576,1,6,0,2020-10-22,32.73926954,-91.23425694
Louisiana,East Feliciana,1794,8,76,1,2020-10-22,30.84425359,-91.04976723
Louisiana,Evangeline,1400,11,39,0,2020-10-22,30.72985248,-92.39915924
Louisiana,Franklin,1299,12,44,0,2020-10-22,32.13675181,-91.67589857
Louisiana,Grant,528,6,30,0,2020-10-22,31.59882456,-92.56124347
Louisiana,Iberia,3060,11,93,0,2020-10-22,29.86803617,-91.75871777
Louisiana,Iberville,1462,5,60,0,2020-10-22,30.25734305,-91.3499598
Louisiana,Jackson,847,18,22,0,2020-10-22,32.30251776,-92.55692092
Louisiana,Jefferson,18491,50,581,0,2020-10-22,29.74075478,-90.11115756
Louisiana,Jefferson Davis,1329,6,43,0,2020-10-22,30.26896765,-92.81210004
Louisiana,Lafayette,9378,33,137,0,2020-10-22,30.2049055,-92.06959876
Louisiana,Lafourche,3862,8,126,0,2020-10-22,29.52470226,-90.40976986
Louisiana,LaSalle,485,2,10,0,2020-10-22,31.67884782,-92.15907765
Louisiana,Lincoln,1630,8,48,0,2020-10-22,32.6003154,-92.6659741
Louisiana,Livingston,4132,-3,79,0,2020-10-22,30.44143993,-90.73061664
Louisiana,Madison,892,0,8,0,2020-10-22,32.36918118,-91.23973355
Louisiana,Morehouse,882,8,26,1,2020-10-22,32.81686191,-91.80421614
Louisiana,Natchitoches,1437,15,28,1,2020-10-22,31.72321584,-93.09816516
Louisiana,Orleans,13324,35,592,0,2020-10-22,30.06971951,-89.92660315
Louisiana,Ouachita,6880,35,160,0,2020-10-22,32.47645559,-92.15704172
Louisiana,Plaquemines,884,1,19,0,2020-10-22,29.42245447,-89.60322085
Louisiana,Pointe Coupee,1127,8,40,0,2020-10-22,30.71409502,-91.60209535
Louisiana,Rapides,4624,31,154,0,2020-10-22,31.19778499,-92.52997303
Louisiana,Red River,407,2,24,0,2020-10-22,32.09530039,-93.34213308
Louisiana,Richland,868,8,16,0,2020-10-22,32.41391005,-91.76634876
Louisiana,Sabine,972,12,14,0,2020-10-22,31.56388699,-93.55433981
Louisiana,St. Bernard,1525,1,32,0,2020-10-22,29.87761636,-89.51887093
Louisiana,St. Charles,1928,8,63,0,2020-10-22,29.90709658,-90.35555967
Louisiana,St. Helena,433,3,4,0,2020-10-22,30.82210324,-90.71013176
Louisiana,St. James,834,2,40,0,2020-10-22,30.02531716,-90.80212061
Louisiana,St. John the Baptist,1627,4,106,0,2020-10-22,30.12597499,-90.4753503
Louisiana,St. Landry,3597,32,135,2,2020-10-22,30.59724262,-92.00135806
Louisiana,St. Martin,2191,8,63,0,2020-10-22,30.13112107,-91.61403569
Louisiana,St. Mary,2011,10,84,0,2020-10-22,29.69262097,-91.44702164
Louisiana,St. Tammany,7602,22,269,0,2020-10-22,30.40942847,-89.95642711
Louisiana,Tangipahoa,4936,6,122,0,2020-10-22,30.62888673,-90.40664996
Louisiana,Tensas,186,0,2,0,2020-10-22,32.00760749,-91.32915234
Louisiana,Terrebonne,3841,9,123,0,2020-10-22,29.37343766,-90.82626855
Louisiana,Union,1097,18,51,1,2020-10-22,32.83121059,-92.3749373
Louisiana,Vermilion,2104,7,70,0,2020-10-22,29.83517605,-92.30292538
Louisiana,Vernon,1113,5,55,0,2020-10-22,31.10884837,-93.18153838
Louisiana,Washington,1732,1,70,0,2020-10-22,30.85288548,-90.03866652
Louisiana,Webster,1445,15,38,0,2020-10-22,32.70847669,-93.33121835
Louisiana,West Baton Rouge,955,-2,42,0,2020-10-22,30.46058217,-91.30989571
Louisiana,West Carroll,371,2,12,1,2020-10-22,32.78550125,-91.461201
Louisiana,West Feliciana,740,-7,25,0,2020-10-22,30.87882871,-91.4148538
Louisiana,Winn,676,2,19,0,2020-10-22,31.94449367,-92.63789413
Maine,Androscoggin,840,1,10,0,2020-10-22,44.1664747,-70.20380627
Maine,Aroostook,59,0,1,0,2020-10-22,46.65926321,-68.59841248
Maine,Cumberland,2436,5,70,0,2020-10-22,43.8370751,-70.37226999
Maine,Franklin,74,0,1,0,2020-10-22,44.97330019,-70.44381045
Maine,Hancock,62,2,1,0,2020-10-22,44.59816444,-68.38401854
Maine,Kennebec,301,3,11,0,2020-10-22,44.40759555,-69.76738544
Maine,Knox,61,0,1,0,2020-10-22,44.11486325,-69.10529169
Maine,Lincoln,60,3,1,0,2020-10-22,44.05996956,-69.54227124
Maine,Oxford,157,0,2,0,2020-10-22,44.49952995,-70.75682123
Maine,Penobscot,284,0,6,0,2020-10-22,45.40194593,-68.65020455
Maine,Piscataquis,10,0,0,0,2020-10-22,45.83839062,-69.2860223
Maine,Sagadahoc,79,1,0,0,2020-10-22,43.95415864,-69.85074999
Maine,Somerset,129,2,8,0,2020-10-22,45.51229767,-69.95995554
Maine,Waldo,138,6,14,0,2020-10-22,44.4858305,-69.12061935
Maine,Washington,29,6,0,0,2020-10-22,45.01607142,-67.62813524
Maine,York,1344,10,20,0,2020-10-22,43.47808377,-70.71052375
Maryland,Allegany,604,10,23,0,2020-10-22,39.62357628,-78.69280486
Maryland,Anne Arundel,11514,81,266,1,2020-10-22,39.00670238,-76.60329337
Maryland,Baltimore,19897,98,658,2,2020-10-22,39.45784712,-76.62911955
Maryland,Calvert,1145,4,29,0,2020-10-22,38.53961642,-76.56820632
Maryland,Caroline,721,8,8,0,2020-10-22,38.87172293,-75.82904158
Maryland,Carroll,2168,9,129,1,2020-10-22,39.56453592,-77.02373735
Maryland,Cecil,1299,8,36,0,2020-10-22,39.56647682,-75.94627411
Maryland,Charles,3067,17,101,0,2020-10-22,38.51092331,-76.98580666
Maryland,Dorchester,735,20,10,0,2020-10-22,38.45413522,-76.02752426
Maryland,Frederick,4581,22,138,0,2020-10-22,39.47296601,-77.39999394
Maryland,Garrett,115,7,1,0,2020-10-22,39.52786077,-79.27355126
Maryland,Harford,3482,34,80,0,2020-10-22,39.55010644,-76.30775940000002
Maryland,Howard,5684,37,124,0,2020-10-22,39.25305293,-76.93126208
Maryland,Kent,336,2,24,0,2020-10-22,39.24976208,-76.04741541
Maryland,Montgomery,24772,108,863,1,2020-10-22,39.13676329,-77.20358245
Maryland,Prince George's,31844,149,852,4,2020-10-22,38.83070039,-76.8496441
Maryland,Queen Anne's,743,1,26,0,2020-10-22,39.06198912,-76.03530977
Maryland,St. Mary's,1420,4,59,0,2020-10-22,38.30058422,-76.60629279999998
Maryland,Somerset,401,3,6,1,2020-10-22,38.1163542,-75.75118623
Maryland,Talbot,631,4,6,0,2020-10-22,38.76618159,-76.10882561
Maryland,Washington,2158,21,42,0,2020-10-22,39.60835778,-77.82002295
Maryland,Wicomico,2397,12,49,0,2020-10-22,38.37301947,-75.62705831
Maryland,Worcester,1186,5,30,0,2020-10-22,38.21274277,-75.33200012
Maryland,Baltimore,19897,98,658,2,2020-10-22,39.45784712,-76.62911955
Massachusetts,Barnstable,1922,11,182,1,2020-10-22,41.72980578,-70.28854339
Massachusetts,Berkshire,744,2,51,0,2020-10-22,42.37428441,-73.20524838
Massachusetts,Bristol,11334,164,735,2,2020-10-22,41.79228404,-71.10872211
Massachusetts,Essex,22596,150,1333,2,2020-10-22,42.6687626,-70.94687179
Massachusetts,Franklin,456,11,72,0,2020-10-22,42.58119713,-72.58602547
Massachusetts,Hampden,9305,86,804,4,2020-10-22,42.13440424,-72.63235561
Massachusetts,Hampshire,1430,10,153,0,2020-10-22,42.33997957,-72.65898478
Massachusetts,Middlesex,30656,154,2240,8,2020-10-22,42.48607732,-71.39049229
Massachusetts,Norfolk,11336,62,1097,3,2020-10-22,42.16073095,-71.20530408
Massachusetts,Plymouth,10895,71,814,5,2020-10-22,41.94070556,-70.80802823
Massachusetts,Suffolk,26954,167,1166,3,2020-10-22,42.3279514,-71.07850442
Massachusetts,Worcester,15778,97,1156,2,2020-10-22,42.35026951,-71.90493363
Michigan,Alcona,52,0,2,0,2020-10-22,44.6846864,-83.59507875
Michigan,Alger,103,2,1,0,2020-10-22,46.41292944,-86.60260122
Michigan,Allegan,1142,33,7,0,2020-10-22,42.59147037,-85.89102866
Michigan,Alpena,157,1,14,0,2020-10-22,45.03477666,-83.62212411
Michigan,Antrim,107,1,0,0,2020-10-22,44.99690221,-85.15503082
Michigan,Arenac,89,0,3,0,2020-10-22,44.0636262,-83.89277559
Michigan,Baraga,78,3,4,0,2020-10-22,46.6720582,-88.36363591
Michigan,Barry,577,15,6,0,2020-10-22,42.59513984,-85.30834519
Michigan,Bay,1288,28,59,2,2020-10-22,43.70639106,-83.98731479
Michigan,Benzie,111,0,2,0,2020-10-22,44.63899297,-86.01608482
Michigan,Berrien,2489,32,81,0,2020-10-22,41.95447397,-86.41313079999998
Michigan,Branch,828,16,10,0,2020-10-22,41.91600556,-85.05929476
Michigan,Calhoun,2493,129,63,4,2020-10-22,42.24633834,-85.00493569
Michigan,Cass,895,14,24,0,2020-10-22,41.91522292,-85.99405727
Michigan,Charlevoix,142,2,4,0,2020-10-22,45.37790017,-85.19614053
Michigan,Cheboygan,123,4,2,0,2020-10-22,45.44787015,-84.50122149
Michigan,Chippewa,117,4,0,0,2020-10-22,46.29552653,-84.54353449
Michigan,Clare,235,14,9,0,2020-10-22,43.98794227,-84.84819859999998
Michigan,Clinton,972,9,14,0,2020-10-22,42.94400871,-84.60145248
Michigan,Crawford,144,4,5,0,2020-10-22,44.68255561,-84.61006219
Michigan,Delta,1097,46,22,2,2020-10-22,45.90484910000001,-86.9080745
Michigan,Dickinson,529,25,15,2,2020-10-22,46.00999672,-87.86961634
Michigan,Eaton,1031,21,11,0,2020-10-22,42.59599185,-84.83740035
Michigan,Emmet,195,2,4,0,2020-10-22,45.52625509,-84.89083249
Michigan,Genesee,6276,62,332,4,2020-10-22,43.02244215,-83.70589709
Michigan,Gladwin,176,4,2,0,2020-10-22,43.98901072,-84.38774817
Michigan,Gogebic,336,21,2,0,2020-10-22,46.40862701,-89.69377193
Michigan,Grand Traverse,703,23,13,0,2020-10-22,44.69565625,-85.55585247
Michigan,Gratiot,434,9,16,0,2020-10-22,43.29265605,-84.60505416
Michigan,Hillsdale,482,12,28,1,2020-10-22,41.88753639,-84.59312019
Michigan,Houghton,885,10,8,1,2020-10-22,46.89988536,-88.68495385
Michigan,Huron,260,1,5,0,2020-10-22,43.83353985,-83.04078453
Michigan,Ingham,4430,35,62,0,2020-10-22,42.59716886,-84.37472069
Michigan,Ionia,631,30,7,0,2020-10-22,42.94502238,-85.07413319
Michigan,Iosco,273,3,15,0,2020-10-22,44.35486835,-83.63484895
Michigan,Iron,398,12,21,0,2020-10-22,46.20974132,-88.53136251
Michigan,Isabella,960,12,15,0,2020-10-22,43.64060976,-84.84664923
Michigan,Jackson,1630,27,62,0,2020-10-22,42.24807035,-84.42258681
Michigan,Kalamazoo,4469,131,102,0,2020-10-22,42.24542231,-85.53038622
Michigan,Kalkaska,118,1,4,0,2020-10-22,44.68512729,-85.09085699
Michigan,Kent,13162,162,182,2,2020-10-22,43.03197711,-85.54934642
Michigan,Keweenaw,18,0,0,0,2020-10-22,47.63197653,-88.41434263
Michigan,Lake,55,0,0,0,2020-10-22,43.99050893,-85.802173
Michigan,Lapeer,847,9,38,0,2020-10-22,43.09052506,-83.22153148
Michigan,Leelanau,138,0,2,0,2020-10-22,44.94430054,-85.80150326
Michigan,Lenawee,1063,10,19,1,2020-10-22,41.89475156,-84.06603727
Michigan,Livingston,1883,25,33,0,2020-10-22,42.60302282,-83.91297209
Michigan,Luce,47,2,0,0,2020-10-22,46.47227431,-85.54471223
Michigan,Mackinac,147,1,0,0,2020-10-22,46.07028979,-85.04980537
Michigan,Macomb,17557,189,1074,4,2020-10-22,42.69158356,-82.92752801
Michigan,Manistee,117,2,3,0,2020-10-22,44.33352407,-86.05626916
Michigan,Marquette,909,47,12,0,2020-10-22,46.4338914,-87.64043701
Michigan,Mason,197,1,1,0,2020-10-22,43.99509218,-86.24988902
Michigan,Mecosta,423,10,4,0,2020-10-22,43.64064262,-85.32463223
Michigan,Menominee,655,21,3,0,2020-10-22,45.58038692,-87.55370409
Michigan,Midland,890,32,14,0,2020-10-22,43.64330771,-84.38804374
Michigan,Missaukee,82,-1,1,0,2020-10-22,44.33772443,-85.09256478
Michigan,Monroe,1903,36,31,0,2020-10-22,41.92734151,-83.53749864
Michigan,Montcalm,560,11,9,1,2020-10-22,43.31082541,-85.15252824
Michigan,Montmorency,22,1,0,0,2020-10-22,45.0275929,-84.12696227
Michigan,Muskegon,1897,46,77,1,2020-10-22,43.29123859,-86.15176712
Michigan,Newaygo,552,8,3,0,2020-10-22,43.554374,-85.80070107
Michigan,Oakland,23827,219,1233,5,2020-10-22,42.66090111,-83.38595416
Michigan,Oceana,584,8,6,0,2020-10-22,43.64124435,-86.26726673
Michigan,Ogemaw,95,0,5,0,2020-10-22,44.33481032,-84.12725175
Michigan,Ontonagon,78,4,0,0,2020-10-22,46.665226200000006,-89.31390481
Michigan,Osceola,135,4,0,0,2020-10-22,43.98992088,-85.32566756
Michigan,Oscoda,54,0,1,0,2020-10-22,44.68192279,-84.12939244
Michigan,Otsego,226,5,12,1,2020-10-22,45.02085831,-84.59898295
Michigan,Ottawa,4610,78,72,0,2020-10-22,42.95996803,-85.9969107
Michigan,Presque Isle,43,2,1,0,2020-10-22,45.34018577,-83.91498656
Michigan,Roscommon,151,8,5,0,2020-10-22,44.33473082,-84.61067651
Michigan,Saginaw,3568,71,152,1,2020-10-22,43.33433923,-84.05131209999998
Michigan,St. Clair,1404,29,64,0,2020-10-22,42.92655373,-82.67937954
Michigan,St. Joseph,1117,22,15,3,2020-10-22,41.91441767,-85.52797979
Michigan,Sanilac,175,-1,7,0,2020-10-22,43.42406072,-82.82055898
Michigan,Schoolcraft,60,4,1,1,2020-10-22,46.19235734,-86.19972234
Michigan,Shiawassee,663,13,33,0,2020-10-22,42.95392800000001,-84.14585902
Michigan,Tuscola,611,3,35,1,2020-10-22,43.46606813,-83.41897025
Michigan,Van Buren,996,22,18,0,2020-10-22,42.25190229,-86.01939087
Michigan,Washtenaw,5028,61,116,0,2020-10-22,42.253105,-83.83853204
Michigan,Wayne,39100,190,3040,9,2020-10-22,42.28098405,-83.281255
Michigan,Wexford,160,5,4,0,2020-10-22,44.33853602,-85.57712739
Minnesota,Aitkin,159,2,2,0,2020-10-22,46.60962049,-93.4116826
Minnesota,Anoka,8324,108,150,0,2020-10-22,45.27476015,-93.24604565
Minnesota,Becker,519,14,3,0,2020-10-22,46.93479392,-95.67158144
Minnesota,Beltrami,839,26,7,0,2020-10-22,47.97373527,-94.93732139
Minnesota,Benton,882,20,7,2,2020-10-22,45.69804958,-93.99514135
Minnesota,Big Stone,131,2,0,0,2020-10-22,45.42712824,-96.41403739
Minnesota,Blue Earth,2003,24,7,0,2020-10-22,44.03554215,-94.06699781
Minnesota,Brown,311,4,3,0,2020-10-22,44.24205652,-94.72562874
Minnesota,Carlton,403,11,1,0,2020-10-22,46.59180601,-92.67601019
Minnesota,Carver,1724,10,7,0,2020-10-22,44.82017001,-93.8009918
Minnesota,Cass,344,16,5,0,2020-10-22,46.95043611,-94.32603968
Minnesota,Chippewa,415,11,3,0,2020-10-22,45.02343421,-95.56403693
Minnesota,Chisago,920,30,2,0,2020-10-22,45.5021011,-92.90861945
Minnesota,Clay,2153,60,43,0,2020-10-22,46.89289518,-96.48761922
Minnesota,Clearwater,88,0,0,0,2020-10-22,47.57992111,-95.37790562
Minnesota,Cook,11,0,0,0,2020-10-22,47.90504893,-90.52629546
Minnesota,Cottonwood,265,1,0,0,2020-10-22,44.00715262,-95.18138802
Minnesota,Crow Wing,947,27,21,0,2020-10-22,46.48096553,-94.06755609
Minnesota,Dakota,9467,78,136,0,2020-10-22,44.67172617,-93.06299363
Minnesota,Dodge,379,9,0,0,2020-10-22,44.02238415,-92.86244324
Minnesota,Douglas,632,8,3,0,2020-10-22,45.93348491,-95.45335469
Minnesota,Faribault,221,7,0,0,2020-10-22,43.67381499,-93.94787458
Minnesota,Fillmore,245,4,0,0,2020-10-22,43.67394126,-92.08980382
Minnesota,Freeborn,649,2,4,0,2020-10-22,43.67385583,-93.34884422
Minnesota,Goodhue,542,13,11,0,2020-10-22,44.40849741,-92.7234195
Minnesota,Grant,92,2,4,0,2020-10-22,45.93424769,-96.01139609
Minnesota,Hennepin,33024,281,980,6,2020-10-22,45.00761521,-93.47694895
Minnesota,Houston,186,3,1,0,2020-10-22,43.67129565,-91.49143057
Minnesota,Hubbard,346,11,2,0,2020-10-22,47.10778564,-94.91693868
Minnesota,Isanti,511,7,5,1,2020-10-22,45.56181234,-93.29487636
Minnesota,Itasca,696,8,17,0,2020-10-22,47.51009045,-93.63092229
Minnesota,Jackson,204,3,1,0,2020-10-22,43.67423373,-95.15398258
Minnesota,Kanabec,194,3,10,0,2020-10-22,45.9459309,-93.29275192
Minnesota,Kandiyohi,1639,39,5,1,2020-10-22,45.1526059,-95.00586446
Minnesota,Kittson,37,4,0,0,2020-10-22,48.77754106,-96.78317184
Minnesota,Koochiching,164,1,4,0,2020-10-22,48.24539665,-93.78352843
Minnesota,Lac qui Parle,130,4,3,0,2020-10-22,44.9973857,-96.17488219
Minnesota,Lake,111,3,0,0,2020-10-22,47.64270764,-91.44557998
Minnesota,Lake of the Woods,43,0,1,0,2020-10-22,48.77217001,-94.90274472
Minnesota,Le Sueur,598,7,5,0,2020-10-22,44.37136597,-93.72844721
Minnesota,Lincoln,172,1,0,0,2020-10-22,44.41311883,-96.26688165
Minnesota,Lyon,941,8,6,0,2020-10-22,44.41327865,-95.83806103
Minnesota,McLeod,576,3,4,0,2020-10-22,44.82367677,-94.27287017
Minnesota,Mahnomen,104,3,1,0,2020-10-22,47.32557075,-95.80921485
Minnesota,Marshall,97,7,1,0,2020-10-22,48.35825983,-96.37017407
Minnesota,Martin,602,3,16,0,2020-10-22,43.67429718,-94.55099908
Minnesota,Meeker,318,6,3,0,2020-10-22,45.12328869,-94.52839455
Minnesota,Mille Lacs,376,12,13,2,2020-10-22,45.93705297,-93.63236823
Minnesota,Morrison,657,14,8,0,2020-10-22,46.01265363,-94.27341528
Minnesota,Mower,1499,5,15,0,2020-10-22,43.67142874,-92.75234549
Minnesota,Murray,264,6,3,0,2020-10-22,44.02216709,-95.76328482
Minnesota,Nicollet,700,11,17,0,2020-10-22,44.35291112,-94.24710352
Minnesota,Nobles,2195,21,16,0,2020-10-22,43.67434621,-95.75329576
Minnesota,Norman,105,4,0,0,2020-10-22,47.32628443,-96.45620947
Minnesota,Olmsted,3159,34,30,1,2020-10-22,44.00374114,-92.40209944
Minnesota,Otter Tail,789,6,6,0,2020-10-22,46.40846929,-95.70835255
Minnesota,Pennington,171,1,1,0,2020-10-22,48.06642577,-96.0370814
Minnesota,Pine,519,3,0,0,2020-10-22,46.12105238,-92.74070188
Minnesota,Pipestone,336,6,16,0,2020-10-22,44.02301619,-96.25841142
Minnesota,Polk,557,30,4,0,2020-10-22,47.77372465,-96.40134647
Minnesota,Pope,152,4,0,0,2020-10-22,45.58606667,-95.44451209
Minnesota,Ramsey,13609,99,355,3,2020-10-22,45.01625271,-93.09872295
Minnesota,Red Lake,66,5,2,0,2020-10-22,47.87197525,-96.09561104
Minnesota,Redwood,260,9,11,0,2020-10-22,44.40555844,-95.25207021
Minnesota,Renville,237,4,11,0,2020-10-22,44.72836381,-94.94553734
Minnesota,Rice,1592,6,9,0,2020-10-22,44.3543376,-93.29658715
Minnesota,Rock,311,7,3,2,2020-10-22,43.67482683,-96.25296832
Minnesota,Roseau,216,5,0,0,2020-10-22,48.77501878,-95.81079919
Minnesota,St. Louis,2797,59,65,0,2020-10-22,47.6048407,-92.46879855
Minnesota,Scott,3265,31,34,0,2020-10-22,44.6490231,-93.53340251
Minnesota,Sherburne,1606,23,21,0,2020-10-22,45.44447208,-93.77617511
Minnesota,Sibley,242,2,3,0,2020-10-22,44.5796592,-94.23164924
Minnesota,Stearns,5546,61,41,1,2020-10-22,45.55192576,-94.61078221
Minnesota,Steele,734,1,2,0,2020-10-22,44.02240351,-93.22627088
Minnesota,Stevens,174,5,1,0,2020-10-22,45.58613007,-96.00163705
Minnesota,Swift,193,1,1,0,2020-10-22,45.2829032,-95.68264092
Minnesota,Todd,752,11,5,0,2020-10-22,46.06996226,-94.89785296
Minnesota,Traverse,54,0,0,0,2020-10-22,45.77298854,-96.47062949
Minnesota,Wabasha,343,11,0,0,2020-10-22,44.28424356,-92.23121312
Minnesota,Wadena,208,7,2,1,2020-10-22,46.58589171,-94.96968506
Minnesota,Waseca,919,1,9,0,2020-10-22,44.02211116,-93.58720034
Minnesota,Washington,5399,54,68,0,2020-10-22,45.03864533,-92.88429635
Minnesota,Watonwan,572,0,4,0,2020-10-22,43.97823903,-94.61413846
Minnesota,Wilkin,127,1,4,0,2020-10-22,46.35721532,-96.4684375
Minnesota,Winona,1225,16,18,0,2020-10-22,43.98772283,-91.78081305
Minnesota,Wright,2332,18,14,0,2020-10-22,45.17297924,-93.96234781
Minnesota,Yellow Medicine,271,3,5,0,2020-10-22,44.71710183,-95.86842453
Mississippi,Adams,1067,15,43,0,2020-10-22,31.47669768,-91.35326037
Mississippi,Alcorn,981,14,12,0,2020-10-22,34.88084463,-88.57996173
Mississippi,Amite,421,1,13,0,2020-10-22,31.17467303,-90.80501621
Mississippi,Attala,789,8,26,0,2020-10-22,33.08658803,-89.57838564
Mississippi,Benton,325,6,5,1,2020-10-22,34.81681228,-89.18945516
Mississippi,Bolivar,2001,7,77,0,2020-10-22,33.79696941,-90.87372121
Mississippi,Calhoun,619,1,12,0,2020-10-22,33.93683395,-89.33686647
Mississippi,Carroll,476,8,12,0,2020-10-22,33.44834567,-89.91994479
Mississippi,Chickasaw,836,4,26,1,2020-10-22,33.91983202,-88.9481545
Mississippi,Choctaw,204,1,6,0,2020-10-22,33.34598242,-89.24809382
Mississippi,Claiborne,533,-1,16,0,2020-10-22,31.97061673,-90.90702196
Mississippi,Clarke,734,7,50,0,2020-10-22,32.04158545,-88.68896219999998
Mississippi,Clay,683,-1,21,0,2020-10-22,33.65358105,-88.77784255
Mississippi,Coahoma,1247,7,36,0,2020-10-22,34.22772299,-90.60415045
Mississippi,Copiah,1362,5,36,0,2020-10-22,31.86977774,-90.44565118
Mississippi,Covington,953,8,26,1,2020-10-22,31.63225413,-89.55389939
Mississippi,DeSoto,6857,90,79,1,2020-10-22,34.87625235,-89.99091418
Mississippi,Forrest,2995,15,78,0,2020-10-22,31.18961454,-89.25832496
Mississippi,Franklin,237,0,3,0,2020-10-22,31.47786634,-90.89672989
Mississippi,George,977,20,18,0,2020-10-22,30.86259065,-88.64436789
Mississippi,Greene,469,10,18,0,2020-10-22,31.21444233,-88.63922281
Mississippi,Grenada,1211,5,38,0,2020-10-22,33.77036166,-89.80245083
Mississippi,Hancock,798,11,27,0,2020-10-22,30.41830223,-89.48851033
Mississippi,Harrison,5050,148,83,0,2020-10-22,30.51359752,-89.12467576
Mississippi,Hinds,7850,27,176,0,2020-10-22,32.2656285,-90.44435448
Mississippi,Holmes,1141,4,60,0,2020-10-22,33.12345854,-90.08923538
Mississippi,Humphreys,426,7,16,0,2020-10-22,33.12825718,-90.52252707
Mississippi,Issaquena,107,1,4,0,2020-10-22,32.72531359,-90.97392828
Mississippi,Itawamba,1121,8,25,0,2020-10-22,34.27993475,-88.3606733
Mississippi,Jackson,4450,57,84,1,2020-10-22,30.54020656,-88.64184064
Mississippi,Jasper,677,3,17,0,2020-10-22,32.01922104,-89.11786866
Mississippi,Jefferson,274,3,10,0,2020-10-22,31.73397872,-91.03764977
Mississippi,Jefferson Davis,400,0,11,0,2020-10-22,31.56884708,-89.82670990000003
Mississippi,Jones,2877,24,84,0,2020-10-22,31.62257767,-89.16896899999998
Mississippi,Kemper,320,-1,15,0,2020-10-22,32.75462946,-88.64105766
Mississippi,Lafayette,2459,19,43,1,2020-10-22,34.35687874,-89.48490961
Mississippi,Lamar,2212,22,38,0,2020-10-22,31.20572971,-89.5077704
Mississippi,Lauderdale,2418,20,134,0,2020-10-22,32.40419769,-88.66229662
Mississippi,Lawrence,507,3,14,0,2020-10-22,31.55147224,-90.10841127
Mississippi,Leake,1143,4,40,0,2020-10-22,32.7536828,-89.52402044
Mississippi,Lee,3507,17,79,0,2020-10-22,34.291877500000005,-88.68149954
Mississippi,Leflore,1651,19,87,0,2020-10-22,33.55545125,-90.29900733
Mississippi,Lincoln,1385,17,57,1,2020-10-22,31.53288662,-90.45391915
Mississippi,Lowndes,1763,8,62,0,2020-10-22,33.47386518,-88.44191529999998
Mississippi,Madison,3779,22,93,0,2020-10-22,32.63389156,-90.03513564
Mississippi,Marion,935,2,42,0,2020-10-22,31.23132643,-89.8209217
Mississippi,Marshall,1392,30,27,1,2020-10-22,34.76216286,-89.50299462
Mississippi,Monroe,1473,8,72,0,2020-10-22,33.89236763,-88.4808438
Mississippi,Montgomery,535,4,23,0,2020-10-22,33.49419589,-89.61729103
Mississippi,Neshoba,1831,11,111,0,2020-10-22,32.75339664,-89.11726492
Mississippi,Newton,852,3,27,0,2020-10-22,32.40021118,-89.11843336
Mississippi,Noxubee,596,0,17,0,2020-10-22,33.11009499,-88.56949061
Mississippi,Oktibbeha,1993,17,54,0,2020-10-22,33.42491685,-88.87905132
Mississippi,Panola,1690,14,38,0,2020-10-22,34.36398677,-89.95064249
Mississippi,Pearl River,1122,17,59,0,2020-10-22,30.77090935,-89.58677275
Mississippi,Perry,486,2,23,0,2020-10-22,31.17161885,-88.99281835
Mississippi,Pike,1377,5,56,0,2020-10-22,31.17507789,-90.40392572
Mississippi,Pontotoc,1458,6,19,0,2020-10-22,34.226046000000004,-89.03636807
Mississippi,Prentiss,1037,8,19,0,2020-10-22,34.61810501,-88.51986294
Mississippi,Quitman,419,2,6,0,2020-10-22,34.25157572,-90.28908
Mississippi,Rankin,3881,22,86,0,2020-10-22,32.26469147,-89.94537876
Mississippi,Scott,1247,9,29,0,2020-10-22,32.406704100000006,-89.53789439
Mississippi,Sharkey,280,0,14,0,2020-10-22,32.88149103,-90.8159538
Mississippi,Simpson,1204,9,49,0,2020-10-22,31.91282117,-89.91716179
Mississippi,Smith,589,4,16,0,2020-10-22,32.01744532,-89.50644846
Mississippi,Stone,462,7,14,0,2020-10-22,30.79187949,-89.11547539
Mississippi,Sunflower,1597,9,49,0,2020-10-22,33.60192578,-90.58882684
Mississippi,Tallahatchie,830,5,25,0,2020-10-22,33.95339918,-90.1729398
Mississippi,Tate,1149,13,39,0,2020-10-22,34.65133709,-89.94485778
Mississippi,Tippah,881,16,21,0,2020-10-22,34.76872156,-88.90988194
Mississippi,Tishomingo,800,3,41,0,2020-10-22,34.74023475,-88.23917219
Mississippi,Tunica,528,5,17,0,2020-10-22,34.64967704,-90.37481167
Mississippi,Union,1165,5,25,0,2020-10-22,34.49162015,-89.00776006
Mississippi,Walthall,636,3,27,0,2020-10-22,31.14971548,-90.10446654
Mississippi,Warren,1536,4,55,0,2020-10-22,32.35810271,-90.83352619
Mississippi,Washington,2551,14,99,0,2020-10-22,33.28392041,-90.94196237
Mississippi,Wayne,998,4,21,0,2020-10-22,31.64135687,-88.69573913
Mississippi,Webster,370,4,13,0,2020-10-22,33.61300486,-89.28392912
Mississippi,Wilkinson,335,4,20,0,2020-10-22,31.16078225,-91.31018819
Mississippi,Winston,828,2,21,0,2020-10-22,33.08747908,-89.03391385
Mississippi,Yalobusha,519,6,14,0,2020-10-22,34.02824175,-89.70762049999998
Mississippi,Yazoo,1207,8,33,0,2020-10-22,32.77890365,-90.39656148
Missouri,Adair,482,7,0,0,2020-10-22,40.19058551,-92.60078167
Missouri,Andrew,414,8,4,0,2020-10-22,39.98492163,-94.80163024
Missouri,Atchison,74,1,1,0,2020-10-22,40.43238737,-95.42970639
Missouri,Audrain,553,18,7,0,2020-10-22,39.215877,-91.84242683
Missouri,Barry,748,13,8,0,2020-10-22,36.70978521,-93.82919888
Missouri,Barton,409,7,2,0,2020-10-22,37.50207671,-94.34757022
Missouri,Bates,233,4,5,0,2020-10-22,38.25271289,-94.34113157
Missouri,Benton,468,3,5,0,2020-10-22,38.29503305,-93.28756116
Missouri,Bollinger,448,7,2,0,2020-10-22,37.32449052,-90.02725304
Missouri,Boone,5777,47,14,0,2020-10-22,38.99186229,-92.30723575
Missouri,Buchanan,2821,25,37,1,2020-10-22,39.65816401,-94.80138942
Missouri,Butler,1067,17,8,0,2020-10-22,36.71462476,-90.40421163
Missouri,Caldwell,163,1,1,0,2020-10-22,39.65620858,-93.98308093
Missouri,Callaway,1083,16,5,0,2020-10-22,38.83674754,-91.92186505
Missouri,Camden,1510,18,28,0,2020-10-22,38.02199522,-92.76083747
Missouri,Cape Girardeau,2540,36,46,1,2020-10-22,37.38489388,-89.6843587
Missouri,Carroll,174,1,2,0,2020-10-22,39.42762566,-93.50626255
Missouri,Carter,164,7,3,0,2020-10-22,36.94160441,-90.96051322
Missouri,Cass,1940,11,28,0,2020-10-22,38.64789422,-94.353399
Missouri,Cedar,216,4,2,0,2020-10-22,37.72391475,-93.85445441
Missouri,Chariton,57,1,1,0,2020-10-22,39.51499357,-92.9629191
Missouri,Christian,2154,27,10,0,2020-10-22,36.9711783,-93.18537118
Missouri,Clark,104,1,0,0,2020-10-22,40.41040752,-91.73661677
Missouri,Clay,2412,65,45,0,2020-10-22,39.31132056,-94.41850862
Missouri,Clinton,447,11,13,2,2020-10-22,39.6013098,-94.40465394
Missouri,Cole,2649,49,18,0,2020-10-22,38.50455671,-92.27860244
Missouri,Cooper,586,5,2,0,2020-10-22,38.844478,-92.80896081
Missouri,Crawford,583,20,7,0,2020-10-22,37.97663738,-91.30528104
Missouri,Dade,130,1,0,0,2020-10-22,37.431814,-93.8503345
Missouri,Dallas,325,22,1,0,2020-10-22,37.6811355,-93.02127031
Missouri,Daviess,206,0,4,0,2020-10-22,39.96145298,-93.98519678
Missouri,DeKalb,262,3,2,0,2020-10-22,39.89201062,-94.40476508
Missouri,Dent,239,3,3,0,2020-10-22,37.60663134,-91.50790473
Missouri,Douglas,276,3,9,0,2020-10-22,36.9325593,-92.49905109
Missouri,Dunklin,1043,15,12,0,2020-10-22,36.27167174,-90.09122243
Missouri,Franklin,2433,38,42,0,2020-10-22,38.41127108,-91.07522826
Missouri,Gasconade,235,5,24,0,2020-10-22,38.43947277,-91.50847147
Missouri,Gentry,176,2,10,0,2020-10-22,40.21097916,-94.40944419
Missouri,Greene,8592,95,111,0,2020-10-22,37.2575872,-93.34230916
Missouri,Grundy,254,6,9,0,2020-10-22,40.11406587,-93.56509276
Missouri,Harrison,182,3,1,0,2020-10-22,40.35570088,-93.99222144
Missouri,Henry,352,5,5,0,2020-10-22,38.38482826,-93.79293734
Missouri,Hickory,190,7,3,0,2020-10-22,37.94163617,-93.3203037
Missouri,Holt,112,1,1,0,2020-10-22,40.09799248,-95.2163888
Missouri,Howard,235,5,2,0,2020-10-22,39.1435761,-92.69756691
Missouri,Howell,1066,28,6,0,2020-10-22,36.77383887,-91.88683935
Missouri,Iron,95,2,0,0,2020-10-22,37.55487945,-90.7735296
Missouri,Jackson,9541,157,118,1,2020-10-22,39.01002188,-94.34724536
Missouri,Jasper,4955,62,68,0,2020-10-22,37.20351921,-94.34050458
Missouri,Jefferson,5282,41,78,0,2020-10-22,38.25926778,-90.53870896
Missouri,Johnson,1411,18,10,0,2020-10-22,38.74719601,-93.80691168
Missouri,Knox,60,1,1,0,2020-10-22,40.12699751,-92.14780832
Missouri,Laclede,1118,25,21,0,2020-10-22,37.65896829,-92.5888493
Missouri,Lafayette,767,13,24,0,2020-10-22,39.06986886,-93.78076396
Missouri,Lawrence,1018,12,14,0,2020-10-22,37.10626634,-93.83293097
Missouri,Lewis,179,4,2,0,2020-10-22,40.09673161,-91.72070156
Missouri,Lincoln,1084,5,5,0,2020-10-22,39.05345619,-90.95588181
Missouri,Linn,153,0,2,0,2020-10-22,39.87001769,-93.10704106
Missouri,Livingston,551,2,6,0,2020-10-22,39.78110272,-93.54645978
Missouri,McDonald,1195,3,11,0,2020-10-22,36.62869595,-94.34867205
Missouri,Macon,199,1,1,0,2020-10-22,39.83049768,-92.56453089
Missouri,Madison,454,7,3,0,2020-10-22,37.47865134,-90.3467143
Missouri,Maries,155,7,0,0,2020-10-22,38.16193985,-91.92249662
Missouri,Marion,858,8,14,0,2020-10-22,39.80601912,-91.62203062
Missouri,Mercer,31,0,0,0,2020-10-22,40.42212303,-93.5682959
Missouri,Miller,804,13,7,0,2020-10-22,38.21450288,-92.42610898
Missouri,Mississippi,406,4,5,0,2020-10-22,36.82516239,-89.29505753
Missouri,Moniteau,523,16,9,0,2020-10-22,38.63571781,-92.57976951
Missouri,Monroe,142,3,1,0,2020-10-22,39.49593978,-92.00043978
Missouri,Montgomery,116,4,1,0,2020-10-22,38.94022054,-91.47000721
Missouri,Morgan,622,18,6,0,2020-10-22,38.4181765,-92.88791859
Missouri,New Madrid,725,16,20,0,2020-10-22,36.59666326,-89.66070007
Missouri,Newton,1946,31,17,0,2020-10-22,36.90519407,-94.3394104
Missouri,Nodaway,1067,26,10,0,2020-10-22,40.36079813,-94.88133008
Missouri,Oregon,219,5,0,0,2020-10-22,36.68710164,-91.4033755
Missouri,Osage,438,7,3,0,2020-10-22,38.46036182,-91.8613635
Missouri,Ozark,192,11,1,0,2020-10-22,36.64916339,-92.44459066
Missouri,Pemiscot,691,5,12,0,2020-10-22,36.2130572,-89.78742322
Missouri,Perry,771,9,8,1,2020-10-22,37.70660776,-89.82741088
Missouri,Pettis,1500,16,14,0,2020-10-22,38.72798918,-93.28471706
Missouri,Phelps,785,9,20,1,2020-10-22,37.87736118,-91.79351727
Missouri,Pike,321,12,8,0,2020-10-22,39.34310674,-91.16980779
Missouri,Platte,945,19,12,0,2020-10-22,39.38154439,-94.77068479
Missouri,Polk,908,13,8,0,2020-10-22,37.6162296,-93.39828174
Missouri,Pulaski,906,5,9,0,2020-10-22,37.82462075,-92.20783203
Missouri,Putnam,49,1,1,0,2020-10-22,40.47942497,-93.02042674
Missouri,Ralls,195,1,0,0,2020-10-22,39.52817427,-91.51838643
Missouri,Randolph,562,21,3,0,2020-10-22,39.44007257,-92.4971374
Missouri,Ray,257,5,2,0,2020-10-22,39.3537468,-93.98905745
Missouri,Reynolds,62,2,0,0,2020-10-22,37.36085952,-90.97009925
Missouri,Ripley,241,8,4,0,2020-10-22,36.65460667,-90.85990261
Missouri,St. Charles,10055,104,144,0,2020-10-22,38.77875681,-90.66662425
Missouri,St. Clair,115,1,1,0,2020-10-22,38.03699437,-93.77631447
Missouri,Ste. Genevieve,331,12,1,0,2020-10-22,37.89090059,-90.1949941
Missouri,St. Francois,2699,16,22,0,2020-10-22,37.81214171,-90.47598685
Missouri,St. Louis,28842,216,865,5,2020-10-22,38.63770039999999,-90.4458375
Missouri,Saline,916,7,10,0,2020-10-22,39.13734288,-93.20259964
Missouri,Schuyler,35,0,0,0,2020-10-22,40.46921489,-92.52311943
Missouri,Scotland,68,5,1,0,2020-10-22,40.45214695,-92.14709064
Missouri,Scott,1337,25,19,0,2020-10-22,37.05588075,-89.56474493
Missouri,Shannon,214,12,3,0,2020-10-22,37.15772072,-91.40190382
Missouri,Shelby,98,1,1,0,2020-10-22,39.79742518,-92.07634971
