State,County,Total Cases,New Cases,Total Deaths,New Deaths,Date,Latitude,Longitude
Alabama,Autauga,2103,21,31,0,2020-10-28,32.53952745,-86.64408227
Alabama,Baldwin,6743,31,69,0,2020-10-28,30.72774991,-87.72207058
Alabama,Barbour,1045,3,9,0,2020-10-28,31.868263,-85.3871286
Alabama,Bibb,856,6,15,0,2020-10-28,32.99642064,-87.12511459999997
Alabama,Blount,1988,16,25,0,2020-10-28,33.98210918,-86.56790593
Alabama,Bullock,650,0,17,0,2020-10-28,32.10030533,-85.71265535
Alabama,Butler,1015,3,41,0,2020-10-28,31.75300095,-86.68057478
Alabama,Calhoun,4689,42,62,1,2020-10-28,33.77483727,-85.82630386
Alabama,Chambers,1370,2,47,0,2020-10-28,32.91360079,-85.39072749
Alabama,Cherokee,761,5,14,0,2020-10-28,34.17805983,-85.60638968
Alabama,Chilton,1909,5,32,0,2020-10-28,32.85044126,-86.7173256
Alabama,Choctaw,394,1,12,0,2020-10-28,32.02227341,-88.26564429999998
Alabama,Clarke,1380,14,17,0,2020-10-28,31.68099859,-87.83548597
Alabama,Clay,758,5,12,0,2020-10-28,33.26984193,-85.85836077
Alabama,Cleburne,577,4,9,0,2020-10-28,33.67679204,-85.52005899
Alabama,Coffee,1826,19,11,0,2020-10-28,31.39932826,-85.98901039
Alabama,Colbert,2082,22,32,0,2020-10-28,34.69847452,-87.80168544
Alabama,Conecuh,565,0,13,0,2020-10-28,31.43401703,-86.99320044
Alabama,Coosa,214,5,3,0,2020-10-28,32.93690146,-86.24847739
Alabama,Covington,1767,8,29,0,2020-10-28,31.2477854,-86.45050893
Alabama,Crenshaw,611,2,30,0,2020-10-28,31.72941803,-86.31593104
Alabama,Cullman,2600,43,25,0,2020-10-28,34.13020303,-86.86888037
Alabama,Dale,1808,19,52,0,2020-10-28,31.43037123,-85.61095742
Alabama,Dallas,1881,0,27,0,2020-10-28,32.32688101,-87.10866709999998
Alabama,DeKalb,3512,20,29,1,2020-10-28,34.45946862,-85.80782906
Alabama,Elmore,3265,19,58,5,2020-10-28,32.59785413,-86.14415284
Alabama,Escambia,1753,4,31,0,2020-10-28,31.1256789,-87.15918694
Alabama,Etowah,4365,24,52,1,2020-10-28,34.04567266,-86.04051873
Alabama,Fayette,594,5,13,0,2020-10-28,33.72076938,-87.73886638
Alabama,Franklin,2077,13,32,0,2020-10-28,34.44235334,-87.84289505
Alabama,Geneva,935,14,7,0,2020-10-28,31.09389027,-85.83572839
Alabama,Greene,346,0,16,0,2020-10-28,32.85504247,-87.95684022
Alabama,Hale,780,3,30,0,2020-10-28,32.76039258,-87.63284988
Alabama,Henry,728,5,6,0,2020-10-28,31.51148016,-85.24267944
Alabama,Houston,4212,19,34,0,2020-10-28,31.15197924,-85.29939599
Alabama,Jackson,2219,25,17,0,2020-10-28,34.78144169,-85.99750489
Alabama,Jefferson,23769,196,383,6,2020-10-28,33.55554728,-86.89506300000002
Alabama,Lamar,516,8,5,0,2020-10-28,33.77995024,-88.09668032
Alabama,Lauderdale,2371,33,43,1,2020-10-28,34.90171875,-87.65624729
Alabama,Lawrence,877,8,33,0,2020-10-28,34.52041498,-87.31069453
Alabama,Lee,6624,53,65,0,2020-10-28,32.60154883,-85.35132246
Alabama,Limestone,2951,15,31,0,2020-10-28,34.81185586,-86.98310072
Alabama,Lowndes,717,1,28,0,2020-10-28,32.1597283,-86.65158371
Alabama,Macon,541,2,20,0,2020-10-28,32.38759944,-85.69267724
Alabama,Madison,9467,45,98,0,2020-10-28,34.76327133,-86.55069633
Alabama,Marengo,1035,9,22,0,2020-10-28,32.24767634,-87.78796182
Alabama,Marion,1103,0,31,0,2020-10-28,34.13697363,-87.88704173
Alabama,Marshall,4452,26,51,0,2020-10-28,34.36975964,-86.30486727
Alabama,Mobile,17039,45,318,2,2020-10-28,30.78472347,-88.20842409
Alabama,Monroe,660,5,10,0,2020-10-28,31.56729412,-87.36995001
Alabama,Montgomery,10435,83,199,1,2020-10-28,32.2206831,-86.20969272
Alabama,Morgan,4263,40,35,0,2020-10-28,34.45500589,-86.85475946
Alabama,Perry,596,1,6,0,2020-10-28,32.64048341,-87.29770589
Alabama,Pickens,874,5,18,0,2020-10-28,33.28094866,-88.08818103
Alabama,Pike,1355,10,14,0,2020-10-28,31.80396383,-85.9408295
Alabama,Randolph,843,8,16,0,2020-10-28,33.29526734,-85.45708831
Alabama,Russell,1976,16,3,0,2020-10-28,32.28725256,-85.18415324
Alabama,St. Clair,3070,30,42,0,2020-10-28,33.71902176,-86.31029372
Alabama,Shelby,7563,59,65,0,2020-10-28,33.26879845,-86.66232561
Alabama,Sumter,477,3,21,0,2020-10-28,32.59117397,-88.19916205
Alabama,Talladega,2739,25,37,0,2020-10-28,33.37823223,-86.16886178
Alabama,Tallapoosa,1353,14,87,0,2020-10-28,32.86698258,-85.79833053
Alabama,Tuscaloosa,10539,77,141,1,2020-10-28,33.28726072,-87.52556818
Alabama,Walker,2855,18,93,0,2020-10-28,33.80270512,-87.30027177
Alabama,Washington,754,3,12,0,2020-10-28,31.4092794,-88.20689944
Alabama,Wilcox,571,1,12,0,2020-10-28,31.98773215,-87.30891118
Alabama,Winston,943,3,13,0,2020-10-28,34.15030532,-87.37325922
Alaska,Aleutians East,16,0,0,0,2020-10-28,55.32222414,-161.9722021
Alaska,Bristol Bay,0,0,0,0,2020-10-28,58.74513976,-156.701064
Alaska,Denali,31,0,0,0,2020-10-28,63.67264044,-150.0076108
Alaska,Fairbanks North Star,2173,33,14,0,2020-10-28,64.80726247,-146.5692662
Alaska,Haines,12,0,0,0,2020-10-28,59.09893571,-135.4679843
Alaska,Kenai Peninsula,975,33,4,1,2020-10-28,60.24429722,-151.53888840000005
Alaska,Ketchikan Gateway,80,-1,0,0,2020-10-28,55.57445008,-130.975561
Alaska,Kodiak Island,98,0,0,0,2020-10-28,57.65529415,-153.7493579
Alaska,Matanuska-Susitna,1300,76,2,0,2020-10-28,62.31305045,-149.5741743
Alaska,North Slope,267,1,0,0,2020-10-28,69.31479216,-153.4836093
Alaska,Northwest Arctic,243,5,0,0,2020-10-28,67.04919196,-159.7503946
Arizona,Apache,3934,44,169,0,2020-10-28,35.39465006,-109.4892383
Arizona,Cochise,2150,25,75,2,2020-10-28,31.87934684,-109.7516088
Arizona,Coconino,5165,44,148,1,2020-10-28,35.83883429,-111.7707178
Arizona,Gila,1914,7,70,0,2020-10-28,33.80190085,-110.8132779
Arizona,Graham,1185,23,28,0,2020-10-28,32.93166885,-109.8882178
Arizona,Greenlee,101,-2,1,0,2020-10-28,33.21498827,-109.2405279
Arizona,La Paz,618,2,17,0,2020-10-28,33.72854224,-113.9810029
Arizona,Maricopa,155951,493,3559,2,2020-10-28,33.34835867,-112.4918154
Arizona,Mohave,4340,27,230,0,2020-10-28,35.70471703,-113.7577902
Arizona,Navajo,6340,33,239,1,2020-10-28,35.3997715,-110.3218983
Arizona,Pima,27962,259,636,0,2020-10-28,32.0971334,-111.7890033
Arizona,Pinal,11873,41,224,7,2020-10-28,32.90525627,-111.3449483
Arizona,Santa Cruz,3004,9,65,0,2020-10-28,31.52508998,-110.8479088
Arizona,Yavapai,2939,20,89,1,2020-10-28,34.59933926,-112.5538588
Arizona,Yuma,13689,19,354,0,2020-10-28,32.76895712,-113.90666740000002
Arkansas,Arkansas,676,3,16,0,2020-10-28,34.29145151,-91.37277296
Arkansas,Ashley,547,8,11,0,2020-10-28,33.19153461,-91.7698471
Arkansas,Baxter,677,9,10,0,2020-10-28,36.28784385,-92.33782872
Arkansas,Benton,8262,85,119,1,2020-10-28,36.33644656,-94.25680817
Arkansas,Boone,1045,5,34,1,2020-10-28,36.3084504,-93.09374925
Arkansas,Bradley,371,1,8,0,2020-10-28,33.46755808,-92.15980837
Arkansas,Calhoun,53,0,0,0,2020-10-28,33.55598792,-92.49974403
Arkansas,Carroll,1007,7,16,1,2020-10-28,36.34038560000001,-93.54270261
Arkansas,Chicot,1053,3,23,1,2020-10-28,33.26458973,-91.29539209
Arkansas,Clark,501,4,5,0,2020-10-28,34.04613432,-93.17484713
Arkansas,Clay,493,3,12,0,2020-10-28,36.36826212,-90.4148172
Arkansas,Cleburne,462,1,15,0,2020-10-28,35.53864922,-92.02640019
Arkansas,Cleveland,238,4,13,0,2020-10-28,33.89723187,-92.18537045
Arkansas,Columbia,711,7,21,0,2020-10-28,33.21230701,-93.22642793
Arkansas,Conway,349,3,3,0,2020-10-28,35.26205537,-92.70506566
Arkansas,Craighead,4583,39,45,0,2020-10-28,35.83018283,-90.63235729
Arkansas,Crawford,2063,28,26,0,2020-10-28,35.58928601,-94.2446814
Arkansas,Crittenden,2428,31,52,0,2020-10-28,35.21247318,-90.30839406
Arkansas,Cross,593,6,22,0,2020-10-28,35.29631396,-90.77185818
Arkansas,Dallas,180,1,6,1,2020-10-28,33.97042763,-92.65167437
Arkansas,Desha,414,4,7,0,2020-10-28,33.83011025,-91.25500948
Arkansas,Drew,433,3,7,0,2020-10-28,33.59035001,-91.71777921
Arkansas,Faulkner,3389,31,36,1,2020-10-28,35.14719007,-92.33717519
Arkansas,Franklin,537,8,3,0,2020-10-28,35.51202821,-93.89299569
Arkansas,Fulton,330,7,9,0,2020-10-28,36.38177105,-91.81729127
Arkansas,Garland,2481,24,66,0,2020-10-28,34.57692074,-93.14921604
Arkansas,Grant,368,4,4,0,2020-10-28,34.29017991,-92.42320562
Arkansas,Greene,1541,34,20,1,2020-10-28,36.11735460000001,-90.55832668
Arkansas,Hempstead,557,3,5,0,2020-10-28,33.73325583,-93.66935133
Arkansas,Hot Spring,2212,4,38,2,2020-10-28,34.31709259,-92.95396325
Arkansas,Howard,590,8,14,0,2020-10-28,34.09007427,-93.9934871
Arkansas,Independence,1472,6,53,2,2020-10-28,35.74242707,-91.57001641
Arkansas,Izard,604,48,2,0,2020-10-28,36.09604046,-91.90847954
Arkansas,Jackson,773,13,6,0,2020-10-28,35.59802983,-91.21494602
Arkansas,Jefferson,4231,37,102,0,2020-10-28,34.26767081,-91.92619839
Arkansas,Johnson,1025,8,8,0,2020-10-28,35.56759135,-93.46036368
Arkansas,Lafayette,173,1,3,0,2020-10-28,33.24116713,-93.60677071
Arkansas,Lawrence,833,10,18,1,2020-10-28,36.04188196,-91.10867198
Arkansas,Lee,1110,0,18,0,2020-10-28,34.78498904,-90.78383866
Arkansas,Lincoln,2333,18,17,0,2020-10-28,33.95317155,-91.74002806
Arkansas,Little River,459,8,38,0,2020-10-28,33.70375665,-94.23468591
Arkansas,Logan,595,1,4,0,2020-10-28,35.21413234,-93.71951016
Arkansas,Lonoke,1781,29,28,0,2020-10-28,34.75392199,-91.88742357
Arkansas,Madison,431,1,6,0,2020-10-28,36.01038185,-93.72524943
Arkansas,Marion,155,2,2,0,2020-10-28,36.26844485,-92.68451899
Arkansas,Miller,1457,22,16,0,2020-10-28,33.31403423,-93.89285258
Arkansas,Mississippi,2316,19,68,0,2020-10-28,35.76271485,-90.05194370000002
Arkansas,Monroe,212,0,1,0,2020-10-28,34.6815935,-91.20540287
Arkansas,Montgomery,183,0,8,0,2020-10-28,34.53704874,-93.65824478
Arkansas,Nevada,311,10,14,0,2020-10-28,33.66340119,-93.30632432
Arkansas,Newton,314,7,20,1,2020-10-28,35.91947491,-93.21612969
Arkansas,Ouachita,385,6,9,0,2020-10-28,33.58839816,-92.87795984
Arkansas,Perry,139,2,0,0,2020-10-28,34.9459153,-92.94372564
Arkansas,Phillips,757,11,16,0,2020-10-28,34.43268455,-90.84800154
Arkansas,Pike,269,2,1,0,2020-10-28,34.16250414,-93.65789349
Arkansas,Poinsett,1115,44,20,0,2020-10-28,35.57433534,-90.66268713
Arkansas,Polk,360,2,5,0,2020-10-28,34.48254879,-94.22728802
Arkansas,Pope,2759,34,38,0,2020-10-28,35.44871474,-93.03212219
Arkansas,Prairie,231,7,4,0,2020-10-28,34.83624419,-91.55162157
Arkansas,Pulaski,12058,61,211,2,2020-10-28,34.77054088,-92.31355101
Arkansas,Randolph,659,9,24,0,2020-10-28,36.3415714,-91.02455531
Arkansas,St. Francis,1762,2,10,0,2020-10-28,35.02201976,-90.74828138
Arkansas,Saline,2884,30,30,1,2020-10-28,34.64916145,-92.67583224
Arkansas,Scott,220,1,1,0,2020-10-28,34.85588887,-94.0632176
Arkansas,Searcy,202,3,1,0,2020-10-28,35.9109364,-92.69936482
Arkansas,Sebastian,4877,28,93,0,2020-10-28,35.19605503,-94.27162713
Arkansas,Sevier,1362,11,16,0,2020-10-28,33.99780401,-94.2424869
Arkansas,Sharp,365,4,10,0,2020-10-28,36.16258158,-91.47819342
Arkansas,Stone,404,3,21,0,2020-10-28,35.86251946,-92.15684085
Arkansas,Union,1130,8,49,0,2020-10-28,33.16887091,-92.59746952
Arkansas,Van Buren,211,1,3,0,2020-10-28,35.58095779,-92.51295036
Arkansas,Washington,11522,54,151,1,2020-10-28,35.976844,-94.21800746
Arkansas,White,1493,15,33,1,2020-10-28,35.25688493,-91.74908296
Arkansas,Woodruff,124,4,0,0,2020-10-28,35.18902527,-91.2439489
Arkansas,Yell,1345,4,31,0,2020-10-28,35.00292371,-93.41171338
California,Alameda,23576,105,462,0,2020-10-28,37.64629437,-121.8929271
California,Alpine,3,0,0,0,2020-10-28,38.59678594,-119.8223594
California,Amador,335,4,16,0,2020-10-28,38.44583082,-120.65696
California,Butte,3107,12,52,0,2020-10-28,39.66727762,-121.6005252
California,Calaveras,347,5,21,3,2020-10-28,38.20537103,-120.552913
California,Colusa,553,2,6,0,2020-10-28,39.17881957,-122.2331726
California,Contra Costa,18817,54,243,1,2020-10-28,37.91923498,-121.9289527
California,Del Norte,180,0,1,0,2020-10-28,41.74228275,-123.8974063
California,El Dorado,1361,10,4,0,2020-10-28,38.77965956,-120.5233166
California,Fresno,31096,127,439,0,2020-10-28,36.75733899,-119.6466953
California,Glenn,678,7,3,0,2020-10-28,39.59875897,-122.3938452
California,Humboldt,568,0,10,0,2020-10-28,40.69923009,-123.876044
California,Imperial,12983,16,336,0,2020-10-28,33.0393082,-115.3669042
California,Inyo,234,3,15,0,2020-10-28,36.51112084,-117.41119779999998
California,Kern,34027,99,420,4,2020-10-28,35.34329425,-118.7277796
California,Kings,8411,147,83,0,2020-10-28,36.07409056,-119.8159973
California,Lake,700,2,16,0,2020-10-28,39.10124298,-122.7536244
California,Lassen,766,0,1,0,2020-10-28,40.67311306,-120.59350990000002
California,Los Angeles,303369,1292,7040,13,2020-10-28,34.30828379,-118.2282411
California,Madera,5057,20,76,2,2020-10-28,37.21513971,-119.76655890000002
California,Marin,7099,3,127,-2,2020-10-28,38.07122463,-122.7210631
California,Mariposa,80,1,2,0,2020-10-28,37.57978556,-119.9073334
California,Mendocino,1142,6,21,0,2020-10-28,39.4381191,-123.3911313
California,Merced,9572,41,155,0,2020-10-28,37.18922369,-120.7209035
California,Modoc,43,7,0,0,2020-10-28,41.58965602,-120.7244817
California,Mono,180,0,2,0,2020-10-28,37.93899289,-118.8872409
California,Monterey,11472,53,91,1,2020-10-28,36.21862405,-121.2413397
California,Napa,1979,13,16,0,2020-10-28,38.50735751,-122.332839
California,Nevada,628,5,8,0,2020-10-28,39.30394768,-120.7627281
California,Orange,59213,233,1467,13,2020-10-28,33.70147516,-117.76459979999998
California,Placer,4248,41,57,0,2020-10-28,39.06167234,-120.7240569
California,Plumas,73,3,0,0,2020-10-28,40.00355989,-120.8395236
California,Riverside,67299,306,1305,2,2020-10-28,33.74314981,-115.9933578
California,Sacramento,25750,149,496,5,2020-10-28,38.45106826,-121.3425374
California,San Benito,1444,2,15,0,2020-10-28,36.60308176,-121.069975
California,San Bernardino,63850,483,1073,0,2020-10-28,34.84060306,-116.1774685
California,San Diego,55540,330,881,4,2020-10-28,33.03484597,-116.7365326
California,San Joaquin,21906,177,490,1,2020-10-28,37.93433732,-121.2730061
California,San Luis Obispo,4191,17,32,0,2020-10-28,35.38822029,-120.4039028
California,San Mateo,11232,34,159,0,2020-10-28,37.4228808,-122.32755459999998
California,Santa Barbara,9874,47,126,4,2020-10-28,34.65329488,-120.0188492
California,Santa Clara,24558,133,402,10,2020-10-28,37.23104908,-121.6970462
California,Santa Cruz,2821,13,25,0,2020-10-28,37.05580291,-122.0066524
California,Shasta,1962,8,31,0,2020-10-28,40.76391419,-122.0396884
California,Sierra,6,0,0,0,2020-10-28,39.57713498,-120.52007009999998
California,Siskiyou,205,0,0,0,2020-10-28,41.59198861,-122.5407434
California,Solano,7480,35,76,0,2020-10-28,38.26827353,-121.9357113
California,Sonoma,9569,75,136,0,2020-10-28,38.52746429,-122.8862506
California,Stanislaus,17760,46,399,1,2020-10-28,37.55862499,-120.9970722
California,Sutter,1878,13,12,0,2020-10-28,39.03417539,-121.6945899
California,Tehama,913,21,9,1,2020-10-28,40.12570935,-122.2370171
California,Trinity,28,1,0,0,2020-10-28,40.64917670000001,-123.114713
California,Tulare,17678,88,288,0,2020-10-28,36.22026558,-118.8020203
California,Tuolumne,279,4,4,0,2020-10-28,38.02644018,-119.9525093
California,Ventura,14347,17,165,0,2020-10-28,34.44465746,-119.0910613
California,Yolo,3234,15,60,1,2020-10-28,38.68278902,-121.9018288
California,Yuba,1334,11,10,0,2020-10-28,39.26255932,-121.3535644
Colorado,Adams,14173,228,260,3,2020-10-28,39.87432092,-104.3362578
Colorado,Alamosa,316,9,9,0,2020-10-28,37.57250606,-105.7885451
Colorado,Arapahoe,12810,156,382,2,2020-10-28,39.64977461,-104.3353617
Colorado,Archuleta,67,0,0,0,2020-10-28,37.19474156,-107.0476867
Colorado,Baca,31,0,0,0,2020-10-28,37.31940883,-102.5603223
Colorado,Bent,14,0,0,0,2020-10-28,37.95474293,-103.0720195
Colorado,Boulder,5651,150,85,0,2020-10-28,40.09313619,-105.3546767
Colorado,Chaffee,402,8,20,0,2020-10-28,38.74745778,-106.19265729999998
Colorado,Cheyenne,15,0,0,0,2020-10-28,38.82777431,-102.6032558
Colorado,Clear Creek,75,4,1,0,2020-10-28,39.68864463,-105.6463118
Colorado,Conejos,66,0,0,0,2020-10-28,37.201606,-106.19174879999998
Colorado,Costilla,36,0,1,0,2020-10-28,37.27732493,-105.4276548
Colorado,Crowley,92,1,1,0,2020-10-28,38.32608609,-103.7844965
Colorado,Custer,21,0,0,0,2020-10-28,38.10883162,-105.3683478
Colorado,Delta,205,2,3,0,2020-10-28,38.86246243,-107.8631342
Colorado,Dolores,3,0,0,0,2020-10-28,37.75208676,-108.5211585
Colorado,Douglas,4008,65,64,0,2020-10-28,39.33133796,-104.930001
Colorado,Eagle,1447,19,10,0,2020-10-28,39.62754308,-106.6933637
Colorado,Elbert,224,5,3,0,2020-10-28,39.28656773,-104.1358721
Colorado,El Paso,10159,103,198,2,2020-10-28,38.83240149,-104.5251411
Colorado,Fremont,679,6,2,1,2020-10-28,38.47362326,-105.4399667
Colorado,Garfield,1187,24,5,0,2020-10-28,39.59921777,-107.902708
Colorado,Gilpin,28,0,0,0,2020-10-28,39.85646523,-105.5252597
Colorado,Grand,153,0,1,0,2020-10-28,40.10603347,-106.1178042
Colorado,Gunnison,307,1,7,0,2020-10-28,38.66611652,-107.0320729
Colorado,Hinsdale,3,0,0,0,2020-10-28,37.82247444,-107.3004345
Colorado,Huerfano,33,0,2,0,2020-10-28,37.68473101,-104.9612585
Colorado,Jackson,9,0,0,0,2020-10-28,40.66593870000001,-106.3408905
Colorado,Jefferson,8608,144,311,2,2020-10-28,39.58635604,-105.2517692
Colorado,Kiowa,4,0,0,0,2020-10-28,38.43260896,-102.7392145
Colorado,Kit Carson,132,1,3,0,2020-10-28,39.30497777,-102.6022199
Colorado,Lake,133,0,0,0,2020-10-28,39.20278823,-106.3555697
Colorado,La Plata,364,0,2,0,2020-10-28,37.28632032,-107.8429014
Colorado,Larimer,4105,34,57,0,2020-10-28,40.66671597,-105.4625784
Colorado,Las Animas,74,4,1,0,2020-10-28,37.3153406,-104.0376458
Colorado,Lincoln,25,0,0,0,2020-10-28,38.98749519,-103.5136649
Colorado,Logan,1233,10,12,0,2020-10-28,40.7249637,-103.110817
Colorado,Mesa,1470,51,13,2,2020-10-28,39.01787888,-108.469799
Colorado,Mineral,21,0,0,0,2020-10-28,37.66954283,-106.9281698
Colorado,Moffat,68,4,1,0,2020-10-28,40.61810999,-108.2070876
Colorado,Montezuma,212,1,5,0,2020-10-28,37.33859579,-108.5958857
Colorado,Montrose,470,0,13,0,2020-10-28,38.40214114,-108.26390220000002
Colorado,Morgan,864,8,48,0,2020-10-28,40.26279810000001,-103.8093302
Colorado,Otero,148,9,6,0,2020-10-28,37.9014485,-103.7173385
Colorado,Ouray,38,2,2,0,2020-10-28,38.14717457,-107.7675136
Colorado,Park,96,1,1,0,2020-10-28,39.120926,-105.7182065
Colorado,Phillips,55,5,0,0,2020-10-28,40.59414277,-102.3577703
Colorado,Pitkin,291,4,2,0,2020-10-28,39.21720112,-106.9310027
Colorado,Prowers,182,7,3,0,2020-10-28,37.95544985,-102.3926052
Colorado,Pueblo,2096,49,41,0,2020-10-28,38.17359144,-104.5127437
Colorado,Rio Blanco,29,1,0,0,2020-10-28,39.97913541,-108.2179009
Colorado,Rio Grande,122,0,3,0,2020-10-28,37.5836865,-106.3847838
Colorado,Routt,215,4,8,0,2020-10-28,40.48596505,-106.9905548
Colorado,Saguache,137,2,2,0,2020-10-28,38.08054629,-106.282466
Colorado,San Juan,7,0,0,0,2020-10-28,37.76248981,-107.67632890000002
Colorado,San Miguel,104,2,0,0,2020-10-28,38.00450883,-108.4020725
Colorado,Sedgwick,40,0,1,0,2020-10-28,40.87595412,-102.3519227
Colorado,Summit,718,23,4,0,2020-10-28,39.63803232,-106.1150762
Colorado,Teller,227,4,4,0,2020-10-28,38.88133511,-105.1614893
Colorado,Washington,102,6,0,0,2020-10-28,39.97015535,-103.202587
Colorado,Weld,6122,57,159,-1,2020-10-28,40.55499405,-104.3929621
Colorado,Yuma,218,4,1,0,2020-10-28,40.00346839,-102.4258673
Connecticut,Fairfield,23280,190,1435,2,2020-10-28,41.26809896,-73.3881171
Connecticut,Hartford,17783,111,1474,4,2020-10-28,41.80283011,-72.73103891
Connecticut,Litchfield,2228,19,143,0,2020-10-28,41.7937534,-73.2451475
Connecticut,Middlesex,1965,8,197,0,2020-10-28,41.45949668,-72.53714864
Connecticut,New Haven,16837,122,1128,2,2020-10-28,41.4080325,-72.93620426
Connecticut,New London,3715,20,140,0,2020-10-28,41.48896435,-72.10430976
Connecticut,Tolland,1750,12,68,0,2020-10-28,41.85853803,-72.3308481
Connecticut,Windham,1419,11,19,1,2020-10-28,41.82972709,-71.98182316
Delaware,Kent,3481,19,120,0,2020-10-28,39.08646628,-75.56884914
Delaware,New Castle,12895,81,340,0,2020-10-28,39.57992638,-75.64054974
Delaware,Sussex,7925,43,228,2,2020-10-28,38.66143781,-75.39031349
Florida,Alachua,10296,100,74,0,2020-10-28,29.67866525,-82.35928158
Florida,Baker,1771,13,19,0,2020-10-28,30.33060121,-82.28467476
Florida,Bay,6780,56,133,0,2020-10-28,30.26548745,-85.62122584
Florida,Bradford,1233,8,15,0,2020-10-28,29.95079741,-82.16611613
Florida,Brevard,11318,69,368,0,2020-10-28,28.29409504,-80.73091022
Florida,Broward,84983,645,1520,0,2020-10-28,26.15184651,-80.48725556
Florida,Calhoun,709,2,14,0,2020-10-28,30.40666734,-85.19394153
Florida,Charlotte,3611,23,157,0,2020-10-28,26.90131002,-81.92949121
Florida,Citrus,3210,15,131,1,2020-10-28,28.84804315,-82.47614748
Florida,Clay,6032,39,126,7,2020-10-28,29.98319144,-81.85609986
Florida,Collier,14326,79,255,0,2020-10-28,26.11091986,-81.34687065
Florida,Columbia,4240,5,81,10,2020-10-28,30.22509788,-82.62160164
Florida,DeSoto,1666,4,29,0,2020-10-28,27.18677893,-81.80941373
Florida,Dixie,891,4,11,0,2020-10-28,29.60631086,-83.15724673
Florida,Duval,34727,108,515,0,2020-10-28,30.33225875,-81.66976468
Florida,Escambia,13445,70,269,0,2020-10-28,30.67652764,-87.37284571
Florida,Flagler,2115,12,38,0,2020-10-28,29.45933576,-81.31508595
Florida,Franklin,764,5,4,0,2020-10-28,29.83791238,-84.82731662
Florida,Gadsden,3060,2,56,1,2020-10-28,30.57796289,-84.61915825
Florida,Gilchrist,603,0,18,0,2020-10-28,29.72856978,-82.79880657
Florida,Glades,601,2,6,0,2020-10-28,26.95635849,-81.18996211
Florida,Gulf,938,1,15,0,2020-10-28,29.93543004,-85.24270990000002
Florida,Hamilton,903,2,11,2,2020-10-28,30.49673973,-82.94998918
Florida,Hardee,1596,12,16,0,2020-10-28,27.49293939,-81.80956574
Florida,Hendry,2209,7,43,0,2020-10-28,26.55386945,-81.16469006
Florida,Hernando,3678,25,170,0,2020-10-28,28.55364461,-82.42700204
Florida,Highlands,2633,31,114,1,2020-10-28,27.34254618,-81.34071957
Florida,Hillsborough,47596,225,782,20,2020-10-28,27.9276559,-82.32013172
Florida,Holmes,907,18,12,0,2020-10-28,30.86747479,-85.81319222
Florida,Indian River,3803,39,125,0,2020-10-28,27.69308961,-80.60556721
Florida,Jackson,3123,15,84,0,2020-10-28,30.7954597,-85.21500423
Florida,Jefferson,665,0,9,0,2020-10-28,30.43669112,-83.89442308
Florida,Lafayette,1276,1,16,0,2020-10-28,29.98484137,-83.18166636
Florida,Lake,8580,60,227,1,2020-10-28,28.76202069,-81.7125123
Florida,Lee,23195,137,510,1,2020-10-28,26.58410348,-81.88399313
Florida,Leon,12246,109,115,1,2020-10-28,30.45955727,-84.27491114
Florida,Levy,1134,5,12,0,2020-10-28,29.31829741,-82.74007147
Florida,Liberty,534,0,11,0,2020-10-28,30.23766008,-84.8829258
Florida,Madison,1076,1,24,0,2020-10-28,30.44396917,-83.47398594
Florida,Manatee,13175,61,330,0,2020-10-28,27.47196942,-82.31831044
Florida,Marion,10795,40,348,1,2020-10-28,29.21227113,-82.05803627
Florida,Martin,5342,26,164,0,2020-10-28,27.0772071,-80.43109784
Florida,Miami-Dade,183996,746,3625,1,2020-10-28,25.6112362,-80.55170587
Florida,Monroe,2229,15,25,0,2020-10-28,25.20904673,-81.07812416
Florida,Nassau,2470,13,51,0,2020-10-28,30.61037141,-81.80297522
Florida,Okaloosa,6308,64,130,0,2020-10-28,30.69143028,-86.59267105
Florida,Okeechobee,1735,4,38,0,2020-10-28,27.386336199999995,-80.88944347
Florida,Orange,45755,263,549,3,2020-10-28,28.51367621,-81.31799498
Florida,Osceola,14114,70,202,4,2020-10-28,28.06312234,-81.14882926
Florida,Palm Beach,51415,243,1568,3,2020-10-28,26.64676272,-80.46536002
Florida,Pasco,10781,64,238,2,2020-10-28,28.30810945,-82.40227529
Florida,Pinellas,25534,120,818,0,2020-10-28,27.93130349,-82.72239666
Florida,Polk,22852,90,615,0,2020-10-28,27.95027105,-81.69732947
Florida,Putnam,2374,12,50,0,2020-10-28,29.60779729,-81.74230285
Florida,St. Johns,6436,52,80,0,2020-10-28,29.90096506,-81.43589967
Florida,St. Lucie,9024,43,333,2,2020-10-28,27.37763908,-80.47106649
Florida,Santa Rosa,5918,24,87,0,2020-10-28,30.693414500000006,-87.02458128
Florida,Sarasota,9567,50,338,0,2020-10-28,27.18546175,-82.33174248
Florida,Seminole,10188,43,241,3,2020-10-28,28.7158582,-81.24060348
Florida,Sumter,2882,13,87,2,2020-10-28,28.70181754,-82.0794267
Florida,Suwannee,2989,6,77,0,2020-10-28,30.19746066,-82.99099670000003
Florida,Taylor,1464,5,16,0,2020-10-28,30.04848048,-83.60445406
Florida,Union,1129,3,43,0,2020-10-28,30.04412971,-82.37497443
Florida,Volusia,12670,81,318,0,2020-10-28,29.05858895,-81.18263252
Florida,Wakulla,1317,5,11,0,2020-10-28,30.16548905,-84.39895211
Florida,Walton,2427,25,30,0,2020-10-28,30.64204028,-86.16935664
Florida,Washington,1232,6,24,0,2020-10-28,30.61359259,-85.66002461
Georgia,Appling,1163,4,37,0,2020-10-28,31.74847232,-82.28909114
Georgia,Atkinson,483,1,6,0,2020-10-28,31.29633502,-82.87545866
Georgia,Bacon,637,1,16,0,2020-10-28,31.55456473,-82.45936528
Georgia,Baker,91,0,6,0,2020-10-28,31.32669878,-84.44218806
Georgia,Baldwin,2315,9,64,0,2020-10-28,33.06882326,-83.24701748
Georgia,Banks,555,-1,8,0,2020-10-28,34.35607081,-83.49644388
Georgia,Barrow,2616,14,51,0,2020-10-28,33.99148694,-83.71436292
Georgia,Bartow,3637,23,94,0,2020-10-28,34.23732119,-84.83887523
Georgia,Ben Hill,871,0,33,0,2020-10-28,31.76095874,-83.22145359
Georgia,Berrien,493,2,13,0,2020-10-28,31.27590016,-83.22529920000002
Georgia,Bibb,6618,14,197,1,2020-10-28,32.80904227,-83.70489165
Georgia,Bleckley,514,3,27,0,2020-10-28,32.43829035,-83.33035166
Georgia,Brantley,462,7,13,0,2020-10-28,31.19576557,-81.97743999
Georgia,Brooks,554,2,27,0,2020-10-28,30.83922642,-83.58303423
Georgia,Bryan,1318,8,16,2,2020-10-28,32.00979311,-81.44002948
Georgia,Bulloch,3093,4,33,0,2020-10-28,32.39577406,-81.74811421
Georgia,Burke,893,7,12,0,2020-10-28,33.05917989,-81.99928721
Georgia,Butts,743,3,44,0,2020-10-28,33.283094500000004,-83.95435040000002
Georgia,Calhoun,270,0,9,0,2020-10-28,31.53169785,-84.62725131
Georgia,Camden,1423,7,18,0,2020-10-28,30.92951916,-81.66601818
Georgia,Candler,546,1,25,1,2020-10-28,32.40209349,-82.07702563
Georgia,Carroll,3341,4,76,1,2020-10-28,33.58138199,-85.07976677
Georgia,Catoosa,1444,15,22,0,2020-10-28,34.89872298,-85.13757014
Georgia,Charlton,647,1,10,0,2020-10-28,30.78371028,-82.13951596
Georgia,Chatham,9446,40,187,0,2020-10-28,32.00043026,-81.12489526
Georgia,Chattahoochee,1747,0,1,0,2020-10-28,32.34341231,-84.78809239
Georgia,Chattooga,944,4,29,0,2020-10-28,34.47197698,-85.34535662
Georgia,Cherokee,7161,79,102,0,2020-10-28,34.24393976,-84.47431861
Georgia,Clarke,5748,19,48,0,2020-10-28,33.95436462,-83.37124007
Georgia,Clay,124,0,3,0,2020-10-28,31.62221166,-84.97713865
Georgia,Clayton,8253,53,175,0,2020-10-28,33.54187245,-84.35594188
Georgia,Clinch,450,2,12,0,2020-10-28,30.91395822,-82.70432472
Georgia,Cobb,21977,110,457,3,2020-10-28,33.94243204,-84.5761255
Georgia,Coffee,2260,5,60,0,2020-10-28,31.54892966,-82.85492059999999
Georgia,Colquitt,2132,9,40,1,2020-10-28,31.18810588,-83.7677946
Georgia,Columbia,4386,15,64,0,2020-10-28,33.54534185,-82.263524
Georgia,Cook,584,2,16,0,2020-10-28,31.16068491,-83.42947229
Georgia,Coweta,2971,7,63,0,2020-10-28,33.35334302,-84.76129976
Georgia,Crawford,196,0,6,0,2020-10-28,32.71391813,-83.98061238
Georgia,Crisp,647,4,23,0,2020-10-28,31.92289565,-83.76811843
Georgia,Dade,356,1,6,0,2020-10-28,34.854916700000004,-85.50490424
Georgia,Dawson,915,4,11,0,2020-10-28,34.44244079,-84.16964071
Georgia,Decatur,1297,5,34,0,2020-10-28,30.87967778,-84.57619536
Georgia,DeKalb,21231,130,398,0,2020-10-28,33.76944049,-84.22396017
Georgia,Dodge,612,3,19,0,2020-10-28,32.17265114,-83.16948926
Georgia,Dooly,374,3,18,0,2020-10-28,32.15630737,-83.79746561
Georgia,Dougherty,3300,6,191,0,2020-10-28,31.53328528,-84.21722377
Georgia,Douglas,4114,30,72,0,2020-10-28,33.70291126,-84.77026156
Georgia,Early,550,0,35,0,2020-10-28,31.32155345,-84.90255207
Georgia,Echols,246,0,2,0,2020-10-28,30.71101099,-82.89687287
Georgia,Effingham,1827,11,28,0,2020-10-28,32.36616021,-81.34280942
Georgia,Elbert,754,2,9,1,2020-10-28,34.11302332,-82.83936148
Georgia,Emanuel,1204,1,39,2,2020-10-28,32.59221302,-82.30239915
Georgia,Evans,487,2,7,0,2020-10-28,32.15328841,-81.8870105
Georgia,Fannin,832,4,29,1,2020-10-28,34.86430205,-84.316964
Georgia,Fayette,2129,0,57,0,2020-10-28,33.41357794,-84.49089434
Georgia,Floyd,3975,19,60,1,2020-10-28,34.26268279,-85.21577392
Georgia,Forsyth,4772,37,53,0,2020-10-28,34.22604035,-84.12315129999998
Georgia,Franklin,935,2,18,0,2020-10-28,34.37525597,-83.23159927
Georgia,Fulton,31220,182,620,1,2020-10-28,33.79216944,-84.46319413
Georgia,Gilmer,1043,7,23,0,2020-10-28,34.69316688,-84.45802506
Georgia,Glascock,49,0,2,0,2020-10-28,33.22879932,-82.61297636
Georgia,Glynn,3734,11,104,0,2020-10-28,31.23279254,-81.53811412
Georgia,Gordon,2387,17,45,0,2020-10-28,34.50487351,-84.87296253
Georgia,Grady,860,2,25,0,2020-10-28,30.87454847,-84.23418364
Georgia,Greene,573,3,25,0,2020-10-28,33.5769205,-83.17139104
Georgia,Gwinnett,30596,107,445,2,2020-10-28,33.96044201,-84.02137802
Georgia,Habersham,1884,8,78,0,2020-10-28,34.63331566,-83.53094677
Georgia,Hall,10694,36,178,2,2020-10-28,34.32207823,-83.81896936
Georgia,Hancock,413,0,44,0,2020-10-28,33.2721566,-82.99766919
Georgia,Haralson,650,8,10,0,2020-10-28,33.79602175,-85.21005667
Georgia,Harris,851,1,25,0,2020-10-28,32.73709786,-84.90538572
Georgia,Hart,576,0,16,0,2020-10-28,34.34626973,-82.96567682
Georgia,Heard,229,1,6,0,2020-10-28,33.29686567,-85.12886832
Georgia,Henry,6223,19,113,1,2020-10-28,33.4533428,-84.14814659999998
Georgia,Houston,3615,4,94,0,2020-10-28,32.45802497,-83.66879087
Georgia,Irwin,356,-2,8,0,2020-10-28,31.60213036,-83.27501387
Georgia,Jackson,2392,17,41,1,2020-10-28,34.13794553,-83.56814788
Georgia,Jasper,247,1,4,0,2020-10-28,33.31535543,-83.68844964
Georgia,Jeff Davis,798,6,23,0,2020-10-28,31.80405727,-82.63724870000001
Georgia,Jefferson,856,3,33,0,2020-10-28,33.05867328,-82.41609057
Georgia,Jenkins,469,2,32,0,2020-10-28,32.79248718,-81.96040187
Georgia,Johnson,440,0,22,0,2020-10-28,32.70211082,-82.66166794
Georgia,Jones,646,3,16,0,2020-10-28,33.02512137,-83.56019163
Georgia,Lamar,423,1,20,0,2020-10-28,33.07841647,-84.14263877
Georgia,Lanier,318,0,7,0,2020-10-28,31.038285700000007,-83.06472457
Georgia,Laurens,2010,21,87,1,2020-10-28,32.46325233,-82.92221316
Georgia,Lee,748,2,29,0,2020-10-28,31.779330600000005,-84.14324253
Georgia,Liberty,1275,28,25,0,2020-10-28,31.82588896,-81.49251135
Georgia,Lincoln,235,1,7,0,2020-10-28,33.79201475,-82.45024131
Georgia,Long,276,-1,4,0,2020-10-28,31.75218791,-81.74952375
Georgia,Lowndes,4475,18,85,0,2020-10-28,30.83568832,-83.27056716
Georgia,Lumpkin,1048,5,15,0,2020-10-28,34.57286511,-84.00425681
Georgia,McDuffie,685,6,15,0,2020-10-28,33.47851918,-82.48252774
Georgia,McIntosh,308,4,8,0,2020-10-28,31.49683595,-81.40163426
Georgia,Macon,249,0,10,0,2020-10-28,32.35207048,-84.04234127
Georgia,Madison,789,2,11,0,2020-10-28,34.12920917,-83.21218732
Georgia,Marion,200,3,9,0,2020-10-28,32.3483402,-84.52733571
Georgia,Meriwether,596,-2,16,0,2020-10-28,33.04163534,-84.68859732
Georgia,Miller,313,1,2,0,2020-10-28,31.16568912,-84.73151117
Georgia,Mitchell,847,2,45,0,2020-10-28,31.22483255,-84.19381821
Georgia,Monroe,762,6,53,0,2020-10-28,33.014289,-83.92097166
Georgia,Montgomery,373,-3,10,0,2020-10-28,32.17201038,-82.53527476
Georgia,Morgan,531,3,6,0,2020-10-28,33.59232073,-83.49129491
Georgia,Murray,1051,18,9,0,2020-10-28,34.78897608,-84.74993177
Georgia,Muscogee,6378,16,174,0,2020-10-28,32.50931999,-84.87142262
Georgia,Newton,2868,12,95,0,2020-10-28,33.55514538,-83.84547140000002
Georgia,Oconee,869,4,30,0,2020-10-28,33.83749973,-83.43679568
Georgia,Oglethorpe,420,3,13,0,2020-10-28,33.878629600000004,-83.08278123
Georgia,Paulding,3176,29,61,1,2020-10-28,33.91969522,-84.86848792
Georgia,Peach,776,4,26,0,2020-10-28,32.56934316,-83.82937
Georgia,Pickens,785,10,10,0,2020-10-28,34.46589159,-84.46406611
Georgia,Pierce,680,1,24,0,2020-10-28,31.35928155,-82.21598442
Georgia,Pike,389,2,11,0,2020-10-28,33.09310242,-84.38790389
Georgia,Polk,1711,4,29,1,2020-10-28,34.00267074,-85.18677781
Georgia,Pulaski,339,0,23,0,2020-10-28,32.23334561,-83.47549959999998
Georgia,Putnam,800,5,27,0,2020-10-28,33.32056115,-83.37552891
Georgia,Quitman,40,1,1,0,2020-10-28,31.86728114,-85.01773177
Georgia,Rabun,429,1,11,0,2020-10-28,34.88389445,-83.40304637
Georgia,Randolph,339,0,29,0,2020-10-28,31.76622818,-84.75732369
Georgia,Richmond,7964,23,183,1,2020-10-28,33.35777107,-82.07026432
Georgia,Rockdale,2136,14,40,0,2020-10-28,33.65145002,-84.02202167
Georgia,Schley,109,0,2,0,2020-10-28,32.2654021,-84.31258912
Georgia,Screven,450,0,11,0,2020-10-28,32.74976524,-81.60779441
Georgia,Seminole,393,0,11,0,2020-10-28,30.93464824,-84.86823924
Georgia,Spalding,1599,11,62,0,2020-10-28,33.26310031,-84.28013991
Georgia,Stephens,1280,2,41,0,2020-10-28,34.55151201,-83.29405315
Georgia,Stewart,567,-1,16,0,2020-10-28,32.07996777,-84.83208037
Georgia,Sumter,959,0,68,0,2020-10-28,32.03650571,-84.19821492
Georgia,Talbot,174,0,8,0,2020-10-28,32.69642758,-84.53351366
Georgia,Taliaferro,28,1,0,0,2020-10-28,33.56543317,-82.88136816
Georgia,Tattnall,933,7,15,0,2020-10-28,32.04785085,-82.05539188
Georgia,Taylor,232,2,12,0,2020-10-28,32.55792548,-84.25077141
Georgia,Telfair,507,3,24,0,2020-10-28,31.92829517,-82.93491155
Georgia,Terrell,341,0,32,0,2020-10-28,31.77527543,-84.44069698
Georgia,Thomas,1605,4,69,0,2020-10-28,30.86392347,-83.91847289
Georgia,Tift,1964,13,64,1,2020-10-28,31.45743864,-83.5236119
Georgia,Toombs,1499,3,56,0,2020-10-28,32.12059861,-82.32957247
Georgia,Towns,441,3,13,0,2020-10-28,34.91369188,-83.74107459999998
Georgia,Treutlen,311,2,12,1,2020-10-28,32.40422134,-82.56904553
Georgia,Troup,3068,12,108,1,2020-10-28,33.03349196,-85.02812115
Georgia,Turner,335,0,24,0,2020-10-28,31.71612656,-83.62069378
Georgia,Twiggs,217,1,10,0,2020-10-28,32.67435595,-83.43078662
Georgia,Union,890,4,26,1,2020-10-28,34.82995757,-83.98967069
Georgia,Upson,839,1,70,0,2020-10-28,32.87920671,-84.30024826
Georgia,Walker,1894,17,44,1,2020-10-28,34.73376362,-85.30165174
Georgia,Walton,2354,15,68,0,2020-10-28,33.78017694,-83.73552314
Georgia,Ware,1737,3,63,0,2020-10-28,31.05449097,-82.42224148
Georgia,Warren,165,1,5,0,2020-10-28,33.41146451,-82.67795848
Georgia,Washington,776,12,13,0,2020-10-28,32.96711864,-82.79357039
Georgia,Wayne,1242,7,33,0,2020-10-28,31.5521809,-81.91894878
Georgia,Webster,44,0,2,0,2020-10-28,32.04066113,-84.54742852
Georgia,Wheeler,369,0,16,0,2020-10-28,32.12009104,-82.72574721
Georgia,White,1005,5,23,0,2020-10-28,34.64624278,-83.74905525
Georgia,Whitfield,5469,59,64,0,2020-10-28,34.80987459,-84.96093476
Georgia,Wilcox,257,1,25,0,2020-10-28,31.97496928,-83.43438555
Georgia,Wilkes,300,3,6,0,2020-10-28,33.78290391,-82.74286107
Georgia,Wilkinson,369,1,17,0,2020-10-28,32.80291082,-83.17140684
Georgia,Worth,607,3,32,0,2020-10-28,31.55162306,-83.85090513
Idaho,Ada,16710,159,167,0,2020-10-28,43.4526575,-116.24155159999998
Idaho,Adams,57,0,2,0,2020-10-28,44.89333571,-116.4545247
Idaho,Bannock,2520,54,14,1,2020-10-28,42.67002716,-112.2233311
Idaho,Bear Lake,74,1,1,0,2020-10-28,42.28269683,-111.32892379999998
Idaho,Benewah,175,3,3,0,2020-10-28,47.21754179,-116.6586851
Idaho,Bingham,1612,22,22,4,2020-10-28,43.21672879999999,-112.3978437
Idaho,Blaine,883,18,7,0,2020-10-28,43.4085812,-113.9752658
Idaho,Boise,82,5,2,0,2020-10-28,43.98829931,-115.7309284
Idaho,Bonner,492,5,1,0,2020-10-28,48.29996017,-116.6017932
Idaho,Bonneville,4553,94,35,5,2020-10-28,43.38713372,-111.6161537
Idaho,Boundary,156,9,1,0,2020-10-28,48.76684761,-116.4630179
Idaho,Butte,101,3,0,0,2020-10-28,43.72592209,-113.1735463
Idaho,Camas,41,0,0,0,2020-10-28,43.46665742,-114.8065892
Idaho,Canyon,10013,84,108,0,2020-10-28,43.61970148,-116.7095499
Idaho,Caribou,287,10,4,0,2020-10-28,42.77149116,-111.5597683
Idaho,Cassia,1397,16,9,1,2020-10-28,42.28347888,-113.6012409
Idaho,Clark,40,0,0,0,2020-10-28,44.28496071,-112.3505704
Idaho,Clearwater,142,-2,0,0,2020-10-28,46.67459924,-115.6622393
Idaho,Custer,95,1,1,0,2020-10-28,44.24186819,-114.2855494
Idaho,Elmore,530,9,4,0,2020-10-28,43.3507101,-115.4701578
Idaho,Franklin,367,8,2,0,2020-10-28,42.18332217,-111.8149666
Idaho,Fremont,481,4,4,0,2020-10-28,44.22800938,-111.4809943
Idaho,Gem,428,3,6,0,2020-10-28,44.06482372,-116.398376
Idaho,Gooding,588,26,8,1,2020-10-28,42.96927962,-114.8108306
Idaho,Idaho,373,3,1,0,2020-10-28,45.84721541,-115.4634436
Idaho,Jefferson,980,13,3,0,2020-10-28,43.82078483,-112.3131749
Idaho,Jerome,1119,26,9,0,2020-10-28,42.68891267,-114.2655033
Idaho,Kootenai,4135,67,49,0,2020-10-28,47.67282258,-116.7020872
Idaho,Latah,949,0,1,0,2020-10-28,46.81587887,-116.7113698
Idaho,Lemhi,251,21,0,0,2020-10-28,44.9438088,-113.9309747
Idaho,Lewis,81,0,3,0,2020-10-28,46.23315327,-116.434146
Idaho,Lincoln,207,9,2,1,2020-10-28,43.0012336,-114.1358773
Idaho,Madison,2611,26,3,0,2020-10-28,43.78141028,-111.65384740000002
Idaho,Minidoka,1207,8,9,1,2020-10-28,42.85518524,-113.6357257
Idaho,Nez Perce,862,9,24,0,2020-10-28,46.32638236,-116.7500975
Idaho,Oneida,54,3,0,0,2020-10-28,42.19494279999999,-112.5407838
Idaho,Owyhee,398,6,5,0,2020-10-28,42.58016894,-116.1693871
Idaho,Payette,1137,7,10,0,2020-10-28,44.00545243,-116.7647695
Idaho,Power,367,6,2,0,2020-10-28,42.69254894,-112.83957420000002
Idaho,Shoshone,268,2,20,0,2020-10-28,47.35364087,-115.8916749
Idaho,Teton,288,5,2,0,2020-10-28,43.75303583,-111.2056773
Idaho,Twin Falls,4097,110,46,0,2020-10-28,42.35440512,-114.6685381
Idaho,Valley,117,0,1,0,2020-10-28,44.76728382,-115.5676773
Idaho,Washington,460,9,8,0,2020-10-28,44.45275475,-116.7847688
Illinois,Adams,2004,69,22,1,2020-10-28,39.98815591,-91.18786813
Illinois,Alexander,136,4,1,0,2020-10-28,37.18049267,-89.32910838
Illinois,Bond,518,5,9,0,2020-10-28,38.88829622,-89.43534887
Illinois,Boone,1953,48,25,0,2020-10-28,42.32359279,-88.82345779
Illinois,Brown,117,2,0,0,2020-10-28,39.96209138,-90.75068024
Illinois,Bureau,948,23,17,1,2020-10-28,41.40385234,-89.5283051
Illinois,Calhoun,64,-2,0,0,2020-10-28,39.16840183,-90.66330078
Illinois,Carroll,437,7,12,0,2020-10-28,42.06823429,-89.93395545
Illinois,Cass,468,4,11,0,2020-10-28,39.96991073,-90.24734436
Illinois,Champaign,6390,105,28,-1,2020-10-28,40.13919438,-88.20046615
Illinois,Christian,846,17,29,0,2020-10-28,39.54581621,-89.27780482
Illinois,Clark,314,2,17,0,2020-10-28,39.33425789,-87.78705622
Illinois,Clay,324,7,13,0,2020-10-28,38.75388572,-88.48914513
Illinois,Clinton,1828,17,29,1,2020-10-28,38.60704876,-89.42385254
Illinois,Coles,2030,59,40,0,2020-10-28,39.51949084,-88.22358557
Illinois,Cook,181108,2276,5450,11,2020-10-28,41.84144849,-87.81658794
Illinois,Crawford,663,10,6,0,2020-10-28,39.0032229,-87.75954624
Illinois,Cumberland,308,6,6,0,2020-10-28,39.27432424,-88.2401158
Illinois,DeKalb,2469,37,42,0,2020-10-28,41.89373302,-88.76958483
Illinois,De Witt,275,3,6,0,2020-10-28,40.17514519,-88.90959682
Illinois,Douglas,733,23,9,0,2020-10-28,39.76768052,-88.21854195
Illinois,DuPage,23780,372,615,7,2020-10-28,41.85116968,-88.08642662
Illinois,Edgar,159,2,10,0,2020-10-28,39.6809186,-87.74759563
Illinois,Edwards,114,3,0,0,2020-10-28,38.41353228,-88.05720863
Illinois,Effingham,1226,22,4,0,2020-10-28,39.05935711,-88.58969584
Illinois,Fayette,699,10,24,0,2020-10-28,39.00072038,-89.02452658
Illinois,Ford,208,4,14,0,2020-10-28,40.59706922,-88.22350769
Illinois,Franklin,1033,28,10,1,2020-10-28,37.99189086,-88.92567818
Illinois,Fulton,557,7,1,0,2020-10-28,40.47289135,-90.20862357
Illinois,Gallatin,110,2,2,0,2020-10-28,37.76430935,-88.22953869
Illinois,Greene,299,4,15,0,2020-10-28,39.35907414,-90.388865
Illinois,Grundy,1019,32,7,0,2020-10-28,41.28569601,-88.41905692
Illinois,Hamilton,135,8,2,0,2020-10-28,38.08163641,-88.53883373
Illinois,Hancock,321,7,4,0,2020-10-28,40.40423981,-91.16313899
Illinois,Hardin,56,1,0,0,2020-10-28,37.51810645,-88.26873022
Illinois,Henderson,131,2,0,0,2020-10-28,40.81908672,-90.92491462
Illinois,Henry,863,1,7,0,2020-10-28,41.3533994,-90.13296166
Illinois,Iroquois,515,10,19,0,2020-10-28,40.74717633,-87.82466784
Illinois,Jackson,1584,34,26,0,2020-10-28,37.78595185,-89.38232563
Illinois,Jasper,272,6,10,0,2020-10-28,39.01054275,-88.15437049
Illinois,Jefferson,920,9,52,3,2020-10-28,38.29980057,-88.9240025
Illinois,Jersey,481,4,21,0,2020-10-28,39.08869046,-90.35393073
Illinois,Jo Daviess,536,18,9,0,2020-10-28,42.36542373,-90.21094405
Illinois,Johnson,376,10,0,0,2020-10-28,37.45939802,-88.88165419
Illinois,Kane,17421,323,348,0,2020-10-28,41.93842729,-88.42861412
Illinois,Kankakee,3505,61,81,1,2020-10-28,41.13746989,-87.86205334
Illinois,Kendall,2797,53,30,0,2020-10-28,41.59081014,-88.42869583
Illinois,Knox,1362,31,21,2,2020-10-28,40.93148779,-90.21330340000002
Illinois,Lake,21373,363,514,3,2020-10-28,42.3224907,-88.00367925
Illinois,LaSalle,2554,81,65,0,2020-10-28,41.34426129999999,-88.88633881
Illinois,Lawrence,351,13,8,0,2020-10-28,38.71987914,-87.72884035
Illinois,Lee,769,15,2,0,2020-10-28,41.74583951,-89.29977132
Illinois,Livingston,692,30,10,0,2020-10-28,40.89188292,-88.55784752
Illinois,Logan,614,7,4,0,2020-10-28,40.12581572,-89.36638784
Illinois,McDonough,789,9,20,0,2020-10-28,40.45674722,-90.67775541
Illinois,McHenry,6671,126,121,0,2020-10-28,42.32451172,-88.45248227
Illinois,McLean,4301,46,38,2,2020-10-28,40.48996987,-88.84621113
Illinois,Macon,3308,74,54,1,2020-10-28,39.86064913,-88.96342505
Illinois,Macoupin,829,5,11,0,2020-10-28,39.26119767,-89.92424028
Illinois,Madison,7373,109,157,2,2020-10-28,38.83042506,-89.90422563
Illinois,Marion,1102,51,20,1,2020-10-28,38.64963204,-88.91899208
Illinois,Marshall,166,5,3,0,2020-10-28,41.0327901,-89.34510444
Illinois,Mason,317,0,5,0,2020-10-28,40.23917274,-89.91824452
Illinois,Massac,158,2,2,0,2020-10-28,37.22078441,-88.71036614
Illinois,Menard,188,1,1,0,2020-10-28,40.02742725,-89.80246001
Illinois,Mercer,287,0,6,0,2020-10-28,41.20596782,-90.74290052
Illinois,Monroe,971,36,30,0,2020-10-28,38.27594376,-90.17761038
Illinois,Montgomery,644,19,16,0,2020-10-28,39.23198845,-89.47809254
Illinois,Morgan,983,27,24,0,2020-10-28,39.71654544,-90.20255104
Illinois,Moultrie,443,9,6,1,2020-10-28,39.64187451,-88.62099969
Illinois,Ogle,1271,35,7,0,2020-10-28,42.04165196,-89.32184679
Illinois,Peoria,4748,68,77,4,2020-10-28,40.78702156,-89.76078901
Illinois,Perry,465,14,16,0,2020-10-28,38.08510853,-89.36856219
Illinois,Piatt,265,8,1,1,2020-10-28,40.01360584,-88.59319339
Illinois,Pike,388,21,7,0,2020-10-28,39.62265059,-90.8877017
Illinois,Pope,42,0,1,0,2020-10-28,37.41391284,-88.56152109
Illinois,Pulaski,245,0,1,0,2020-10-28,37.22631423,-89.13085001
Illinois,Putnam,98,5,0,0,2020-10-28,41.2013541,-89.2869272
Illinois,Randolph,1314,21,15,0,2020-10-28,38.05095369,-89.82512254
Illinois,Richland,342,5,18,0,2020-10-28,38.71240969,-88.08475366
Illinois,Rock Island,4173,45,93,1,2020-10-28,41.46613806,-90.57042164
Illinois,St. Clair,8096,54,221,0,2020-10-28,38.46996033,-89.93063427
Illinois,Saline,596,23,9,0,2020-10-28,37.75332999,-88.54119706
Illinois,Sangamon,4248,97,63,0,2020-10-28,39.75836914,-89.65872023
Illinois,Schuyler,93,-1,1,0,2020-10-28,40.1571798,-90.61114163
Illinois,Scott,109,2,0,0,2020-10-28,39.6429169,-90.47814431
Illinois,Shelby,715,13,12,0,2020-10-28,39.39133527,-88.80611122
Illinois,Stark,92,4,3,0,2020-10-28,41.09309773,-89.79745866
Illinois,Stephenson,1075,43,9,2,2020-10-28,42.35129217,-89.662598
Illinois,Tazewell,2809,74,56,0,2020-10-28,40.50716185,-89.51404662
Illinois,Union,799,7,25,0,2020-10-28,37.47119609,-89.25548938
Illinois,Vermilion,1810,26,11,0,2020-10-28,40.18417171,-87.73384359
Illinois,Wabash,241,8,5,0,2020-10-28,38.44272901,-87.84922065
Illinois,Warren,529,13,9,0,2020-10-28,40.84925021,-90.6147432
Illinois,Washington,327,5,2,0,2020-10-28,38.35309213,-89.40982703
Illinois,Wayne,509,7,14,1,2020-10-28,38.42955355,-88.42586459
Illinois,White,274,4,4,0,2020-10-28,38.08706198,-88.17657461
Illinois,Whiteside,1584,70,30,2,2020-10-28,41.75509713,-89.91556058
Illinois,Will,19141,334,430,1,2020-10-28,41.44619267,-87.97862712
Illinois,Williamson,1938,33,61,0,2020-10-28,37.73033511,-88.92994027
Illinois,Winnebago,10703,240,182,2,2020-10-28,42.33641854,-89.16085327
Illinois,Woodford,676,16,15,0,2020-10-28,40.78579374,-89.20973757
Indiana,Adams,617,40,7,0,2020-10-28,40.7457653,-84.93671406
Indiana,Allen,8886,145,235,3,2020-10-28,41.09194313,-85.06800636
Indiana,Bartholomew,1507,17,58,0,2020-10-28,39.20744865,-85.89558181
Indiana,Benton,113,2,0,0,2020-10-28,40.60626947,-87.31093999
Indiana,Blackford,252,10,5,0,2020-10-28,40.47388153,-85.32499702
Indiana,Boone,1325,15,50,0,2020-10-28,40.0509304,-86.46841646
Indiana,Brown,152,2,3,0,2020-10-28,39.19605589,-86.22868909
Indiana,Carroll,352,5,13,0,2020-10-28,40.580783200000006,-86.56198812
Indiana,Cass,2327,26,25,0,2020-10-28,40.76135835,-86.34830753
Indiana,Clark,3129,44,65,0,2020-10-28,38.48015445,-85.70510334
Indiana,Clay,475,6,7,0,2020-10-28,39.39561833,-87.11723506
Indiana,Clinton,952,17,16,0,2020-10-28,40.30319754,-86.47277257
Indiana,Crawford,166,1,1,0,2020-10-28,38.28814402,-86.44518825
Indiana,Daviess,941,9,36,0,2020-10-28,38.70186039,-87.07185406
Indiana,Dearborn,1058,20,28,0,2020-10-28,39.14647946,-84.97333539
