State,County,Total Cases,New Cases,Total Deaths,New Deaths,Date,Latitude,Longitude
Alabama,Autauga,2893,20,42,0,2020-12-03,32.53952745,-86.64408227
Alabama,Baldwin,9341,178,137,0,2020-12-03,30.72774991,-87.72207058
Alabama,Barbour,1214,8,29,0,2020-12-03,31.868263,-85.3871286
Alabama,Bibb,1252,13,38,0,2020-12-03,32.99642064,-87.12511459999997
Alabama,Blount,3158,58,45,2,2020-12-03,33.98210918,-86.56790593
Alabama,Bullock,709,0,19,0,2020-12-03,32.10030533,-85.71265535
Alabama,Butler,1200,12,42,0,2020-12-03,31.75300095,-86.68057478
Alabama,Calhoun,6809,114,121,0,2020-12-03,33.77483727,-85.82630386
Alabama,Chambers,1875,16,51,1,2020-12-03,32.91360079,-85.39072749
Alabama,Cherokee,1067,12,24,0,2020-12-03,34.17805983,-85.60638968
Alabama,Chilton,2336,28,41,0,2020-12-03,32.85044126,-86.7173256
Alabama,Choctaw,435,0,19,0,2020-12-03,32.02227341,-88.26564429999998
Alabama,Clarke,1641,23,20,1,2020-12-03,31.68099859,-87.83548597
Alabama,Clay,948,13,25,0,2020-12-03,33.26984193,-85.85836077
Alabama,Cleburne,807,8,14,0,2020-12-03,33.67679204,-85.52005899
Alabama,Coffee,2577,36,17,2,2020-12-03,31.39932826,-85.98901039
Alabama,Colbert,3415,51,46,3,2020-12-03,34.69847452,-87.80168544
Alabama,Conecuh,729,5,14,0,2020-12-03,31.43401703,-86.99320044
Alabama,Coosa,382,10,4,0,2020-12-03,32.93690146,-86.24847739
Alabama,Covington,2324,45,34,0,2020-12-03,31.2477854,-86.45050893
Alabama,Crenshaw,733,4,30,0,2020-12-03,31.72941803,-86.31593104
Alabama,Cullman,4802,82,46,3,2020-12-03,34.13020303,-86.86888037
Alabama,Dale,2444,24,54,0,2020-12-03,31.43037123,-85.61095742
Alabama,Dallas,2349,20,32,0,2020-12-03,32.32688101,-87.10866709999998
Alabama,DeKalb,5129,82,40,2,2020-12-03,34.45946862,-85.80782906
Alabama,Elmore,4325,50,67,3,2020-12-03,32.59785413,-86.14415284
Alabama,Escambia,2069,8,32,1,2020-12-03,31.1256789,-87.15918694
Alabama,Etowah,6921,147,70,3,2020-12-03,34.04567266,-86.04051873
Alabama,Fayette,999,36,16,0,2020-12-03,33.72076938,-87.73886638
Alabama,Franklin,2626,29,34,0,2020-12-03,34.44235334,-87.84289505
Alabama,Geneva,1281,18,8,0,2020-12-03,31.09389027,-85.83572839
Alabama,Greene,445,3,18,0,2020-12-03,32.85504247,-87.95684022
Alabama,Hale,1014,17,32,0,2020-12-03,32.76039258,-87.63284988
Alabama,Henry,899,5,6,0,2020-12-03,31.51148016,-85.24267944
Alabama,Houston,5527,45,39,0,2020-12-03,31.15197924,-85.29939599
Alabama,Jackson,3616,109,23,0,2020-12-03,34.78144169,-85.99750489
Alabama,Jefferson,34716,502,513,2,2020-12-03,33.55554728,-86.89506300000002
Alabama,Lamar,725,12,8,0,2020-12-03,33.77995024,-88.09668032
Alabama,Lauderdale,4433,73,57,3,2020-12-03,34.90171875,-87.65624729
Alabama,Lawrence,1373,20,36,0,2020-12-03,34.52041498,-87.31069453
Alabama,Lee,8015,90,66,0,2020-12-03,32.60154883,-85.35132246
Alabama,Limestone,4550,75,46,0,2020-12-03,34.81185586,-86.98310072
Alabama,Lowndes,826,5,29,0,2020-12-03,32.1597283,-86.65158371
Alabama,Macon,771,6,22,0,2020-12-03,32.38759944,-85.69267724
Alabama,Madison,14215,290,153,3,2020-12-03,34.76327133,-86.55069633
Alabama,Marengo,1267,15,24,0,2020-12-03,32.24767634,-87.78796182
Alabama,Marion,1482,21,36,0,2020-12-03,34.13697363,-87.88704173
Alabama,Marshall,6750,93,58,1,2020-12-03,34.36975964,-86.30486727
Alabama,Mobile,20452,153,370,4,2020-12-03,30.78472347,-88.20842409
Alabama,Monroe,846,8,11,0,2020-12-03,31.56729412,-87.36995001
Alabama,Montgomery,12731,72,243,5,2020-12-03,32.2206831,-86.20969272
Alabama,Morgan,7228,120,55,4,2020-12-03,34.45500589,-86.85475946
Alabama,Perry,698,6,7,0,2020-12-03,32.64048341,-87.29770589
Alabama,Pickens,1297,20,20,0,2020-12-03,33.28094866,-88.08818103
Alabama,Pike,1638,16,14,0,2020-12-03,31.80396383,-85.9408295
Alabama,Randolph,1070,11,22,0,2020-12-03,33.29526734,-85.45708831
Alabama,Russell,2315,34,3,0,2020-12-03,32.28725256,-85.18415324
Alabama,St. Clair,4603,85,57,0,2020-12-03,33.71902176,-86.31029372
Alabama,Shelby,11102,144,78,1,2020-12-03,33.26879845,-86.66232561
Alabama,Sumter,595,6,22,0,2020-12-03,32.59117397,-88.19916205
Alabama,Talladega,3811,67,57,0,2020-12-03,33.37823223,-86.16886178
Alabama,Tallapoosa,1902,11,91,0,2020-12-03,32.86698258,-85.79833053
Alabama,Tuscaloosa,13755,164,173,17,2020-12-03,33.28726072,-87.52556818
Alabama,Walker,3861,43,112,1,2020-12-03,33.80270512,-87.30027177
Alabama,Washington,939,6,21,2,2020-12-03,31.4092794,-88.20689944
Alabama,Wilcox,655,6,18,0,2020-12-03,31.98773215,-87.30891118
Alabama,Winston,1447,28,25,1,2020-12-03,34.15030532,-87.37325922
Alaska,Aleutians East,42,2,0,0,2020-12-03,55.32222414,-161.9722021
Alaska,Bristol Bay,0,0,0,0,2020-12-03,58.74513976,-156.701064
Alaska,Denali,45,1,0,0,2020-12-03,63.67264044,-150.0076108
Alaska,Fairbanks North Star,3537,30,17,0,2020-12-03,64.80726247,-146.5692662
Alaska,Haines,17,0,0,0,2020-12-03,59.09893571,-135.4679843
Alaska,Kenai Peninsula,2805,65,9,0,2020-12-03,60.24429722,-151.53888840000005
Alaska,Ketchikan Gateway,207,8,0,0,2020-12-03,55.57445008,-130.975561
Alaska,Kodiak Island,379,59,0,0,2020-12-03,57.65529415,-153.7493579
Alaska,Matanuska-Susitna,4232,206,6,0,2020-12-03,62.31305045,-149.5741743
Alaska,North Slope,518,13,0,0,2020-12-03,69.31479216,-153.4836093
Alaska,Northwest Arctic,364,3,0,0,2020-12-03,67.04919196,-159.7503946
Arizona,Apache,5630,82,198,0,2020-12-03,35.39465006,-109.4892383
Arizona,Cochise,3954,91,86,3,2020-12-03,31.87934684,-109.7516088
Arizona,Coconino,7744,100,177,2,2020-12-03,35.83883429,-111.7707178
Arizona,Gila,3167,50,97,2,2020-12-03,33.80190085,-110.8132779
Arizona,Graham,2281,25,35,-1,2020-12-03,32.93166885,-109.8882178
Arizona,Greenlee,265,17,3,0,2020-12-03,33.21498827,-109.2405279
Arizona,La Paz,921,19,20,0,2020-12-03,33.72854224,-113.9810029
Arizona,Maricopa,218935,3549,4080,44,2020-12-03,33.34835867,-112.4918154
Arizona,Mohave,6792,184,266,2,2020-12-03,35.70471703,-113.7577902
Arizona,Navajo,8423,100,273,0,2020-12-03,35.3997715,-110.3218983
Arizona,Pima,41882,569,717,20,2020-12-03,32.0971334,-111.7890033
Arizona,Pinal,17702,330,268,4,2020-12-03,32.90525627,-111.3449483
Arizona,Santa Cruz,4118,51,73,1,2020-12-03,31.52508998,-110.8479088
Arizona,Yavapai,5971,157,127,0,2020-12-03,34.59933926,-112.5538588
Arizona,Yuma,18636,118,401,5,2020-12-03,32.76895712,-113.90666740000002
Arkansas,Arkansas,998,11,23,1,2020-12-03,34.29145151,-91.37277296
Arkansas,Ashley,916,30,15,0,2020-12-03,33.19153461,-91.7698471
Arkansas,Baxter,1472,26,30,1,2020-12-03,36.28784385,-92.33782872
Arkansas,Benton,12760,264,164,1,2020-12-03,36.33644656,-94.25680817
Arkansas,Boone,1905,43,44,0,2020-12-03,36.3084504,-93.09374925
Arkansas,Bradley,547,20,7,0,2020-12-03,33.46755808,-92.15980837
Arkansas,Calhoun,155,0,1,0,2020-12-03,33.55598792,-92.49974403
Arkansas,Carroll,1540,37,23,0,2020-12-03,36.34038560000001,-93.54270261
Arkansas,Chicot,1222,17,28,0,2020-12-03,33.26458973,-91.29539209
Arkansas,Clark,861,10,12,1,2020-12-03,34.04613432,-93.17484713
Arkansas,Clay,966,23,22,1,2020-12-03,36.36826212,-90.4148172
Arkansas,Cleburne,788,18,24,0,2020-12-03,35.53864922,-92.02640019
Arkansas,Cleveland,400,12,15,0,2020-12-03,33.89723187,-92.18537045
Arkansas,Columbia,1159,18,25,1,2020-12-03,33.21230701,-93.22642793
Arkansas,Conway,725,14,8,0,2020-12-03,35.26205537,-92.70506566
Arkansas,Craighead,7470,107,82,0,2020-12-03,35.83018283,-90.63235729
Arkansas,Crawford,3237,74,39,1,2020-12-03,35.58928601,-94.2446814
Arkansas,Crittenden,3404,52,57,0,2020-12-03,35.21247318,-90.30839406
Arkansas,Cross,902,15,27,1,2020-12-03,35.29631396,-90.77185818
Arkansas,Dallas,324,7,6,0,2020-12-03,33.97042763,-92.65167437
Arkansas,Desha,610,25,8,0,2020-12-03,33.83011025,-91.25500948
Arkansas,Drew,875,77,8,0,2020-12-03,33.59035001,-91.71777921
Arkansas,Faulkner,5107,109,59,3,2020-12-03,35.14719007,-92.33717519
Arkansas,Franklin,832,20,14,1,2020-12-03,35.51202821,-93.89299569
Arkansas,Fulton,568,5,12,0,2020-12-03,36.38177105,-91.81729127
Arkansas,Garland,4005,56,105,0,2020-12-03,34.57692074,-93.14921604
Arkansas,Grant,649,8,6,0,2020-12-03,34.29017991,-92.42320562
Arkansas,Greene,3188,92,29,1,2020-12-03,36.11735460000001,-90.55832668
Arkansas,Hempstead,899,9,8,0,2020-12-03,33.73325583,-93.66935133
Arkansas,Hot Spring,2985,14,42,0,2020-12-03,34.31709259,-92.95396325
Arkansas,Howard,844,3,15,0,2020-12-03,34.09007427,-93.9934871
Arkansas,Independence,2180,33,71,0,2020-12-03,35.74242707,-91.57001641
Arkansas,Izard,1017,4,6,0,2020-12-03,36.09604046,-91.90847954
Arkansas,Jackson,1949,81,10,1,2020-12-03,35.59802983,-91.21494602
Arkansas,Jefferson,5338,75,111,0,2020-12-03,34.26767081,-91.92619839
Arkansas,Johnson,1297,12,13,0,2020-12-03,35.56759135,-93.46036368
Arkansas,Lafayette,271,0,3,0,2020-12-03,33.24116713,-93.60677071
Arkansas,Lawrence,1210,3,31,1,2020-12-03,36.04188196,-91.10867198
Arkansas,Lee,1215,6,18,0,2020-12-03,34.78498904,-90.78383866
Arkansas,Lincoln,2540,21,19,1,2020-12-03,33.95317155,-91.74002806
Arkansas,Little River,660,4,37,0,2020-12-03,33.70375665,-94.23468591
Arkansas,Logan,1012,29,6,0,2020-12-03,35.21413234,-93.71951016
Arkansas,Lonoke,2852,52,56,0,2020-12-03,34.75392199,-91.88742357
Arkansas,Madison,690,25,8,0,2020-12-03,36.01038185,-93.72524943
Arkansas,Marion,473,9,6,0,2020-12-03,36.26844485,-92.68451899
Arkansas,Miller,2209,19,22,0,2020-12-03,33.31403423,-93.89285258
Arkansas,Mississippi,3358,42,82,0,2020-12-03,35.76271485,-90.05194370000002
Arkansas,Monroe,325,10,4,0,2020-12-03,34.6815935,-91.20540287
Arkansas,Montgomery,324,3,10,0,2020-12-03,34.53704874,-93.65824478
Arkansas,Nevada,479,8,14,0,2020-12-03,33.66340119,-93.30632432
Arkansas,Newton,462,8,23,1,2020-12-03,35.91947491,-93.21612969
Arkansas,Ouachita,836,21,14,0,2020-12-03,33.58839816,-92.87795984
Arkansas,Perry,271,6,4,0,2020-12-03,34.9459153,-92.94372564
Arkansas,Phillips,980,12,17,0,2020-12-03,34.43268455,-90.84800154
Arkansas,Pike,403,6,3,0,2020-12-03,34.16250414,-93.65789349
Arkansas,Poinsett,1724,18,44,1,2020-12-03,35.57433534,-90.66268713
Arkansas,Polk,868,19,12,1,2020-12-03,34.48254879,-94.22728802
Arkansas,Pope,3868,89,43,0,2020-12-03,35.44871474,-93.03212219
Arkansas,Prairie,373,7,8,0,2020-12-03,34.83624419,-91.55162157
Arkansas,Pulaski,17578,224,284,7,2020-12-03,34.77054088,-92.31355101
Arkansas,Randolph,1050,18,31,0,2020-12-03,36.3415714,-91.02455531
Arkansas,St. Francis,2090,8,15,0,2020-12-03,35.02201976,-90.74828138
Arkansas,Saline,5200,83,59,2,2020-12-03,34.64916145,-92.67583224
Arkansas,Scott,407,11,3,0,2020-12-03,34.85588887,-94.0632176
Arkansas,Searcy,334,25,1,0,2020-12-03,35.9109364,-92.69936482
Arkansas,Sebastian,7300,111,119,0,2020-12-03,35.19605503,-94.27162713
Arkansas,Sevier,1761,10,18,0,2020-12-03,33.99780401,-94.2424869
Arkansas,Sharp,765,26,18,3,2020-12-03,36.16258158,-91.47819342
Arkansas,Stone,505,10,25,0,2020-12-03,35.86251946,-92.15684085
Arkansas,Union,1627,21,59,0,2020-12-03,33.16887091,-92.59746952
Arkansas,Van Buren,422,15,4,0,2020-12-03,35.58095779,-92.51295036
Arkansas,Washington,16112,246,179,1,2020-12-03,35.976844,-94.21800746
Arkansas,White,3171,38,52,1,2020-12-03,35.25688493,-91.74908296
Arkansas,Woodruff,211,5,1,0,2020-12-03,35.18902527,-91.2439489
Arkansas,Yell,1696,15,34,0,2020-12-03,35.00292371,-93.41171338
California,Alameda,30980,650,522,2,2020-12-03,37.64629437,-121.8929271
California,Alpine,52,1,0,0,2020-12-03,38.59678594,-119.8223594
California,Amador,740,74,16,0,2020-12-03,38.44583082,-120.65696
California,Butte,4244,49,60,0,2020-12-03,39.66727762,-121.6005252
California,Calaveras,553,9,22,0,2020-12-03,38.20537103,-120.552913
California,Colusa,756,9,6,0,2020-12-03,39.17881957,-122.2331726
California,Contra Costa,25264,350,261,0,2020-12-03,37.91923498,-121.9289527
California,Del Norte,384,27,1,0,2020-12-03,41.74228275,-123.8974063
California,El Dorado,2638,57,4,0,2020-12-03,38.77965956,-120.5233166
California,Fresno,39324,320,488,0,2020-12-03,36.75733899,-119.6466953
California,Glenn,996,7,11,1,2020-12-03,39.59875897,-122.3938452
California,Humboldt,993,44,9,0,2020-12-03,40.69923009,-123.876044
California,Imperial,16507,78,358,2,2020-12-03,33.0393082,-115.3669042
California,Inyo,314,6,16,0,2020-12-03,36.51112084,-117.41119779999998
California,Kern,42937,323,451,2,2020-12-03,35.34329425,-118.7277796
California,Kings,11555,121,89,0,2020-12-03,36.07409056,-119.8159973
California,Lake,972,1,21,1,2020-12-03,39.10124298,-122.7536244
California,Lassen,2220,38,3,0,2020-12-03,40.67311306,-120.59350990000002
California,Los Angeles,421881,7696,7782,42,2020-12-03,34.30828379,-118.2282411
California,Madera,6482,55,90,4,2020-12-03,37.21513971,-119.76655890000002
California,Marin,7873,33,129,0,2020-12-03,38.07122463,-122.7210631
California,Mariposa,148,4,3,0,2020-12-03,37.57978556,-119.9073334
California,Mendocino,1657,25,23,0,2020-12-03,39.4381191,-123.3911313
California,Merced,12427,146,185,3,2020-12-03,37.18922369,-120.7209035
California,Modoc,162,6,0,0,2020-12-03,41.58965602,-120.7244817
California,Mono,577,27,3,0,2020-12-03,37.93899289,-118.8872409
California,Monterey,16064,229,124,1,2020-12-03,36.21862405,-121.2413397
California,Napa,3298,174,18,0,2020-12-03,38.50735751,-122.332839
California,Nevada,1455,41,10,0,2020-12-03,39.30394768,-120.7627281
California,Orange,81653,1102,1586,8,2020-12-03,33.70147516,-117.76459979999998
California,Placer,6941,147,72,1,2020-12-03,39.06167234,-120.7240569
California,Plumas,239,9,0,0,2020-12-03,40.00355989,-120.8395236
California,Riverside,90089,1559,1457,13,2020-12-03,33.74314981,-115.9933578
California,Sacramento,39367,368,591,5,2020-12-03,38.45106826,-121.3425374
California,San Benito,2007,39,17,0,2020-12-03,36.60308176,-121.069975
California,San Bernardino,99104,2447,1154,18,2020-12-03,34.84060306,-116.1774685
California,San Diego,86142,1504,1040,5,2020-12-03,33.03484597,-116.7365326
California,San Joaquin,26784,352,519,9,2020-12-03,37.93433732,-121.2730061
California,San Luis Obispo,6378,33,38,0,2020-12-03,35.38822029,-120.4039028
California,San Mateo,15040,228,170,0,2020-12-03,37.4228808,-122.32755459999998
California,Santa Barbara,11720,89,138,1,2020-12-03,34.65329488,-120.0188492
California,Santa Clara,36673,728,495,9,2020-12-03,37.23104908,-121.6970462
California,Santa Cruz,4766,128,33,4,2020-12-03,37.05580291,-122.0066524
California,Shasta,5365,178,52,2,2020-12-03,40.76391419,-122.0396884
California,Sierra,23,0,0,0,2020-12-03,39.57713498,-120.52007009999998
California,Siskiyou,752,15,4,1,2020-12-03,41.59198861,-122.5407434
California,Solano,11119,162,81,0,2020-12-03,38.26827353,-121.9357113
California,Sonoma,12795,133,160,0,2020-12-03,38.52746429,-122.8862506
California,Stanislaus,22876,252,433,3,2020-12-03,37.55862499,-120.9970722
California,Sutter,3733,96,19,0,2020-12-03,39.03417539,-121.6945899
California,Tehama,1800,27,26,0,2020-12-03,40.12570935,-122.2370171
California,Trinity,170,2,0,0,2020-12-03,40.64917670000001,-123.114713
California,Tulare,21789,144,314,2,2020-12-03,36.22026558,-118.8020203
California,Tuolumne,1128,24,11,2,2020-12-03,38.02644018,-119.9525093
California,Ventura,21208,604,185,0,2020-12-03,34.44465746,-119.0910613
California,Yolo,5068,48,81,0,2020-12-03,38.68278902,-121.9018288
California,Yuba,2310,89,11,1,2020-12-03,39.26255932,-121.3535644
Colorado,Adams,31038,500,367,21,2020-12-03,39.87432092,-104.3362578
Colorado,Alamosa,653,22,14,1,2020-12-03,37.57250606,-105.7885451
Colorado,Arapahoe,28683,619,452,6,2020-12-03,39.64977461,-104.3353617
Colorado,Archuleta,280,21,0,0,2020-12-03,37.19474156,-107.0476867
Colorado,Baca,123,15,0,0,2020-12-03,37.31940883,-102.5603223
Colorado,Bent,242,39,1,0,2020-12-03,37.95474293,-103.0720195
Colorado,Boulder,11626,172,123,2,2020-12-03,40.09313619,-105.3546767
Colorado,Chaffee,700,32,21,0,2020-12-03,38.74745778,-106.19265729999998
Colorado,Cheyenne,69,0,1,1,2020-12-03,38.82777431,-102.6032558
Colorado,Clear Creek,199,1,2,0,2020-12-03,39.68864463,-105.6463118
Colorado,Conejos,197,16,3,0,2020-12-03,37.201606,-106.19174879999998
Colorado,Costilla,90,6,2,0,2020-12-03,37.27732493,-105.4276548
Colorado,Crowley,1299,57,5,2,2020-12-03,38.32608609,-103.7844965
Colorado,Custer,85,7,0,0,2020-12-03,38.10883162,-105.3683478
Colorado,Delta,714,24,11,0,2020-12-03,38.86246243,-107.8631342
Colorado,Dolores,25,4,0,0,2020-12-03,37.75208676,-108.5211585
Colorado,Douglas,11456,268,122,8,2020-12-03,39.33133796,-104.930001
Colorado,Eagle,2477,39,12,1,2020-12-03,39.62754308,-106.6933637
Colorado,Elbert,650,17,5,0,2020-12-03,39.28656773,-104.1358721
Colorado,El Paso,29420,1026,317,17,2020-12-03,38.83240149,-104.5251411
Colorado,Fremont,3076,78,7,0,2020-12-03,38.47362326,-105.4399667
Colorado,Garfield,2361,40,10,0,2020-12-03,39.59921777,-107.902708
Colorado,Gilpin,89,2,1,0,2020-12-03,39.85646523,-105.5252597
Colorado,Grand,439,18,3,2,2020-12-03,40.10603347,-106.1178042
Colorado,Gunnison,491,14,7,0,2020-12-03,38.66611652,-107.0320729
Colorado,Hinsdale,9,0,0,0,2020-12-03,37.82247444,-107.3004345
Colorado,Huerfano,184,2,7,0,2020-12-03,37.68473101,-104.9612585
Colorado,Jackson,22,0,0,0,2020-12-03,40.66593870000001,-106.3408905
Colorado,Jefferson,21922,446,490,13,2020-12-03,39.58635604,-105.2517692
Colorado,Kiowa,26,0,0,0,2020-12-03,38.43260896,-102.7392145
Colorado,Kit Carson,324,12,8,0,2020-12-03,39.30497777,-102.6022199
Colorado,Lake,304,13,0,0,2020-12-03,39.20278823,-106.3555697
Colorado,La Plata,1499,87,5,0,2020-12-03,37.28632032,-107.8429014
Colorado,Larimer,10932,305,79,3,2020-12-03,40.66671597,-105.4625784
Colorado,Las Animas,280,6,1,1,2020-12-03,37.3153406,-104.0376458
Colorado,Lincoln,508,120,0,0,2020-12-03,38.98749519,-103.5136649
Colorado,Logan,2432,77,40,6,2020-12-03,40.7249637,-103.110817
Colorado,Mesa,6304,132,72,5,2020-12-03,39.01787888,-108.469799
Colorado,Mineral,36,0,0,0,2020-12-03,37.66954283,-106.9281698
Colorado,Moffat,331,7,11,1,2020-12-03,40.61810999,-108.2070876
Colorado,Montezuma,791,50,8,1,2020-12-03,37.33859579,-108.5958857
Colorado,Montrose,1225,66,15,0,2020-12-03,38.40214114,-108.26390220000002
Colorado,Morgan,1720,29,58,4,2020-12-03,40.26279810000001,-103.8093302
Colorado,Otero,830,61,12,0,2020-12-03,37.9014485,-103.7173385
Colorado,Ouray,119,1,2,0,2020-12-03,38.14717457,-107.7675136
Colorado,Park,258,18,4,0,2020-12-03,39.120926,-105.7182065
Colorado,Phillips,199,9,3,0,2020-12-03,40.59414277,-102.3577703
Colorado,Pitkin,556,26,2,0,2020-12-03,39.21720112,-106.9310027
Colorado,Prowers,695,23,14,1,2020-12-03,37.95544985,-102.3926052
Colorado,Pueblo,9335,287,149,9,2020-12-03,38.17359144,-104.5127437
Colorado,Rio Blanco,168,19,2,1,2020-12-03,39.97913541,-108.2179009
Colorado,Rio Grande,251,7,5,1,2020-12-03,37.5836865,-106.3847838
Colorado,Routt,718,10,16,1,2020-12-03,40.48596505,-106.9905548
Colorado,Saguache,228,4,4,1,2020-12-03,38.08054629,-106.282466
Colorado,San Juan,19,0,0,0,2020-12-03,37.76248981,-107.67632890000002
Colorado,San Miguel,222,6,0,0,2020-12-03,38.00450883,-108.4020725
Colorado,Sedgwick,113,1,2,0,2020-12-03,40.87595412,-102.3519227
Colorado,Summit,1621,39,4,0,2020-12-03,39.63803232,-106.1150762
Colorado,Teller,680,26,4,0,2020-12-03,38.88133511,-105.1614893
Colorado,Washington,258,1,9,0,2020-12-03,39.97015535,-103.202587
Colorado,Weld,14850,341,208,4,2020-12-03,40.55499405,-104.3929621
Colorado,Yuma,350,5,3,1,2020-12-03,40.00346839,-102.4258673
Connecticut,Fairfield,41062,1289,1534,2,2020-12-03,41.26809896,-73.3881171
Connecticut,Hartford,30549,974,1622,5,2020-12-03,41.80283011,-72.73103891
Connecticut,Litchfield,4857,188,170,0,2020-12-03,41.7937534,-73.2451475
Connecticut,Middlesex,3973,174,209,1,2020-12-03,41.45949668,-72.53714864
Connecticut,New Haven,32377,1558,1283,8,2020-12-03,41.4080325,-72.93620426
Connecticut,New London,6557,307,179,1,2020-12-03,41.48896435,-72.10430976
Connecticut,Tolland,3199,73,80,1,2020-12-03,41.85853803,-72.3308481
Connecticut,Windham,2802,120,33,1,2020-12-03,41.82972709,-71.98182316
Delaware,Kent,5405,122,132,0,2020-12-03,39.08646628,-75.56884914
Delaware,New Castle,21211,511,383,0,2020-12-03,39.57992638,-75.64054974
Delaware,Sussex,10746,126,264,0,2020-12-03,38.66143781,-75.39031349
Florida,Alachua,13118,101,102,0,2020-12-03,29.67866525,-82.35928158
Florida,Baker,2080,17,33,1,2020-12-03,30.33060121,-82.28467476
Florida,Bay,8897,166,159,0,2020-12-03,30.26548745,-85.62122584
Florida,Bradford,1437,10,18,-1,2020-12-03,29.95079741,-82.16611613
Florida,Brevard,16208,255,451,6,2020-12-03,28.29409504,-80.73091022
Florida,Broward,110517,1157,1687,14,2020-12-03,26.15184651,-80.48725556
Florida,Calhoun,902,17,22,0,2020-12-03,30.40666734,-85.19394153
Florida,Charlotte,5293,73,197,0,2020-12-03,26.90131002,-81.92949121
Florida,Citrus,4945,46,176,2,2020-12-03,28.84804315,-82.47614748
Florida,Clay,8306,111,154,5,2020-12-03,29.98319144,-81.85609986
Florida,Collier,18334,202,285,1,2020-12-03,26.11091986,-81.34687065
Florida,Columbia,4866,23,97,1,2020-12-03,30.22509788,-82.62160164
Florida,DeSoto,2450,18,34,0,2020-12-03,27.18677893,-81.80941373
Florida,Dixie,974,6,11,0,2020-12-03,29.60631086,-83.15724673
Florida,Duval,45575,606,634,0,2020-12-03,30.33225875,-81.66976468
Florida,Escambia,17177,170,310,3,2020-12-03,30.67652764,-87.37284571
Florida,Flagler,2812,26,43,1,2020-12-03,29.45933576,-81.31508595
Florida,Franklin,833,1,4,0,2020-12-03,29.83791238,-84.82731662
Florida,Gadsden,3379,26,57,0,2020-12-03,30.57796289,-84.61915825
Florida,Gilchrist,794,12,20,0,2020-12-03,29.72856978,-82.79880657
Florida,Glades,683,4,10,0,2020-12-03,26.95635849,-81.18996211
Florida,Gulf,1088,9,20,0,2020-12-03,29.93543004,-85.24270990000002
Florida,Hamilton,1006,7,11,0,2020-12-03,30.49673973,-82.94998918
Florida,Hardee,1791,13,18,0,2020-12-03,27.49293939,-81.80956574
Florida,Hendry,2561,21,45,0,2020-12-03,26.55386945,-81.16469006
Florida,Hernando,5170,60,224,4,2020-12-03,28.55364461,-82.42700204
Florida,Highlands,3893,46,149,0,2020-12-03,27.34254618,-81.34071957
Florida,Hillsborough,59809,539,947,9,2020-12-03,27.9276559,-82.32013172
Florida,Holmes,1214,15,15,0,2020-12-03,30.86747479,-85.81319222
Florida,Indian River,5124,43,139,-1,2020-12-03,27.69308961,-80.60556721
Florida,Jackson,3959,27,95,1,2020-12-03,30.7954597,-85.21500423
Florida,Jefferson,792,3,11,0,2020-12-03,30.43669112,-83.89442308
Florida,Lafayette,1345,13,20,0,2020-12-03,29.98484137,-83.18166636
Florida,Lake,10899,90,258,0,2020-12-03,28.76202069,-81.7125123
Florida,Lee,31243,387,596,8,2020-12-03,26.58410348,-81.88399313
Florida,Leon,15505,143,147,5,2020-12-03,30.45955727,-84.27491114
Florida,Levy,1452,21,14,0,2020-12-03,29.31829741,-82.74007147
Florida,Liberty,616,5,14,0,2020-12-03,30.23766008,-84.8829258
Florida,Madison,1296,20,27,0,2020-12-03,30.44396917,-83.47398594
Florida,Manatee,17324,160,383,0,2020-12-03,27.47196942,-82.31831044
Florida,Marion,13462,182,384,2,2020-12-03,29.21227113,-82.05803627
Florida,Martin,6412,57,178,2,2020-12-03,27.0772071,-80.43109784
Florida,Miami-Dade,236308,2254,3868,8,2020-12-03,25.6112362,-80.55170587
Florida,Monroe,3480,54,28,0,2020-12-03,25.20904673,-81.07812416
Florida,Nassau,3342,51,57,0,2020-12-03,30.61037141,-81.80297522
Florida,Okaloosa,9431,200,160,0,2020-12-03,30.69143028,-86.59267105
Florida,Okeechobee,2068,7,44,0,2020-12-03,27.386336199999995,-80.88944347
Florida,Orange,59791,573,652,4,2020-12-03,28.51367621,-81.31799498
Florida,Osceola,19066,249,245,0,2020-12-03,28.06312234,-81.14882926
Florida,Palm Beach,67106,679,1709,10,2020-12-03,26.64676272,-80.46536002
Florida,Pasco,15480,232,285,5,2020-12-03,28.30810945,-82.40227529
Florida,Pinellas,33857,364,915,4,2020-12-03,27.93130349,-82.72239666
Florida,Polk,28399,298,691,1,2020-12-03,27.95027105,-81.69732947
Florida,Putnam,2855,41,60,0,2020-12-03,29.60779729,-81.74230285
Florida,St. Johns,9217,132,99,2,2020-12-03,29.90096506,-81.43589967
Florida,St. Lucie,11051,89,370,-1,2020-12-03,27.37763908,-80.47106649
Florida,Santa Rosa,7769,109,103,0,2020-12-03,30.693414500000006,-87.02458128
Florida,Sarasota,14257,164,391,-2,2020-12-03,27.18546175,-82.33174248
Florida,Seminole,13323,129,280,1,2020-12-03,28.7158582,-81.24060348
Florida,Sumter,3602,67,98,0,2020-12-03,28.70181754,-82.0794267
Florida,Suwannee,3337,22,87,0,2020-12-03,30.19746066,-82.99099670000003
Florida,Taylor,1669,9,21,0,2020-12-03,30.04848048,-83.60445406
Florida,Union,1242,2,61,0,2020-12-03,30.04412971,-82.37497443
Florida,Volusia,16921,148,371,2,2020-12-03,29.05858895,-81.18263252
Florida,Wakulla,1683,16,15,0,2020-12-03,30.16548905,-84.39895211
Florida,Walton,3801,42,38,0,2020-12-03,30.64204028,-86.16935664
Florida,Washington,1565,13,27,1,2020-12-03,30.61359259,-85.66002461
Georgia,Appling,1346,3,41,0,2020-12-03,31.74847232,-82.28909114
Georgia,Atkinson,607,1,9,0,2020-12-03,31.29633502,-82.87545866
Georgia,Bacon,764,8,24,0,2020-12-03,31.55456473,-82.45936528
Georgia,Baker,127,0,6,0,2020-12-03,31.32669878,-84.44218806
Georgia,Baldwin,2722,24,72,1,2020-12-03,33.06882326,-83.24701748
Georgia,Banks,832,18,13,0,2020-12-03,34.35607081,-83.49644388
Georgia,Barrow,3613,40,58,1,2020-12-03,33.99148694,-83.71436292
Georgia,Bartow,5404,54,108,0,2020-12-03,34.23732119,-84.83887523
Georgia,Ben Hill,1056,19,40,0,2020-12-03,31.76095874,-83.22145359
Georgia,Berrien,765,10,29,1,2020-12-03,31.27590016,-83.22529920000002
Georgia,Bibb,7862,59,239,1,2020-12-03,32.80904227,-83.70489165
Georgia,Bleckley,719,2,33,0,2020-12-03,32.43829035,-83.33035166
Georgia,Brantley,818,12,20,1,2020-12-03,31.19576557,-81.97743999
Georgia,Brooks,732,21,30,0,2020-12-03,30.83922642,-83.58303423
Georgia,Bryan,1548,24,18,0,2020-12-03,32.00979311,-81.44002948
Georgia,Bulloch,3801,14,56,1,2020-12-03,32.39577406,-81.74811421
Georgia,Burke,1265,7,15,0,2020-12-03,33.05917989,-81.99928721
Georgia,Butts,1129,17,46,0,2020-12-03,33.283094500000004,-83.95435040000002
Georgia,Calhoun,309,5,11,0,2020-12-03,31.53169785,-84.62725131
Georgia,Camden,1913,30,20,0,2020-12-03,30.92951916,-81.66601818
Georgia,Candler,617,1,35,0,2020-12-03,32.40209349,-82.07702563
Georgia,Carroll,5829,55,97,0,2020-12-03,33.58138199,-85.07976677
Georgia,Catoosa,2206,29,30,0,2020-12-03,34.89872298,-85.13757014
Georgia,Charlton,821,12,18,0,2020-12-03,30.78371028,-82.13951596
Georgia,Chatham,11154,82,211,1,2020-12-03,32.00043026,-81.12489526
Georgia,Chattahoochee,2040,11,3,0,2020-12-03,32.34341231,-84.78809239
Georgia,Chattooga,1296,16,33,0,2020-12-03,34.47197698,-85.34535662
Georgia,Cherokee,11209,196,118,1,2020-12-03,34.24393976,-84.47431861
Georgia,Clarke,8196,75,56,0,2020-12-03,33.95436462,-83.37124007
Georgia,Clay,150,0,3,0,2020-12-03,31.62221166,-84.97713865
Georgia,Clayton,10778,95,206,3,2020-12-03,33.54187245,-84.35594188
Georgia,Clinch,541,1,13,0,2020-12-03,30.91395822,-82.70432472
Georgia,Cobb,31222,395,517,2,2020-12-03,33.94243204,-84.5761255
Georgia,Coffee,3060,19,81,0,2020-12-03,31.54892966,-82.85492059999999
Georgia,Colquitt,2647,30,48,1,2020-12-03,31.18810588,-83.7677946
Georgia,Columbia,6791,120,78,1,2020-12-03,33.54534185,-82.263524
Georgia,Cook,940,15,20,0,2020-12-03,31.16068491,-83.42947229
Georgia,Coweta,5654,76,73,0,2020-12-03,33.35334302,-84.76129976
Georgia,Crawford,265,4,7,0,2020-12-03,32.71391813,-83.98061238
Georgia,Crisp,957,8,36,1,2020-12-03,31.92289565,-83.76811843
Georgia,Dade,556,29,8,1,2020-12-03,34.854916700000004,-85.50490424
Georgia,Dawson,1211,19,11,0,2020-12-03,34.44244079,-84.16964071
Georgia,Decatur,1630,10,46,0,2020-12-03,30.87967778,-84.57619536
Georgia,DeKalb,28509,314,469,7,2020-12-03,33.76944049,-84.22396017
Georgia,Dodge,1080,5,53,0,2020-12-03,32.17265114,-83.16948926
Georgia,Dooly,499,6,19,0,2020-12-03,32.15630737,-83.79746561
Georgia,Dougherty,3849,30,205,1,2020-12-03,31.53328528,-84.21722377
Georgia,Douglas,5967,92,92,3,2020-12-03,33.70291126,-84.77026156
Georgia,Early,704,2,37,1,2020-12-03,31.32155345,-84.90255207
Georgia,Echols,298,4,3,0,2020-12-03,30.71101099,-82.89687287
Georgia,Effingham,2247,17,33,0,2020-12-03,32.36616021,-81.34280942
Georgia,Elbert,1247,21,27,-1,2020-12-03,34.11302332,-82.83936148
Georgia,Emanuel,1454,5,47,0,2020-12-03,32.59221302,-82.30239915
Georgia,Evans,559,3,13,0,2020-12-03,32.15328841,-81.8870105
Georgia,Fannin,1058,13,38,0,2020-12-03,34.86430205,-84.316964
Georgia,Fayette,3464,64,63,1,2020-12-03,33.41357794,-84.49089434
Georgia,Floyd,5793,88,88,3,2020-12-03,34.26268279,-85.21577392
Georgia,Forsyth,7287,118,64,0,2020-12-03,34.22604035,-84.12315129999998
Georgia,Franklin,1290,10,23,0,2020-12-03,34.37525597,-83.23159927
Georgia,Fulton,42130,501,714,7,2020-12-03,33.79216944,-84.46319413
Georgia,Gilmer,1320,8,33,0,2020-12-03,34.69316688,-84.45802506
Georgia,Glascock,85,1,2,0,2020-12-03,33.22879932,-82.61297636
Georgia,Glynn,4387,21,121,0,2020-12-03,31.23279254,-81.53811412
Georgia,Gordon,3607,35,60,0,2020-12-03,34.50487351,-84.87296253
Georgia,Grady,1040,5,31,0,2020-12-03,30.87454847,-84.23418364
Georgia,Greene,757,13,28,0,2020-12-03,33.5769205,-83.17139104
Georgia,Gwinnett,41349,465,541,7,2020-12-03,33.96044201,-84.02137802
Georgia,Habersham,2463,31,83,1,2020-12-03,34.63331566,-83.53094677
Georgia,Hall,13209,167,204,0,2020-12-03,34.32207823,-83.81896936
Georgia,Hancock,534,1,47,1,2020-12-03,33.2721566,-82.99766919
Georgia,Haralson,1382,12,27,0,2020-12-03,33.79602175,-85.21005667
Georgia,Harris,1073,10,28,0,2020-12-03,32.73709786,-84.90538572
Georgia,Hart,902,25,29,0,2020-12-03,34.34626973,-82.96567682
Georgia,Heard,420,9,7,0,2020-12-03,33.29686567,-85.12886832
Georgia,Henry,9145,128,140,1,2020-12-03,33.4533428,-84.14814659999998
Georgia,Houston,5081,92,108,1,2020-12-03,32.45802497,-83.66879087
Georgia,Irwin,455,2,13,0,2020-12-03,31.60213036,-83.27501387
Georgia,Jackson,3584,52,58,1,2020-12-03,34.13794553,-83.56814788
Georgia,Jasper,520,9,7,0,2020-12-03,33.31535543,-83.68844964
Georgia,Jeff Davis,982,5,33,0,2020-12-03,31.80405727,-82.63724870000001
Georgia,Jefferson,1026,12,40,0,2020-12-03,33.05867328,-82.41609057
Georgia,Jenkins,502,1,34,0,2020-12-03,32.79248718,-81.96040187
Georgia,Johnson,532,2,31,0,2020-12-03,32.70211082,-82.66166794
Georgia,Jones,825,5,21,0,2020-12-03,33.02512137,-83.56019163
Georgia,Lamar,742,8,26,0,2020-12-03,33.07841647,-84.14263877
Georgia,Lanier,413,6,10,0,2020-12-03,31.038285700000007,-83.06472457
Georgia,Laurens,2700,27,116,0,2020-12-03,32.46325233,-82.92221316
Georgia,Lee,1025,15,33,0,2020-12-03,31.779330600000005,-84.14324253
Georgia,Liberty,1594,14,29,0,2020-12-03,31.82588896,-81.49251135
Georgia,Lincoln,330,2,10,0,2020-12-03,33.79201475,-82.45024131
Georgia,Long,347,2,5,0,2020-12-03,31.75218791,-81.74952375
Georgia,Lowndes,6607,98,128,1,2020-12-03,30.83568832,-83.27056716
Georgia,Lumpkin,1342,22,20,0,2020-12-03,34.57286511,-84.00425681
Georgia,McDuffie,960,7,22,0,2020-12-03,33.47851918,-82.48252774
Georgia,McIntosh,396,5,9,0,2020-12-03,31.49683595,-81.40163426
Georgia,Macon,349,6,16,0,2020-12-03,32.35207048,-84.04234127
Georgia,Madison,1225,21,19,0,2020-12-03,34.12920917,-83.21218732
Georgia,Marion,253,2,10,0,2020-12-03,32.3483402,-84.52733571
Georgia,Meriwether,819,8,19,0,2020-12-03,33.04163534,-84.68859732
Georgia,Miller,422,4,3,0,2020-12-03,31.16568912,-84.73151117
Georgia,Mitchell,1021,8,50,0,2020-12-03,31.22483255,-84.19381821
Georgia,Monroe,1095,15,61,0,2020-12-03,33.014289,-83.92097166
Georgia,Montgomery,436,3,10,0,2020-12-03,32.17201038,-82.53527476
Georgia,Morgan,853,9,8,0,2020-12-03,33.59232073,-83.49129491
Georgia,Murray,1987,50,24,0,2020-12-03,34.78897608,-84.74993177
Georgia,Muscogee,7512,47,194,2,2020-12-03,32.50931999,-84.87142262
Georgia,Newton,4023,47,110,1,2020-12-03,33.55514538,-83.84547140000002
Georgia,Oconee,1456,18,35,0,2020-12-03,33.83749973,-83.43679568
Georgia,Oglethorpe,587,10,14,0,2020-12-03,33.878629600000004,-83.08278123
Georgia,Paulding,5477,93,86,1,2020-12-03,33.91969522,-84.86848792
Georgia,Peach,1121,21,28,0,2020-12-03,32.56934316,-83.82937
Georgia,Pickens,1183,19,18,0,2020-12-03,34.46589159,-84.46406611
Georgia,Pierce,1231,10,29,0,2020-12-03,31.35928155,-82.21598442
Georgia,Pike,840,5,17,0,2020-12-03,33.09310242,-84.38790389
Georgia,Polk,2543,22,35,1,2020-12-03,34.00267074,-85.18677781
Georgia,Pulaski,462,4,27,0,2020-12-03,32.23334561,-83.47549959999998
Georgia,Putnam,1024,13,30,0,2020-12-03,33.32056115,-83.37552891
Georgia,Quitman,84,4,1,0,2020-12-03,31.86728114,-85.01773177
Georgia,Rabun,627,10,12,1,2020-12-03,34.88389445,-83.40304637
Georgia,Randolph,370,0,30,0,2020-12-03,31.76622818,-84.75732369
Georgia,Richmond,10770,187,222,1,2020-12-03,33.35777107,-82.07026432
Georgia,Rockdale,2863,31,59,0,2020-12-03,33.65145002,-84.02202167
Georgia,Schley,174,2,2,0,2020-12-03,32.2654021,-84.31258912
Georgia,Screven,503,2,15,0,2020-12-03,32.74976524,-81.60779441
Georgia,Seminole,551,2,12,0,2020-12-03,30.93464824,-84.86823924
Georgia,Spalding,2516,15,82,2,2020-12-03,33.26310031,-84.28013991
Georgia,Stephens,1607,14,47,0,2020-12-03,34.55151201,-83.29405315
Georgia,Stewart,632,7,17,0,2020-12-03,32.07996777,-84.83208037
Georgia,Sumter,1294,8,71,0,2020-12-03,32.03650571,-84.19821492
Georgia,Talbot,234,2,8,0,2020-12-03,32.69642758,-84.53351366
Georgia,Taliaferro,42,0,0,0,2020-12-03,33.56543317,-82.88136816
Georgia,Tattnall,1164,10,28,1,2020-12-03,32.04785085,-82.05539188
Georgia,Taylor,410,14,13,0,2020-12-03,32.55792548,-84.25077141
Georgia,Telfair,660,7,29,1,2020-12-03,31.92829517,-82.93491155
Georgia,Terrell,413,6,33,0,2020-12-03,31.77527543,-84.44069698
Georgia,Thomas,1997,19,81,0,2020-12-03,30.86392347,-83.91847289
Georgia,Tift,2675,43,76,1,2020-12-03,31.45743864,-83.5236119
Georgia,Toombs,1739,17,69,1,2020-12-03,32.12059861,-82.32957247
Georgia,Towns,596,6,31,2,2020-12-03,34.91369188,-83.74107459999998
Georgia,Treutlen,388,3,15,1,2020-12-03,32.40422134,-82.56904553
Georgia,Troup,4031,22,125,4,2020-12-03,33.03349196,-85.02812115
Georgia,Turner,464,3,25,0,2020-12-03,31.71612656,-83.62069378
Georgia,Twiggs,266,3,18,0,2020-12-03,32.67435595,-83.43078662
Georgia,Union,1123,8,36,0,2020-12-03,34.82995757,-83.98967069
Georgia,Upson,1573,12,79,0,2020-12-03,32.87920671,-84.30024826
Georgia,Walker,2768,33,54,1,2020-12-03,34.73376362,-85.30165174
Georgia,Walton,3479,49,82,1,2020-12-03,33.78017694,-83.73552314
Georgia,Ware,2645,10,82,0,2020-12-03,31.05449097,-82.42224148
Georgia,Warren,219,1,8,0,2020-12-03,33.41146451,-82.67795848
Georgia,Washington,1140,9,35,0,2020-12-03,32.96711864,-82.79357039
Georgia,Wayne,1688,8,49,1,2020-12-03,31.5521809,-81.91894878
Georgia,Webster,62,0,2,0,2020-12-03,32.04066113,-84.54742852
Georgia,Wheeler,426,2,19,0,2020-12-03,32.12009104,-82.72574721
Georgia,White,1377,21,28,0,2020-12-03,34.64624278,-83.74905525
Georgia,Whitfield,8187,142,87,2,2020-12-03,34.80987459,-84.96093476
Georgia,Wilcox,394,3,28,0,2020-12-03,31.97496928,-83.43438555
Georgia,Wilkes,471,3,9,0,2020-12-03,33.78290391,-82.74286107
Georgia,Wilkinson,461,15,18,0,2020-12-03,32.80291082,-83.17140684
Georgia,Worth,776,11,38,0,2020-12-03,31.55162306,-83.85090513
Idaho,Ada,26922,398,254,4,2020-12-03,43.4526575,-116.24155159999998
Idaho,Adams,117,2,2,0,2020-12-03,44.89333571,-116.4545247
Idaho,Bannock,4822,145,34,1,2020-12-03,42.67002716,-112.2233311
Idaho,Bear Lake,200,3,1,0,2020-12-03,42.28269683,-111.32892379999998
Idaho,Benewah,289,1,3,0,2020-12-03,47.21754179,-116.6586851
Idaho,Bingham,2935,63,30,0,2020-12-03,43.21672879999999,-112.3978437
Idaho,Blaine,1345,24,7,0,2020-12-03,43.4085812,-113.9752658
Idaho,Boise,151,6,2,0,2020-12-03,43.98829931,-115.7309284
Idaho,Bonner,1072,44,7,1,2020-12-03,48.29996017,-116.6017932
Idaho,Bonneville,8014,114,75,6,2020-12-03,43.38713372,-111.6161537
Idaho,Boundary,384,21,4,0,2020-12-03,48.76684761,-116.4630179
Idaho,Butte,127,2,0,0,2020-12-03,43.72592209,-113.1735463
Idaho,Camas,54,0,0,0,2020-12-03,43.46665742,-114.8065892
Idaho,Canyon,16097,228,149,3,2020-12-03,43.61970148,-116.7095499
Idaho,Caribou,454,4,10,0,2020-12-03,42.77149116,-111.5597683
Idaho,Cassia,2202,30,18,0,2020-12-03,42.28347888,-113.6012409
Idaho,Clark,50,1,0,0,2020-12-03,44.28496071,-112.3505704
Idaho,Clearwater,578,7,0,0,2020-12-03,46.67459924,-115.6622393
Idaho,Custer,156,3,1,0,2020-12-03,44.24186819,-114.2855494
Idaho,Elmore,939,4,7,0,2020-12-03,43.3507101,-115.4701578
Idaho,Franklin,722,9,7,1,2020-12-03,42.18332217,-111.8149666
Idaho,Fremont,747,10,10,0,2020-12-03,44.22800938,-111.4809943
Idaho,Gem,1045,22,6,1,2020-12-03,44.06482372,-116.398376
Idaho,Gooding,1000,26,10,0,2020-12-03,42.96927962,-114.8108306
Idaho,Idaho,790,8,12,0,2020-12-03,45.84721541,-115.4634436
Idaho,Jefferson,1633,32,11,0,2020-12-03,43.82078483,-112.3131749
Idaho,Jerome,1945,20,14,0,2020-12-03,42.68891267,-114.2655033
Idaho,Kootenai,7969,154,86,0,2020-12-03,47.67282258,-116.7020872
Idaho,Latah,1789,39,3,0,2020-12-03,46.81587887,-116.7113698
Idaho,Lemhi,436,3,8,0,2020-12-03,44.9438088,-113.9309747
Idaho,Lewis,221,9,4,0,2020-12-03,46.23315327,-116.434146
Idaho,Lincoln,367,5,8,0,2020-12-03,43.0012336,-114.1358773
Idaho,Madison,4386,64,8,0,2020-12-03,43.78141028,-111.65384740000002
Idaho,Minidoka,1782,17,18,0,2020-12-03,42.85518524,-113.6357257
Idaho,Nez Perce,2437,55,37,1,2020-12-03,46.32638236,-116.7500975
Idaho,Oneida,161,8,0,0,2020-12-03,42.19494279999999,-112.5407838
Idaho,Owyhee,723,14,12,3,2020-12-03,42.58016894,-116.1693871
Idaho,Payette,1694,9,15,0,2020-12-03,44.00545243,-116.7647695
Idaho,Power,478,3,4,0,2020-12-03,42.69254894,-112.83957420000002
Idaho,Shoshone,534,10,23,0,2020-12-03,47.35364087,-115.8916749
Idaho,Teton,578,8,2,0,2020-12-03,43.75303583,-111.2056773
Idaho,Twin Falls,7035,72,99,2,2020-12-03,42.35440512,-114.6685381
Idaho,Valley,270,13,1,0,2020-12-03,44.76728382,-115.5676773
Idaho,Washington,793,6,12,0,2020-12-03,44.45275475,-116.7847688
Illinois,Adams,4941,55,55,1,2020-12-03,39.98815591,-91.18786813
Illinois,Alexander,268,2,4,0,2020-12-03,37.18049267,-89.32910838
Illinois,Bond,1143,35,11,1,2020-12-03,38.88829622,-89.43534887
Illinois,Boone,4081,54,35,0,2020-12-03,42.32359279,-88.82345779
Illinois,Brown,337,1,6,0,2020-12-03,39.96209138,-90.75068024
Illinois,Bureau,2224,32,55,7,2020-12-03,41.40385234,-89.5283051
Illinois,Calhoun,278,12,1,0,2020-12-03,39.16840183,-90.66330078
Illinois,Carroll,1109,19,27,2,2020-12-03,42.06823429,-89.93395545
Illinois,Cass,1070,40,23,0,2020-12-03,39.96991073,-90.24734436
Illinois,Champaign,11336,155,60,0,2020-12-03,40.13919438,-88.20046615
Illinois,Christian,1969,29,43,0,2020-12-03,39.54581621,-89.27780482
Illinois,Clark,838,15,20,0,2020-12-03,39.33425789,-87.78705622
Illinois,Clay,936,27,22,0,2020-12-03,38.75388572,-88.48914513
Illinois,Clinton,3491,38,63,1,2020-12-03,38.60704876,-89.42385254
Illinois,Coles,3454,39,61,1,2020-12-03,39.51949084,-88.22358557
Illinois,Cook,318324,4190,6823,55,2020-12-03,41.84144849,-87.81658794
Illinois,Crawford,1180,20,14,1,2020-12-03,39.0032229,-87.75954624
Illinois,Cumberland,683,16,19,2,2020-12-03,39.27432424,-88.2401158
Illinois,DeKalb,5280,79,49,1,2020-12-03,41.89373302,-88.76958483
Illinois,De Witt,655,11,18,0,2020-12-03,40.17514519,-88.90959682
Illinois,Douglas,1447,41,18,2,2020-12-03,39.76768052,-88.21854195
Illinois,DuPage,48499,757,821,13,2020-12-03,41.85116968,-88.08642662
Illinois,Edgar,885,18,17,0,2020-12-03,39.6809186,-87.74759563
Illinois,Edwards,242,8,3,0,2020-12-03,38.41353228,-88.05720863
Illinois,Effingham,2985,52,27,4,2020-12-03,39.05935711,-88.58969584
Illinois,Fayette,1912,52,36,3,2020-12-03,39.00072038,-89.02452658
Illinois,Ford,820,15,24,0,2020-12-03,40.59706922,-88.22350769
Illinois,Franklin,2204,59,27,0,2020-12-03,37.99189086,-88.92567818
Illinois,Fulton,1614,43,14,1,2020-12-03,40.47289135,-90.20862357
Illinois,Gallatin,213,11,3,0,2020-12-03,37.76430935,-88.22953869
Illinois,Greene,894,22,32,0,2020-12-03,39.35907414,-90.388865
Illinois,Grundy,2985,58,24,0,2020-12-03,41.28569601,-88.41905692
Illinois,Hamilton,411,6,4,0,2020-12-03,38.08163641,-88.53883373
Illinois,Hancock,1010,16,16,1,2020-12-03,40.40423981,-91.16313899
Illinois,Hardin,161,1,2,0,2020-12-03,37.51810645,-88.26873022
Illinois,Henderson,306,3,1,0,2020-12-03,40.81908672,-90.92491462
Illinois,Henry,2861,52,22,4,2020-12-03,41.3533994,-90.13296166
Illinois,Iroquois,1836,54,33,4,2020-12-03,40.74717633,-87.82466784
Illinois,Jackson,2842,54,37,1,2020-12-03,37.78595185,-89.38232563
Illinois,Jasper,695,10,12,0,2020-12-03,39.01054275,-88.15437049
Illinois,Jefferson,2026,35,63,1,2020-12-03,38.29980057,-88.9240025
Illinois,Jersey,1384,23,24,0,2020-12-03,39.08869046,-90.35393073
Illinois,Jo Daviess,1138,15,20,0,2020-12-03,42.36542373,-90.21094405
Illinois,Johnson,775,24,7,1,2020-12-03,37.45939802,-88.88165419
Illinois,Kane,33273,363,488,5,2020-12-03,41.93842729,-88.42861412
Illinois,Kankakee,9105,130,114,5,2020-12-03,41.13746989,-87.86205334
Illinois,Kendall,6658,78,54,2,2020-12-03,41.59081014,-88.42869583
Illinois,Knox,2993,60,74,3,2020-12-03,40.93148779,-90.21330340000002
Illinois,Lake,39051,413,663,8,2020-12-03,42.3224907,-88.00367925
Illinois,LaSalle,6471,113,144,0,2020-12-03,41.34426129999999,-88.88633881
Illinois,Lawrence,1183,36,14,1,2020-12-03,38.71987914,-87.72884035
Illinois,Lee,2113,54,38,1,2020-12-03,41.74583951,-89.29977132
Illinois,Livingston,2387,39,38,2,2020-12-03,40.89188292,-88.55784752
Illinois,Logan,1886,88,22,4,2020-12-03,40.12581572,-89.36638784
Illinois,McDonough,1643,18,44,1,2020-12-03,40.45674722,-90.67775541
Illinois,McHenry,14996,179,167,0,2020-12-03,42.32451172,-88.45248227
Illinois,McLean,8961,170,59,0,2020-12-03,40.48996987,-88.84621113
Illinois,Macon,6817,79,141,1,2020-12-03,39.86064913,-88.96342505
Illinois,Macoupin,2414,29,23,2,2020-12-03,39.26119767,-89.92424028
Illinois,Madison,15363,234,270,7,2020-12-03,38.83042506,-89.90422563
Illinois,Marion,2655,42,66,5,2020-12-03,38.64963204,-88.91899208
Illinois,Marshall,435,8,7,0,2020-12-03,41.0327901,-89.34510444
Illinois,Mason,777,18,23,1,2020-12-03,40.23917274,-89.91824452
Illinois,Massac,647,21,5,1,2020-12-03,37.22078441,-88.71036614
Illinois,Menard,516,14,2,0,2020-12-03,40.02742725,-89.80246001
Illinois,Mercer,800,19,12,0,2020-12-03,41.20596782,-90.74290052
Illinois,Monroe,2191,24,48,0,2020-12-03,38.27594376,-90.17761038
Illinois,Montgomery,1240,28,20,0,2020-12-03,39.23198845,-89.47809254
Illinois,Morgan,2330,60,50,8,2020-12-03,39.71654544,-90.20255104
Illinois,Moultrie,969,21,11,0,2020-12-03,39.64187451,-88.62099969
Illinois,Ogle,3038,69,45,2,2020-12-03,42.04165196,-89.32184679
Illinois,Peoria,9785,192,139,2,2020-12-03,40.78702156,-89.76078901
Illinois,Perry,1184,23,31,2,2020-12-03,38.08510853,-89.36856219
Illinois,Piatt,829,9,5,0,2020-12-03,40.01360584,-88.59319339
Illinois,Pike,1063,12,31,2,2020-12-03,39.62265059,-90.8877017
Illinois,Pope,111,2,1,0,2020-12-03,37.41391284,-88.56152109
Illinois,Pulaski,451,8,2,0,2020-12-03,37.22631423,-89.13085001
Illinois,Putnam,256,4,0,0,2020-12-03,41.2013541,-89.2869272
Illinois,Randolph,2414,36,26,0,2020-12-03,38.05095369,-89.82512254
Illinois,Richland,868,18,19,0,2020-12-03,38.71240969,-88.08475366
Illinois,Rock Island,8981,117,152,6,2020-12-03,41.46613806,-90.57042164
Illinois,St. Clair,14160,140,269,3,2020-12-03,38.46996033,-89.93063427
Illinois,Saline,1179,29,29,1,2020-12-03,37.75332999,-88.54119706
Illinois,Sangamon,10669,116,107,3,2020-12-03,39.75836914,-89.65872023
Illinois,Schuyler,343,47,1,0,2020-12-03,40.1571798,-90.61114163
Illinois,Scott,251,7,0,0,2020-12-03,39.6429169,-90.47814431
Illinois,Shelby,1463,24,26,0,2020-12-03,39.39133527,-88.80611122
Illinois,Stark,304,21,5,1,2020-12-03,41.09309773,-89.79745866
Illinois,Stephenson,2582,45,38,1,2020-12-03,42.35129217,-89.662598
Illinois,Tazewell,7415,164,118,5,2020-12-03,40.50716185,-89.51404662
Illinois,Union,1256,16,28,0,2020-12-03,37.47119609,-89.25548938
Illinois,Vermilion,4218,72,59,3,2020-12-03,40.18417171,-87.73384359
Illinois,Wabash,646,14,9,1,2020-12-03,38.44272901,-87.84922065
Illinois,Warren,1148,23,22,0,2020-12-03,40.84925021,-90.6147432
Illinois,Washington,780,24,2,0,2020-12-03,38.35309213,-89.40982703
Illinois,Wayne,968,16,33,0,2020-12-03,38.42955355,-88.42586459
Illinois,White,664,13,10,0,2020-12-03,38.08706198,-88.17657461
Illinois,Whiteside,3953,124,131,8,2020-12-03,41.75509713,-89.91556058
Illinois,Will,41204,593,590,12,2020-12-03,41.44619267,-87.97862712
Illinois,Williamson,3859,74,88,5,2020-12-03,37.73033511,-88.92994027
Illinois,Winnebago,19765,218,284,7,2020-12-03,42.33641854,-89.16085327
Illinois,Woodford,1916,43,31,0,2020-12-03,40.78579374,-89.20973757
Indiana,Adams,1927,53,24,0,2020-12-03,40.7457653,-84.93671406
Indiana,Allen,20668,412,338,5,2020-12-03,41.09194313,-85.06800636
Indiana,Bartholomew,3800,125,65,0,2020-12-03,39.20744865,-85.89558181
Indiana,Benton,448,6,3,0,2020-12-03,40.60626947,-87.31093999
Indiana,Blackford,661,34,16,1,2020-12-03,40.47388153,-85.32499702
Indiana,Boone,2820,74,56,0,2020-12-03,40.0509304,-86.46841646
Indiana,Brown,422,23,6,1,2020-12-03,39.19605589,-86.22868909
Indiana,Carroll,813,20,13,0,2020-12-03,40.580783200000006,-86.56198812
Indiana,Cass,3232,41,32,0,2020-12-03,40.76135835,-86.34830753
Indiana,Clark,5759,111,86,2,2020-12-03,38.48015445,-85.70510334
Indiana,Clay,1404,24,26,0,2020-12-03,39.39561833,-87.11723506
Indiana,Clinton,2040,18,25,1,2020-12-03,40.30319754,-86.47277257
Indiana,Crawford,361,19,1,0,2020-12-03,38.28814402,-86.44518825
Indiana,Daviess,1767,25,47,1,2020-12-03,38.70186039,-87.07185406
Indiana,Dearborn,2528,31,32,-1,2020-12-03,39.14647946,-84.97333539
Indiana,Decatur,1452,34,46,0,2020-12-03,39.30712658,-85.50087166
Indiana,DeKalb,2108,64,38,0,2020-12-03,41.39804622,-84.99906934
Indiana,Delaware,5535,101,108,0,2020-12-03,40.22787247,-85.39732772
Indiana,Dubois,2719,90,34,0,2020-12-03,38.36597551,-86.87924170000002
Indiana,Elkhart,18813,303,246,1,2020-12-03,41.59761169,-85.85875695
Indiana,Fayette,1658,20,39,2,2020-12-03,39.63684962,-85.17797541
Indiana,Floyd,3602,114,79,1,2020-12-03,38.32117957,-85.90385377
Indiana,Fountain,958,36,8,0,2020-12-03,40.12361933,-87.24217689
Indiana,Franklin,802,7,28,0,2020-12-03,39.4142482,-85.06062647
Indiana,Fulton,964,22,19,0,2020-12-03,41.0469907,-86.26252745
Indiana,Gibson,2203,33,33,0,2020-12-03,38.30393723,-87.58054938
Indiana,Grant,3267,111,53,1,2020-12-03,40.51587228,-85.65468702
Indiana,Greene,1210,31,54,0,2020-12-03,39.03630547,-86.96223202
Indiana,Hamilton,15457,486,182,1,2020-12-03,40.07306535,-86.05244729
Indiana,Hancock,3206,129,63,1,2020-12-03,39.82304555,-85.77566351
Indiana,Harrison,1670,50,25,1,2020-12-03,38.19467379,-86.10948271
Indiana,Hendricks,7353,210,165,2,2020-12-03,39.76719009,-86.51037283
Indiana,Henry,2807,86,41,0,2020-12-03,39.93029017,-85.39625719
Indiana,Howard,4176,171,80,2,2020-12-03,40.48527731,-86.11351892
Indiana,Huntington,1533,61,11,0,2020-12-03,40.82907273,-85.48822092
Indiana,Jackson,2666,114,38,1,2020-12-03,38.90915820000001,-86.03851889
Indiana,Jasper,1677,27,17,2,2020-12-03,41.02078733,-87.11553319
Indiana,Jay,1155,22,16,1,2020-12-03,40.43781032,-85.00576229
Indiana,Jefferson,1397,21,19,1,2020-12-03,38.78576239,-85.43633383
Indiana,Jennings,1063,39,15,0,2020-12-03,38.99588883,-85.62710784
Indiana,Johnson,7732,248,177,0,2020-12-03,39.48994426,-86.10149107
Indiana,Knox,2121,44,22,0,2020-12-03,38.68861576,-87.4194665
Indiana,Kosciusko,5129,111,48,2,2020-12-03,41.24521668,-85.86312322
Indiana,LaGrange,1595,30,34,1,2020-12-03,41.64232188,-85.42674232
Indiana,Lake,30537,530,484,4,2020-12-03,41.41874274,-87.38277575
Indiana,LaPorte,5291,120,105,1,2020-12-03,41.54366008,-86.74072188
Indiana,Lawrence,2059,54,51,2,2020-12-03,38.84112637,-86.48361629
Indiana,Madison,5858,126,125,0,2020-12-03,40.16143691,-85.71964711
Indiana,Marion,48740,977,894,1,2020-12-03,39.78163624,-86.13826325
Indiana,Marshall,3431,92,50,1,2020-12-03,41.32467367,-86.26185087
Indiana,Martin,400,11,6,0,2020-12-03,38.7099921,-86.80373186
Indiana,Miami,1912,31,18,0,2020-12-03,40.76940965,-86.04525048
Indiana,Monroe,6048,134,54,1,2020-12-03,39.16130004,-86.52414358
Indiana,Montgomery,1714,44,29,0,2020-12-03,40.04034823,-86.89335024
Indiana,Morgan,2592,74,46,1,2020-12-03,39.47899078,-86.44573375
Indiana,Newton,625,4,13,0,2020-12-03,40.95610449,-87.39635768
Indiana,Noble,2924,77,50,0,2020-12-03,41.39672484,-85.41966713
Indiana,Ohio,250,3,7,0,2020-12-03,38.955305,-84.96515993
Indiana,Orange,770,26,28,0,2020-12-03,38.54118920000001,-86.49523093
Indiana,Owen,722,8,10,0,2020-12-03,39.31145587,-86.83900724
Indiana,Parke,705,26,6,0,2020-12-03,39.77202286,-87.20375833
Indiana,Perry,892,12,21,0,2020-12-03,38.07809328,-86.63741946
Indiana,Pike,593,19,21,0,2020-12-03,38.40112197,-87.23574907
Indiana,Porter,9321,168,92,0,2020-12-03,41.45986947,-87.06848888
Indiana,Posey,1357,21,22,2,2020-12-03,38.02097333,-87.86480429
Indiana,Pulaski,497,17,20,0,2020-12-03,41.04166107,-86.69890683
Indiana,Putnam,1478,53,31,1,2020-12-03,39.66437981,-86.84517605
Indiana,Randolph,1437,42,24,0,2020-12-03,40.15734772,-85.01139319
Indiana,Ripley,1670,25,22,1,2020-12-03,39.10235626,-85.26212744
Indiana,Rush,648,21,8,0,2020-12-03,39.62002287,-85.4655599
Indiana,St. Joseph,19177,858,245,2,2020-12-03,41.61756781,-86.29040834
Indiana,Scott,1297,57,25,1,2020-12-03,38.68672078,-85.74627859
Indiana,Shelby,2166,38,61,0,2020-12-03,39.52305623,-85.79158570000001
Indiana,Spencer,967,10,8,0,2020-12-03,38.01519732,-87.0079644
Indiana,Starke,1043,35,28,0,2020-12-03,41.27890281,-86.64686895
Indiana,Steuben,1686,56,16,0,2020-12-03,41.64423868,-85.00101094
Indiana,Sullivan,1114,24,18,0,2020-12-03,39.08952258,-87.41414469
Indiana,Switzerland,282,6,5,0,2020-12-03,38.82767338,-85.03022429
Indiana,Tippecanoe,10123,212,35,2,2020-12-03,40.38872739,-86.89413959
Indiana,Tipton,683,18,27,0,2020-12-03,40.31123252,-86.05234925
Indiana,Union,303,6,2,0,2020-12-03,39.62550777,-84.92497066
Indiana,Vanderburgh,10956,94,137,3,2020-12-03,38.02658833,-87.58763124
Indiana,Vermillion,749,21,11,1,2020-12-03,39.8523352,-87.46160542
Indiana,Vigo,6736,156,106,1,2020-12-03,39.42944561,-87.39169027
Indiana,Wabash,1952,46,24,1,2020-12-03,40.84704239,-85.79328272
Indiana,Warren,289,13,3,0,2020-12-03,40.34728141,-87.35602659
Indiana,Warrick,3643,38,74,0,2020-12-03,38.08922676,-87.2716085
Indiana,Washington,901,23,9,0,2020-12-03,38.60219804,-86.1049363
Indiana,Wayne,3628,77,93,1,2020-12-03,39.8633444,-85.01044989
Indiana,Wells,1450,25,35,2,2020-12-03,40.72934187,-85.22132966
Indiana,White,1512,42,24,0,2020-12-03,40.74911165,-86.86492015
Indiana,Whitley,1624,59,17,1,2020-12-03,41.13863784,-85.50791236
Iowa,Adair,453,5,9,0,2020-12-03,41.33075609,-94.47105874
Iowa,Adams,181,2,2,0,2020-12-03,41.02903567,-94.69932645
Iowa,Allamakee,884,14,13,0,2020-12-03,43.28383218,-91.37860922
Iowa,Appanoose,816,9,13,0,2020-12-03,40.74324454,-92.86865906
Iowa,Audubon,311,6,2,0,2020-12-03,41.6844628,-94.90581859
Iowa,Benton,1754,14,23,0,2020-12-03,42.08011739,-92.06463573
Iowa,Black Hawk,11288,94,147,8,2020-12-03,42.4704581,-92.30524729
Iowa,Boone,1449,25,12,0,2020-12-03,42.03657094,-93.9313999
Iowa,Bremer,2027,25,13,1,2020-12-03,42.77461496,-92.31795937
Iowa,Buchanan,1234,14,10,0,2020-12-03,42.4709188,-91.83510825
Iowa,Buena Vista,3166,35,14,0,2020-12-03,42.73545875,-95.15100162
Iowa,Butler,1074,17,8,2,2020-12-03,42.73172833,-92.79015971
Iowa,Calhoun,1098,8,7,0,2020-12-03,42.38521079,-94.64046046
Iowa,Carroll,2043,7,25,1,2020-12-03,42.03617207,-94.86032705
Iowa,Cass,847,12,25,1,2020-12-03,41.33149454,-94.92792482
Iowa,Cedar,1146,21,14,1,2020-12-03,41.77233777,-91.13246684
Iowa,Cerro Gordo,3732,56,52,3,2020-12-03,43.08177563,-93.2612239
Iowa,Cherokee,967,20,4,0,2020-12-03,42.73538914,-95.62389402
Iowa,Chickasaw,919,11,5,1,2020-12-03,43.06001295,-92.31773347
Iowa,Clarke,506,6,4,0,2020-12-03,41.02868181,-93.78499767
Iowa,Clay,1250,25,5,1,2020-12-03,43.08247182,-95.15096481
Iowa,Clayton,1155,16,10,1,2020-12-03,42.84443388,-91.34133693
Iowa,Clinton,3456,42,45,1,2020-12-03,41.89981633,-90.53275096
Iowa,Crawford,1831,21,16,0,2020-12-03,42.03718237,-95.3819718
Iowa,Dallas,6612,41,60,1,2020-12-03,41.68560356,-94.04127625
Iowa,Davis,483,2,9,0,2020-12-03,40.74773536,-92.41005468
Iowa,Decatur,341,12,0,0,2020-12-03,40.73742757,-93.78645949
Iowa,Delaware,1476,6,21,0,2020-12-03,42.47104597,-91.3664492
Iowa,Des Moines,3006,20,23,2,2020-12-03,40.92012606,-91.18326592
Iowa,Dickinson,1458,20,12,1,2020-12-03,43.37787725,-95.1510206
Iowa,Dubuque,9479,64,99,5,2020-12-03,42.46815349,-90.88181925
Iowa,Emmet,790,4,26,0,2020-12-03,43.37782951,-94.67858943
Iowa,Fayette,1098,11,12,0,2020-12-03,42.86271799,-91.8441231
Iowa,Floyd,1119,17,21,2,2020-12-03,43.06000529999999,-92.78940097
Iowa,Franklin,764,4,21,0,2020-12-03,42.73270384,-93.26256925
Iowa,Fremont,382,8,3,0,2020-12-03,40.74542720000001,-95.60129045
Iowa,Greene,542,2,2,1,2020-12-03,42.03614551,-94.39658081
Iowa,Grundy,895,6,14,3,2020-12-03,42.40183723,-92.78829551
Iowa,Guthrie,783,12,15,0,2020-12-03,41.68378965,-94.50111014
Iowa,Hamilton,1195,18,14,1,2020-12-03,42.38382428,-93.70197703
Iowa,Hancock,913,13,8,0,2020-12-03,43.08178477,-93.73454884
Iowa,Hardin,1228,18,12,1,2020-12-03,42.38353877,-93.23654611
Iowa,Harrison,1134,26,32,0,2020-12-03,41.68330137,-95.81558439
Iowa,Henry,1936,23,7,0,2020-12-03,40.98767962,-91.54436349
Iowa,Howard,585,5,9,0,2020-12-03,43.35671042,-92.31702714
Iowa,Humboldt,812,11,5,0,2020-12-03,42.7764426,-94.20722537
Iowa,Ida,549,19,15,2,2020-12-03,42.38696136,-95.51355387
Iowa,Iowa,1014,12,14,1,2020-12-03,41.68630265,-92.0643373
Iowa,Jackson,1511,23,17,3,2020-12-03,42.17178824,-90.57354837
Iowa,Jasper,2315,18,46,0,2020-12-03,41.68576082,-93.05567785
Iowa,Jefferson,763,12,5,3,2020-12-03,41.03192394,-91.94849466
Iowa,Johnson,9859,66,39,2,2020-12-03,41.67169354,-91.58754744
Iowa,Jones,2371,12,18,1,2020-12-03,42.12118609,-91.13139641
Iowa,Keokuk,656,9,7,0,2020-12-03,41.33649833,-92.1785067
Iowa,Kossuth,1176,16,8,0,2020-12-03,43.20405458,-94.20691791
Iowa,Lee,2287,31,19,2,2020-12-03,40.64181461,-91.48183025
Iowa,Linn,14787,132,169,1,2020-12-03,42.07923082,-91.59809485
Iowa,Louisa,901,8,22,1,2020-12-03,41.21842119,-91.26102611
Iowa,Lucas,341,4,6,0,2020-12-03,41.02958964,-93.32780803
Iowa,Lyon,1076,15,9,0,2020-12-03,43.38107862,-96.20926845
Iowa,Madison,726,9,5,1,2020-12-03,41.33081904,-94.01554631
Iowa,Mahaska,1339,6,28,0,2020-12-03,41.33521503,-92.64083907
Iowa,Marion,2119,17,22,0,2020-12-03,41.33445101,-93.09934783
Iowa,Marshall,3609,33,50,3,2020-12-03,42.03586837,-92.9990819
Iowa,Mills,1112,27,9,1,2020-12-03,41.03299766,-95.61920963
Iowa,Mitchell,842,6,9,0,2020-12-03,43.35638371,-92.78887719
Iowa,Monona,456,5,7,1,2020-12-03,42.05220391,-95.95743843
Iowa,Monroe,451,0,13,0,2020-12-03,41.02988815,-92.8690667
Iowa,Montgomery,514,21,11,0,2020-12-03,41.03018714,-95.15642896
Iowa,Muscatine,3051,69,72,1,2020-12-03,41.48370744,-91.1121697
Iowa,O'Brien,1353,11,32,0,2020-12-03,43.08310673,-95.62474482
Iowa,Osceola,546,5,1,0,2020-12-03,43.37824276,-95.62422844
Iowa,Page,1192,26,5,1,2020-12-03,40.7393172,-95.1497813
Iowa,Palo Alto,674,1,4,0,2020-12-03,43.08193849,-94.67824621
Iowa,Plymouth,2870,26,44,0,2020-12-03,42.737633,-96.21366621
Iowa,Pocahontas,602,4,4,0,2020-12-03,42.73420133,-94.67862564
Iowa,Polk,34873,242,347,6,2020-12-03,41.68679484,-93.57767461
Iowa,Pottawattamie,6824,176,74,3,2020-12-03,41.33640314,-95.53907776
Iowa,Poweshiek,1037,17,14,1,2020-12-03,41.68625425,-92.53155731
Iowa,Ringgold,243,5,2,0,2020-12-03,40.73518949,-94.24368535
Iowa,Sac,906,9,8,0,2020-12-03,42.38624071,-95.10547892
Iowa,Scott,11846,185,92,3,2020-12-03,41.63935978,-90.61959493
Iowa,Shelby,805,10,11,0,2020-12-03,41.6850066,-95.31015553
Iowa,Sioux,3838,33,29,0,2020-12-03,43.08221074,-96.1767568
Iowa,Story,7019,36,24,1,2020-12-03,42.03621213,-93.46499005
Iowa,Tama,1574,8,42,1,2020-12-03,42.07991767,-92.53266945
Iowa,Taylor,483,6,3,0,2020-12-03,40.73710579,-94.69778563
Iowa,Union,843,27,7,1,2020-12-03,41.0277278,-94.24234847
Iowa,Van Buren,381,6,5,0,2020-12-03,40.75326764,-91.95017958
Iowa,Wapello,2650,13,72,0,2020-12-03,41.03064984,-92.40954728
Iowa,Warren,2941,24,15,1,2020-12-03,41.33559454,-93.56007641
Iowa,Washington,1502,5,16,1,2020-12-03,41.33577126,-91.71725711
Iowa,Wayne,308,1,7,0,2020-12-03,40.73969028,-93.32752197
Iowa,Webster,3783,67,39,0,2020-12-03,42.42853483,-94.17987389
Iowa,Winnebago,963,15,25,0,2020-12-03,43.37751174,-93.73407298
Iowa,Winneshiek,1055,28,13,0,2020-12-03,43.29094334,-91.84422722
Iowa,Woodbury,10763,141,137,4,2020-12-03,42.38979414,-96.0459439
Iowa,Worth,388,6,1,1,2020-12-03,43.37750768,-93.26087602
Iowa,Wright,1310,10,7,0,2020-12-03,42.73305373,-93.73515113
Kansas,Allen,402,0,1,0,2020-12-03,37.88582951,-95.30030847
Kansas,Anderson,402,0,0,0,2020-12-03,38.21413251,-95.29272815
Kansas,Atchison,908,0,9,0,2020-12-03,39.53185661,-95.30870026
Kansas,Barber,201,0,2,0,2020-12-03,37.2288586,-98.68460053
Kansas,Barton,1742,0,13,0,2020-12-03,38.47889676,-98.75636726
Kansas,Bourbon,609,0,3,0,2020-12-03,37.85508555,-94.84865997
Kansas,Brown,795,0,11,0,2020-12-03,39.82652589,-95.56421698
Kansas,Butler,3559,0,11,0,2020-12-03,37.78134351,-96.83878537
Kansas,Chase,170,0,3,0,2020-12-03,38.30292938,-96.59563862
Kansas,Chautauqua,94,0,1,0,2020-12-03,37.14994405,-96.2454192
Kansas,Cherokee,1206,0,9,0,2020-12-03,37.16928494,-94.8462897
Kansas,Cheyenne,218,0,9,0,2020-12-03,39.78580976,-101.7318201
Kansas,Clark,145,0,5,0,2020-12-03,37.23577007,-99.81883015
Kansas,Clay,462,0,12,0,2020-12-03,39.34948772,-97.16518128
Kansas,Cloud,641,0,11,0,2020-12-03,39.48028352,-97.64925343
Kansas,Coffey,323,0,10,0,2020-12-03,38.2365018,-95.73379515
Kansas,Comanche,85,0,0,0,2020-12-03,37.19114520000001,-99.27113247
Kansas,Cowley,1684,0,10,0,2020-12-03,37.23781842,-96.83776647
Kansas,Crawford,2507,0,18,0,2020-12-03,37.50675523,-94.85245778
Kansas,Decatur,201,0,1,0,2020-12-03,39.78468441,-100.4594081
Kansas,Dickinson,771,0,10,0,2020-12-03,38.86600962,-97.15532383
Kansas,Doniphan,534,0,2,0,2020-12-03,39.79067154,-95.14056866
Kansas,Douglas,5033,65,27,0,2020-12-03,38.88503636,-95.2925121
Kansas,Edwards,186,0,0,0,2020-12-03,37.88735543,-99.31263309
Kansas,Elk,62,0,0,0,2020-12-03,37.45338105,-96.24369667
Kansas,Ellis,2484,0,28,0,2020-12-03,38.91458712,-99.31751551
Kansas,Ellsworth,728,0,4,0,2020-12-03,38.69677695,-98.20462799
Kansas,Finney,4846,0,28,0,2020-12-03,38.04340344,-100.7381938
Kansas,Ford,4693,0,13,0,2020-12-03,37.69200114,-99.88825298
Kansas,Franklin,1144,2,17,1,2020-12-03,38.56443815,-95.28644341
Kansas,Geary,1044,0,5,0,2020-12-03,38.99871131,-96.7577178
Kansas,Gove,308,0,20,0,2020-12-03,38.91588178,-100.4829321
Kansas,Graham,163,0,2,0,2020-12-03,39.34987223,-99.88332493
Kansas,Grant,791,20,12,0,2020-12-03,37.56227336,-101.3079758
Kansas,Gray,448,0,4,0,2020-12-03,37.73836671,-100.4369088
Kansas,Greeley,88,0,0,0,2020-12-03,38.4808095,-101.8061079
Kansas,Greenwood,227,0,2,0,2020-12-03,37.8774388,-96.23250453
Kansas,Hamilton,161,0,0,0,2020-12-03,37.99978709,-101.7921066
Kansas,Harper,334,0,13,0,2020-12-03,37.19175361,-98.07578384
Kansas,Harvey,1911,0,17,1,2020-12-03,38.04293782,-97.42747573
Kansas,Haskell,284,0,1,0,2020-12-03,37.5620394,-100.8710738
Kansas,Hodgeman,143,0,4,0,2020-12-03,38.08780079,-99.89829881
Kansas,Jackson,735,0,9,5,2020-12-03,39.41673394,-95.79356799
Kansas,Jefferson,758,0,8,0,2020-12-03,39.2347941,-95.38289232
Kansas,Jewell,93,0,1,0,2020-12-03,39.78470589,-98.21820662
Kansas,Johnson,28078,0,294,1,2020-12-03,38.88548175,-94.82250877
Kansas,Kearny,400,0,8,0,2020-12-03,38.00017981,-101.321681
Kansas,Kingman,402,0,4,0,2020-12-03,37.55909527,-98.13638678
Kansas,Kiowa,111,0,0,0,2020-12-03,37.55848695,-99.2856537
Kansas,Labette,948,0,6,0,2020-12-03,37.19113093,-95.29849679
Kansas,Lane,83,0,0,0,2020-12-03,38.48119447,-100.4660754
Kansas,Leavenworth,3895,0,32,0,2020-12-03,39.20183497,-95.03620809
Kansas,Lincoln,96,0,1,0,2020-12-03,39.04549684,-98.20756994
Kansas,Linn,324,0,1,0,2020-12-03,38.21267844,-94.84254089
Kansas,Logan,241,0,0,0,2020-12-03,38.91735806,-101.148475
Kansas,Lyon,2725,0,50,0,2020-12-03,38.45576156,-96.15275715
Kansas,McPherson,1590,68,10,0,2020-12-03,38.39184858,-97.64769869
Kansas,Marion,435,0,1,0,2020-12-03,38.35855394,-97.0985251
Kansas,Marshall,469,0,0,0,2020-12-03,39.78359669,-96.52278974
Kansas,Meade,320,0,2,0,2020-12-03,37.23859987,-100.364831
Kansas,Miami,1091,0,3,0,2020-12-03,38.56383358,-94.83832189
Kansas,Mitchell,252,0,0,0,2020-12-03,39.39331582,-98.20906732
Kansas,Montgomery,1225,0,6,0,2020-12-03,37.19236568,-95.74329258
Kansas,Morris,191,0,1,0,2020-12-03,38.68827511,-96.65128437
Kansas,Morton,164,0,6,0,2020-12-03,37.19141121,-101.79925190000002
Kansas,Nemaha,1107,0,24,0,2020-12-03,39.78345387,-96.01392079
Kansas,Neosho,779,49,1,0,2020-12-03,37.55862897,-95.30670046
Kansas,Ness,281,0,13,0,2020-12-03,38.47974157,-99.91547333
Kansas,Norton,1107,0,24,0,2020-12-03,39.78443827,-99.90286639
Kansas,Osage,553,0,6,0,2020-12-03,38.65235984,-95.72707998
Kansas,Osborne,98,0,0,0,2020-12-03,39.3503437,-98.76753828
Kansas,Ottawa,264,0,0,0,2020-12-03,39.13237408,-97.65020313
Kansas,Pawnee,717,0,1,0,2020-12-03,38.18108732,-99.23692334
Kansas,Phillips,467,0,10,0,2020-12-03,39.78465501,-99.34668865
Kansas,Pottawatomie,703,0,2,0,2020-12-03,39.37925655,-96.34564657
Kansas,Pratt,529,0,12,0,2020-12-03,37.64780729,-98.73922153
Kansas,Rawlins,248,0,3,0,2020-12-03,39.78525843,-101.0761617
Kansas,Reno,5316,0,57,2,2020-12-03,37.95230263,-98.08607292
Kansas,Republic,386,19,5,0,2020-12-03,39.82799632,-97.65036709
Kansas,Rice,493,0,1,0,2020-12-03,38.34616184,-98.19992118
Kansas,Riley,3780,0,16,0,2020-12-03,39.28935726,-96.73420026
Kansas,Rooks,380,0,8,0,2020-12-03,39.35022773,-99.32484567
Kansas,Rush,323,0,0,0,2020-12-03,38.52275276,-99.30863983
Kansas,Russell,575,0,15,0,2020-12-03,38.91462787,-98.76254297
Kansas,Saline,2619,0,29,0,2020-12-03,38.78369175,-97.65185177
Kansas,Scott,468,0,5,0,2020-12-03,38.48222076,-100.9066539
Kansas,Sedgwick,28617,0,172,0,2020-12-03,37.6842718,-97.4608198
Kansas,Seward,3071,65,13,0,2020-12-03,37.19324632,-100.8507201
Kansas,Shawnee,8179,0,143,4,2020-12-03,39.04100763,-95.7557264
Kansas,Sheridan,325,0,0,0,2020-12-03,39.35018161,-100.4418259
Kansas,Sherman,463,0,7,0,2020-12-03,39.35147699,-101.7197624
Kansas,Smith,157,0,1,0,2020-12-03,39.78516566,-98.78566062
Kansas,Stafford,219,0,3,0,2020-12-03,38.03100851,-98.71762001
Kansas,Stanton,150,0,2,0,2020-12-03,37.56304714,-101.7843534
Kansas,Stevens,449,0,4,0,2020-12-03,37.1923008,-101.3118967
Kansas,Sumner,858,0,6,0,2020-12-03,37.23682549,-97.47721621
Kansas,Thomas,751,11,6,0,2020-12-03,39.35107575,-101.0553705
Kansas,Trego,234,2,3,0,2020-12-03,38.91467218,-99.87284448
Kansas,Wabaunsee,315,0,2,0,2020-12-03,38.95471985,-96.20350509
Kansas,Wallace,138,0,0,0,2020-12-03,38.91686134,-101.7638876
Kansas,Washington,327,0,6,0,2020-12-03,39.78420784,-97.0875323
Kansas,Wichita,156,0,2,0,2020-12-03,38.48178252,-101.3471509
Kansas,Wilson,340,0,4,0,2020-12-03,37.55937174,-95.74323255
Kansas,Woodson,70,0,0,0,2020-12-03,37.8865336,-95.74006277
Kansas,Wyandotte,11781,0,183,3,2020-12-03,39.11727348,-94.76378225
Kentucky,Adair,785,9,23,0,2020-12-03,37.10459774,-85.28129668
Kentucky,Allen,761,17,14,1,2020-12-03,36.75197631,-86.19457544
Kentucky,Anderson,561,12,1,0,2020-12-03,38.00671029,-84.99171713
Kentucky,Ballard,166,6,2,0,2020-12-03,37.05842757,-88.99427697
Kentucky,Barren,2096,32,31,3,2020-12-03,36.96469836,-85.93338945
Kentucky,Bath,294,1,1,0,2020-12-03,38.14735938,-83.74588932
Kentucky,Bell,1312,22,20,1,2020-12-03,36.73355174,-83.67766671
Kentucky,Boone,5056,109,32,3,2020-12-03,38.97065142,-84.72615357
Kentucky,Bourbon,582,13,1,0,2020-12-03,38.2054607,-84.21827874
Kentucky,Boyd,1890,39,25,0,2020-12-03,38.36176608,-82.68652187
Kentucky,Boyle,1098,25,0,0,2020-12-03,37.62680923,-84.8633779
Kentucky,Bracken,176,6,3,0,2020-12-03,38.69158994,-84.08532444
Kentucky,Breathitt,374,0,3,0,2020-12-03,37.52333168,-83.31959161
Kentucky,Breckinridge,452,2,4,0,2020-12-03,37.77377239,-86.42885017
Kentucky,Bullitt,3094,70,22,0,2020-12-03,37.97162523,-85.68955617
Kentucky,Butler,600,8,16,0,2020-12-03,37.20946153,-86.68748787
Kentucky,Caldwell,616,6,7,2,2020-12-03,37.14749129,-87.86948214
Kentucky,Calloway,1848,45,17,0,2020-12-03,36.62093411,-88.2731593
Kentucky,Campbell,3085,57,21,1,2020-12-03,38.94384345,-84.37875208
Kentucky,Carlisle,214,5,1,0,2020-12-03,36.85372876,-88.96692220000001
Kentucky,Carroll,367,13,6,0,2020-12-03,38.66599534,-85.12601074
Kentucky,Carter,831,21,5,0,2020-12-03,38.31690743,-83.05092385
Kentucky,Casey,532,5,16,0,2020-12-03,37.32533118,-84.92726209
Kentucky,Christian,3151,53,42,2,2020-12-03,36.89267803,-87.49055367
Kentucky,Clark,1012,39,12,0,2020-12-03,37.9689263,-84.14615986
Kentucky,Clay,1122,27,8,0,2020-12-03,37.16451126,-83.712575
Kentucky,Clinton,424,7,4,0,2020-12-03,36.72581156,-85.13377529
Kentucky,Crittenden,254,0,2,1,2020-12-03,37.35839237,-88.08826090000002
Kentucky,Cumberland,237,6,0,0,2020-12-03,36.78926125,-85.39050034
Kentucky,Daviess,3848,82,54,6,2020-12-03,37.73028906,-87.09019479999998
Kentucky,Edmonson,398,8,13,0,2020-12-03,37.21218923,-86.23955613
Kentucky,Elliott,650,3,0,0,2020-12-03,38.11624059,-83.09771563
Kentucky,Estill,490,1,0,0,2020-12-03,37.69241417,-83.95956369
Kentucky,Fayette,18244,371,119,11,2020-12-03,38.0368225,-84.45576892
Kentucky,Fleming,383,16,0,0,2020-12-03,38.36758311,-83.69657514
Kentucky,Floyd,1326,17,8,1,2020-12-03,37.56213922,-82.74750924
Kentucky,Franklin,1512,33,16,2,2020-12-03,38.2379395,-84.87962551
Kentucky,Fulton,308,5,4,0,2020-12-03,36.55238827,-89.20140068
Kentucky,Gallatin,273,4,9,0,2020-12-03,38.75398691,-84.8558382
Kentucky,Garrard,663,19,4,0,2020-12-03,37.6388668,-84.53289319
Kentucky,Grant,739,14,6,0,2020-12-03,38.64962758,-84.62415957
Kentucky,Graves,1975,60,39,2,2020-12-03,36.72292505,-88.65143315
Kentucky,Grayson,985,22,25,1,2020-12-03,37.46231118,-86.34248968
Kentucky,Green,517,5,10,0,2020-12-03,37.26484328,-85.5540745
Kentucky,Greenup,1562,59,13,1,2020-12-03,38.54332505,-82.9215658
Kentucky,Hancock,320,7,9,0,2020-12-03,37.83766422,-86.78280584
Kentucky,Hardin,4611,146,32,1,2020-12-03,37.6976111,-85.96319251
Kentucky,Harlan,967,23,15,0,2020-12-03,36.85699301,-83.21899516
Kentucky,Harrison,508,7,1,0,2020-12-03,38.44188174,-84.32869741
Kentucky,Hart,915,50,4,0,2020-12-03,37.29943898,-85.88461055
Kentucky,Henderson,2197,30,38,1,2020-12-03,37.79344553,-87.57392021
Kentucky,Henry,536,12,3,0,2020-12-03,38.44942688,-85.11587507
Kentucky,Hickman,175,5,3,1,2020-12-03,36.67948079999999,-88.97875928
Kentucky,Hopkins,1948,33,49,1,2020-12-03,37.30939025,-87.54670406
Kentucky,Jackson,677,7,17,0,2020-12-03,37.41866422,-83.99825483
Kentucky,Jefferson,39246,659,463,5,2020-12-03,38.18664655,-85.65931031
Kentucky,Jessamine,1925,34,34,3,2020-12-03,37.87119786,-84.58252003
Kentucky,Johnson,820,7,4,0,2020-12-03,37.85106355,-82.8264322
Kentucky,Kenton,5835,130,62,3,2020-12-03,38.93950319,-84.53241199
Kentucky,Knott,583,5,9,0,2020-12-03,37.35388197,-82.94981134
Kentucky,Knox,1260,19,10,0,2020-12-03,36.89225732,-83.85403396
Kentucky,Larue,595,7,1,0,2020-12-03,37.54567114,-85.70138352
Kentucky,Laurel,2643,43,11,0,2020-12-03,37.10975748,-84.11321779
Kentucky,Lawrence,448,14,1,0,2020-12-03,38.07136018,-82.72882223
Kentucky,Lee,955,6,15,0,2020-12-03,37.59645942,-83.71513901
Kentucky,Leslie,314,9,1,0,2020-12-03,37.09246661,-83.37999606
Kentucky,Letcher,547,6,2,0,2020-12-03,37.12306748,-82.85346474
Kentucky,Lewis,545,29,20,0,2020-12-03,38.53184419,-83.37735618
Kentucky,Lincoln,808,30,20,0,2020-12-03,37.45475628,-84.6565327
Kentucky,Livingston,316,2,3,0,2020-12-03,37.21137452,-88.34797529
Kentucky,Logan,1279,14,35,0,2020-12-03,36.85949479,-86.877635
Kentucky,Lyon,211,0,5,0,2020-12-03,37.02080035,-88.07886257
Kentucky,McCracken,3145,103,29,1,2020-12-03,37.05350953,-88.70445755
Kentucky,McCreary,451,24,1,0,2020-12-03,36.73874143,-84.48102924
Kentucky,McLean,411,7,18,2,2020-12-03,37.5301951,-87.26803443
Kentucky,Madison,4200,80,19,1,2020-12-03,37.71659336,-84.27220275
Kentucky,Magoffin,544,3,1,0,2020-12-03,37.70820545,-83.0657714
Kentucky,Marion,1122,25,13,1,2020-12-03,37.55218078,-85.26898542
Kentucky,Marshall,1049,15,14,0,2020-12-03,36.88007070000001,-88.32803576
Kentucky,Martin,457,8,8,0,2020-12-03,37.79990579,-82.51247478
Kentucky,Mason,515,41,3,0,2020-12-03,38.59471935,-83.82151043
Kentucky,Meade,716,29,4,0,2020-12-03,37.96163597,-86.21028219
Kentucky,Menifee,136,0,1,0,2020-12-03,37.94090733,-83.59985712
Kentucky,Mercer,781,29,6,0,2020-12-03,37.81474237,-84.87488475
Kentucky,Metcalfe,413,12,5,1,2020-12-03,36.99459295,-85.63123699
Kentucky,Monroe,743,9,17,1,2020-12-03,36.71225341,-85.71596443
Kentucky,Montgomery,1005,20,11,1,2020-12-03,38.03253032,-83.9145241
Kentucky,Morgan,350,5,0,0,2020-12-03,37.92465657,-83.25558245
Kentucky,Muhlenberg,1450,27,19,0,2020-12-03,37.21425819,-87.14632053
Kentucky,Nelson,2273,48,6,0,2020-12-03,37.80335779,-85.4657193
Kentucky,Nicholas,178,0,3,0,2020-12-03,38.33342292,-84.01889177
Kentucky,Ohio,1070,48,18,1,2020-12-03,37.47751843,-86.85368087
Kentucky,Oldham,2652,44,35,2,2020-12-03,38.39791089,-85.448222
Kentucky,Owen,214,8,3,0,2020-12-03,38.51679143,-84.82404619
Kentucky,Owsley,243,3,1,0,2020-12-03,37.42823949,-83.68811419
Kentucky,Pendleton,412,7,1,0,2020-12-03,38.69607718,-84.35599463
Kentucky,Perry,1105,65,11,0,2020-12-03,37.25023553,-83.22922731
Kentucky,Pike,1963,21,22,0,2020-12-03,37.47088263,-82.39487445
Kentucky,Powell,520,13,0,0,2020-12-03,37.83218794,-83.82553961
Kentucky,Pulaski,1724,24,13,0,2020-12-03,37.10466131,-84.57629079
Kentucky,Robertson,91,3,3,0,2020-12-03,38.51923469,-84.05055616
Kentucky,Rockcastle,570,20,7,0,2020-12-03,37.36642393,-84.31176452
Kentucky,Rowan,891,26,2,0,2020-12-03,38.19484205,-83.42088935
Kentucky,Russell,592,5,7,0,2020-12-03,36.99308373,-85.06070117
Kentucky,Scott,1829,18,21,0,2020-12-03,38.29622293,-84.5816631
Kentucky,Shelby,2339,45,27,0,2020-12-03,38.21476019,-85.194223
Kentucky,Simpson,756,20,8,0,2020-12-03,36.74058474,-86.58047435
Kentucky,Spencer,674,14,2,0,2020-12-03,38.03223971,-85.32749335
Kentucky,Taylor,1025,22,7,0,2020-12-03,37.3677562,-85.3329931
Kentucky,Todd,453,5,13,0,2020-12-03,36.8381152,-87.17878374
Kentucky,Trigg,426,-1,2,1,2020-12-03,36.80767017,-87.87333656
Kentucky,Trimble,199,9,0,0,2020-12-03,38.61056487,-85.33775972
Kentucky,Union,750,7,7,0,2020-12-03,37.66166713,-87.94300009
Kentucky,Warren,7637,96,78,5,2020-12-03,36.99903045,-86.42672751
Kentucky,Washington,592,11,3,0,2020-12-03,37.75599461,-85.17407732
Kentucky,Wayne,591,13,2,0,2020-12-03,36.80310688,-84.8251971
Kentucky,Webster,587,8,7,0,2020-12-03,37.52168356,-87.67989953
Kentucky,Whitley,1646,45,8,0,2020-12-03,36.75700531,-84.14541217
Kentucky,Wolfe,202,6,1,0,2020-12-03,37.73941626,-83.49303612
Kentucky,Woodford,861,37,1,1,2020-12-03,38.04178222,-84.7417556
Louisiana,Acadia,4129,50,118,0,2020-12-03,30.2950649,-92.41419698
Louisiana,Allen,2137,10,68,0,2020-12-03,30.65385745,-92.82442028
Louisiana,Ascension,5927,31,108,0,2020-12-03,30.20406249,-90.91328409999998
Louisiana,Assumption,1046,9,25,0,2020-12-03,29.89946234,-91.06461642
Louisiana,Avoyelles,2196,25,70,2,2020-12-03,31.07796211,-92.00079449
Louisiana,Beauregard,1442,24,50,0,2020-12-03,30.64836518,-93.34173616
Louisiana,Bienville,830,20,37,0,2020-12-03,32.34569994,-93.05398492
Louisiana,Bossier,6596,68,158,0,2020-12-03,32.67932307,-93.60460152
Louisiana,Caddo,14090,164,448,0,2020-12-03,32.57991587,-93.88375652
Louisiana,Calcasieu,10856,92,252,3,2020-12-03,30.22931235,-93.35400434
Louisiana,Caldwell,674,18,10,0,2020-12-03,32.0902519,-92.11752148
Louisiana,Cameron,304,0,3,0,2020-12-03,29.87592238,-93.19310676
Louisiana,Catahoula,655,12,18,0,2020-12-03,31.66778967,-91.84526385
Louisiana,Claiborne,769,3,32,1,2020-12-03,32.82308512,-92.99526883
Louisiana,Concordia,1052,16,30,2,2020-12-03,31.44817835,-91.63814433
Louisiana,De Soto,1341,21,39,0,2020-12-03,32.05457447,-93.74130302
Louisiana,East Baton Rouge,20746,181,520,2,2020-12-03,30.53842039,-91.09777565
Louisiana,East Carroll,820,56,10,1,2020-12-03,32.73926954,-91.23425694
Louisiana,East Feliciana,2185,14,85,1,2020-12-03,30.84425359,-91.04976723
Louisiana,Evangeline,2028,34,45,0,2020-12-03,30.72985248,-92.39915924
Louisiana,Franklin,1760,11,65,1,2020-12-03,32.13675181,-91.67589857
Louisiana,Grant,916,13,32,0,2020-12-03,31.59882456,-92.56124347
Louisiana,Iberia,3832,59,110,0,2020-12-03,29.86803617,-91.75871777
Louisiana,Iberville,2113,24,65,0,2020-12-03,30.25734305,-91.3499598
Louisiana,Jackson,1182,11,33,0,2020-12-03,32.30251776,-92.55692092
Louisiana,Jefferson,24328,244,631,1,2020-12-03,29.74075478,-90.11115756
Louisiana,Jefferson Davis,1802,15,51,0,2020-12-03,30.26896765,-92.81210004
Louisiana,Lafayette,12674,165,156,1,2020-12-03,30.2049055,-92.06959876
Louisiana,Lafourche,4934,52,141,0,2020-12-03,29.52470226,-90.40976986
Louisiana,LaSalle,935,13,20,0,2020-12-03,31.67884782,-92.15907765
Louisiana,Lincoln,2638,31,61,0,2020-12-03,32.6003154,-92.6659741
Louisiana,Livingston,6356,46,95,0,2020-12-03,30.44143993,-90.73061664
Louisiana,Madison,1098,24,15,0,2020-12-03,32.36918118,-91.23973355
Louisiana,Morehouse,1491,36,35,0,2020-12-03,32.81686191,-91.80421614
Louisiana,Natchitoches,2144,21,49,0,2020-12-03,31.72321584,-93.09816516
Louisiana,Orleans,16580,159,649,0,2020-12-03,30.06971951,-89.92660315
Louisiana,Ouachita,10482,158,217,2,2020-12-03,32.47645559,-92.15704172
Louisiana,Plaquemines,1258,36,20,0,2020-12-03,29.42245447,-89.60322085
Louisiana,Pointe Coupee,1441,22,49,0,2020-12-03,30.71409502,-91.60209535
Louisiana,Rapides,6528,74,193,3,2020-12-03,31.19778499,-92.52997303
Louisiana,Red River,573,0,26,0,2020-12-03,32.09530039,-93.34213308
Louisiana,Richland,1436,12,32,0,2020-12-03,32.41391005,-91.76634876
Louisiana,Sabine,1600,43,21,0,2020-12-03,31.56388699,-93.55433981
Louisiana,St. Bernard,1910,25,34,0,2020-12-03,29.87761636,-89.51887093
Louisiana,St. Charles,2758,49,70,0,2020-12-03,29.90709658,-90.35555967
Louisiana,St. Helena,549,22,4,0,2020-12-03,30.82210324,-90.71013176
Louisiana,St. James,1014,3,40,0,2020-12-03,30.02531716,-90.80212061
Louisiana,St. John the Baptist,2076,34,116,0,2020-12-03,30.12597499,-90.4753503
Louisiana,St. Landry,5265,50,165,0,2020-12-03,30.59724262,-92.00135806
Louisiana,St. Martin,2845,33,73,0,2020-12-03,30.13112107,-91.61403569
Louisiana,St. Mary,2426,17,96,1,2020-12-03,29.69262097,-91.44702164
Louisiana,St. Tammany,10983,105,296,0,2020-12-03,30.40942847,-89.95642711
Louisiana,Tangipahoa,6982,71,145,1,2020-12-03,30.62888673,-90.40664996
Louisiana,Tensas,221,1,3,0,2020-12-03,32.00760749,-91.32915234
Louisiana,Terrebonne,4685,48,139,1,2020-12-03,29.37343766,-90.82626855
Louisiana,Union,1446,14,59,0,2020-12-03,32.83121059,-92.3749373
Louisiana,Vermilion,2704,42,76,0,2020-12-03,29.83517605,-92.30292538
Louisiana,Vernon,1490,22,66,0,2020-12-03,31.10884837,-93.18153838
Louisiana,Washington,2354,11,79,0,2020-12-03,30.85288548,-90.03866652
Louisiana,Webster,2097,28,56,0,2020-12-03,32.70847669,-93.33121835
Louisiana,West Baton Rouge,1419,16,43,0,2020-12-03,30.46058217,-91.30989571
Louisiana,West Carroll,697,15,21,0,2020-12-03,32.78550125,-91.461201
Louisiana,West Feliciana,812,-1,25,0,2020-12-03,30.87882871,-91.4148538
Louisiana,Winn,1020,12,26,0,2020-12-03,31.94449367,-92.63789413
Maine,Androscoggin,1643,34,27,0,2020-12-03,44.1664747,-70.20380627
Maine,Aroostook,160,9,1,0,2020-12-03,46.65926321,-68.59841248
Maine,Cumberland,3965,60,71,0,2020-12-03,43.8370751,-70.37226999
Maine,Franklin,239,10,4,0,2020-12-03,44.97330019,-70.44381045
Maine,Hancock,287,10,3,1,2020-12-03,44.59816444,-68.38401854
Maine,Kennebec,876,37,18,0,2020-12-03,44.40759555,-69.76738544
Maine,Knox,213,0,4,0,2020-12-03,44.11486325,-69.10529169
Maine,Lincoln,168,7,2,0,2020-12-03,44.05996956,-69.54227124
Maine,Oxford,418,52,4,0,2020-12-03,44.49952995,-70.75682123
Maine,Penobscot,997,53,14,1,2020-12-03,45.40194593,-68.65020455
Maine,Piscataquis,52,3,1,0,2020-12-03,45.83839062,-69.2860223
Maine,Sagadahoc,165,7,0,0,2020-12-03,43.95415864,-69.85074999
Maine,Somerset,470,6,20,0,2020-12-03,45.51229767,-69.95995554
Maine,Waldo,239,7,16,0,2020-12-03,44.4858305,-69.12061935
Maine,Washington,199,3,2,0,2020-12-03,45.01607142,-67.62813524
Maine,York,2462,58,33,0,2020-12-03,43.47808377,-70.71052375
Maryland,Allegany,3597,131,84,4,2020-12-03,39.62357628,-78.69280486
Maryland,Anne Arundel,17318,152,300,3,2020-12-03,39.00670238,-76.60329337
Maryland,Baltimore,30187,290,756,13,2020-12-03,39.45784712,-76.62911955
Maryland,Calvert,1660,25,39,1,2020-12-03,38.53961642,-76.56820632
Maryland,Caroline,1003,13,10,0,2020-12-03,38.87172293,-75.82904158
Maryland,Carroll,3442,27,142,4,2020-12-03,39.56453592,-77.02373735
Maryland,Cecil,2242,43,49,2,2020-12-03,39.56647682,-75.94627411
Maryland,Charles,4522,20,105,1,2020-12-03,38.51092331,-76.98580666
Maryland,Dorchester,1034,4,17,1,2020-12-03,38.45413522,-76.02752426
Maryland,Frederick,7249,126,152,2,2020-12-03,39.47296601,-77.39999394
Maryland,Garrett,874,57,8,0,2020-12-03,39.52786077,-79.27355126
Maryland,Harford,6294,60,106,2,2020-12-03,39.55010644,-76.30775940000002
Maryland,Howard,8410,67,150,1,2020-12-03,39.25305293,-76.93126208
Maryland,Kent,472,5,25,0,2020-12-03,39.24976208,-76.04741541
Maryland,Montgomery,34425,266,970,4,2020-12-03,39.13676329,-77.20358245
Maryland,Prince George's,42458,268,943,5,2020-12-03,38.83070039,-76.8496441
Maryland,Queen Anne's,1135,24,27,0,2020-12-03,39.06198912,-76.03530977
Maryland,St. Mary's,2240,30,64,2,2020-12-03,38.30058422,-76.60629279999998
Maryland,Somerset,1117,15,9,0,2020-12-03,38.1163542,-75.75118623
Maryland,Talbot,836,6,7,0,2020-12-03,38.76618159,-76.10882561
Maryland,Washington,4570,101,79,2,2020-12-03,39.60835778,-77.82002295
Maryland,Wicomico,3530,40,59,0,2020-12-03,38.37301947,-75.62705831
Maryland,Worcester,1514,10,39,0,2020-12-03,38.21274277,-75.33200012
Maryland,Baltimore,30187,290,756,13,2020-12-03,39.45784712,-76.62911955
Massachusetts,Barnstable,3289,85,195,1,2020-12-03,41.72980578,-70.28854339
Massachusetts,Berkshire,1780,52,66,1,2020-12-03,42.37428441,-73.20524838
Massachusetts,Bristol,21368,817,873,5,2020-12-03,41.79228404,-71.10872211
Massachusetts,Essex,37476,1370,1475,8,2020-12-03,42.6687626,-70.94687179
Massachusetts,Franklin,699,23,76,0,2020-12-03,42.58119713,-72.58602547
Massachusetts,Hampden,17163,428,920,3,2020-12-03,42.13440424,-72.63235561
Massachusetts,Hampshire,2450,60,165,1,2020-12-03,42.33997957,-72.65898478
Massachusetts,Middlesex,48896,1225,2443,8,2020-12-03,42.48607732,-71.39049229
Massachusetts,Norfolk,17069,374,1191,4,2020-12-03,42.16073095,-71.20530408
Massachusetts,Plymouth,15545,395,906,4,2020-12-03,41.94070556,-70.80802823
Massachusetts,Suffolk,38648,827,1261,5,2020-12-03,42.3279514,-71.07850442
Massachusetts,Worcester,26552,746,1295,10,2020-12-03,42.35026951,-71.90493363
Michigan,Alcona,225,21,6,1,2020-12-03,44.6846864,-83.59507875
Michigan,Alger,240,2,2,0,2020-12-03,46.41292944,-86.60260122
Michigan,Allegan,4325,111,38,4,2020-12-03,42.59147037,-85.89102866
Michigan,Alpena,749,17,17,0,2020-12-03,45.03477666,-83.62212411
Michigan,Antrim,476,11,6,0,2020-12-03,44.99690221,-85.15503082
Michigan,Arenac,477,13,17,1,2020-12-03,44.0636262,-83.89277559
Michigan,Baraga,494,-6,24,1,2020-12-03,46.6720582,-88.36363591
Michigan,Barry,2358,66,14,0,2020-12-03,42.59513984,-85.30834519
Michigan,Bay,4773,130,111,4,2020-12-03,43.70639106,-83.98731479
Michigan,Benzie,467,18,8,0,2020-12-03,44.63899297,-86.01608482
Michigan,Berrien,7149,125,121,4,2020-12-03,41.95447397,-86.41313079999998
Michigan,Branch,2426,44,38,1,2020-12-03,41.91600556,-85.05929476
Michigan,Calhoun,6339,137,130,3,2020-12-03,42.24633834,-85.00493569
Michigan,Cass,2342,24,30,0,2020-12-03,41.91522292,-85.99405727
Michigan,Charlevoix,649,15,7,0,2020-12-03,45.37790017,-85.19614053
Michigan,Cheboygan,535,10,21,1,2020-12-03,45.44787015,-84.50122149
Michigan,Chippewa,925,40,6,0,2020-12-03,46.29552653,-84.54353449
Michigan,Clare,843,34,26,0,2020-12-03,43.98794227,-84.84819859999998
Michigan,Clinton,3026,87,24,0,2020-12-03,42.94400871,-84.60145248
Michigan,Crawford,375,5,5,0,2020-12-03,44.68255561,-84.61006219
Michigan,Delta,2588,34,63,1,2020-12-03,45.90484910000001,-86.9080745
Michigan,Dickinson,1831,24,54,9,2020-12-03,46.00999672,-87.86961634
Michigan,Eaton,3433,91,48,3,2020-12-03,42.59599185,-84.83740035
Michigan,Emmet,1014,9,28,0,2020-12-03,45.52625509,-84.89083249
Michigan,Genesee,15934,287,448,5,2020-12-03,43.02244215,-83.70589709
Michigan,Gladwin,891,22,14,2,2020-12-03,43.98901072,-84.38774817
Michigan,Gogebic,841,27,24,1,2020-12-03,46.40862701,-89.69377193
Michigan,Grand Traverse,2055,58,20,0,2020-12-03,44.69565625,-85.55585247
Michigan,Gratiot,2109,334,36,5,2020-12-03,43.29265605,-84.60505416
Michigan,Hillsdale,1819,57,41,3,2020-12-03,41.88753639,-84.59312019
Michigan,Houghton,1630,46,15,2,2020-12-03,46.89988536,-88.68495385
Michigan,Huron,902,29,15,0,2020-12-03,43.83353985,-83.04078453
Michigan,Ingham,9633,138,123,4,2020-12-03,42.59716886,-84.37472069
Michigan,Ionia,2634,77,22,2,2020-12-03,42.94502238,-85.07413319
Michigan,Iosco,833,9,27,2,2020-12-03,44.35486835,-83.63484895
Michigan,Iron,741,2,34,1,2020-12-03,46.20974132,-88.53136251
Michigan,Isabella,2664,67,25,2,2020-12-03,43.64060976,-84.84664923
Michigan,Jackson,5737,222,103,1,2020-12-03,42.24807035,-84.42258681
Michigan,Kalamazoo,10028,165,172,2,2020-12-03,42.24542231,-85.53038622
Michigan,Kalkaska,385,7,7,0,2020-12-03,44.68512729,-85.09085699
Michigan,Kent,35134,596,376,16,2020-12-03,43.03197711,-85.54934642
Michigan,Keweenaw,71,0,2,0,2020-12-03,47.63197653,-88.41434263
Michigan,Lake,217,5,6,1,2020-12-03,43.99050893,-85.802173
Michigan,Lapeer,2815,80,61,2,2020-12-03,43.09052506,-83.22153148
Michigan,Leelanau,405,14,3,0,2020-12-03,44.94430054,-85.80150326
Michigan,Lenawee,2870,93,28,3,2020-12-03,41.89475156,-84.06603727
Michigan,Livingston,6076,145,50,0,2020-12-03,42.60302282,-83.91297209
Michigan,Luce,170,-1,0,0,2020-12-03,46.47227431,-85.54471223
Michigan,Mackinac,312,7,1,0,2020-12-03,46.07028979,-85.04980537
Michigan,Macomb,39814,570,1313,18,2020-12-03,42.69158356,-82.92752801
Michigan,Manistee,403,5,8,1,2020-12-03,44.33352407,-86.05626916
Michigan,Marquette,3050,76,31,0,2020-12-03,46.4338914,-87.64043701
Michigan,Mason,647,10,12,0,2020-12-03,43.99509218,-86.24988902
Michigan,Mecosta,1316,20,11,3,2020-12-03,43.64064262,-85.32463223
Michigan,Menominee,1388,8,19,1,2020-12-03,45.58038692,-87.55370409
Michigan,Midland,3171,35,28,0,2020-12-03,43.64330771,-84.38804374
Michigan,Missaukee,310,6,5,0,2020-12-03,44.33772443,-85.09256478
Michigan,Monroe,5711,86,90,3,2020-12-03,41.92734151,-83.53749864
Michigan,Montcalm,2172,26,28,2,2020-12-03,43.31082541,-85.15252824
Michigan,Montmorency,204,7,2,0,2020-12-03,45.0275929,-84.12696227
Michigan,Muskegon,7863,181,188,2,2020-12-03,43.29123859,-86.15176712
Michigan,Newaygo,1759,41,18,0,2020-12-03,43.554374,-85.80070107
Michigan,Oakland,49136,734,1395,20,2020-12-03,42.66090111,-83.38595416
Michigan,Oceana,1278,32,24,1,2020-12-03,43.64124435,-86.26726673
Michigan,Ogemaw,600,33,17,1,2020-12-03,44.33481032,-84.12725175
Michigan,Ontonagon,288,5,14,0,2020-12-03,46.665226200000006,-89.31390481
Michigan,Osceola,600,20,10,0,2020-12-03,43.98992088,-85.32566756
Michigan,Oscoda,208,8,10,1,2020-12-03,44.68192279,-84.12939244
Michigan,Otsego,805,19,19,0,2020-12-03,45.02085831,-84.59898295
Michigan,Ottawa,14694,317,169,4,2020-12-03,42.95996803,-85.9969107
Michigan,Presque Isle,295,0,4,0,2020-12-03,45.34018577,-83.91498656
Michigan,Roscommon,704,11,19,2,2020-12-03,44.33473082,-84.61067651
Michigan,Saginaw,9240,343,260,4,2020-12-03,43.33433923,-84.05131209999998
Michigan,St. Clair,4979,115,103,1,2020-12-03,42.92655373,-82.67937954
Michigan,St. Joseph,2731,39,37,2,2020-12-03,41.91441767,-85.52797979
Michigan,Sanilac,933,25,19,3,2020-12-03,43.42406072,-82.82055898
Michigan,Schoolcraft,184,9,2,0,2020-12-03,46.19235734,-86.19972234
Michigan,Shiawassee,2194,72,45,0,2020-12-03,42.95392800000001,-84.14585902
Michigan,Tuscola,1855,32,60,2,2020-12-03,43.46606813,-83.41897025
Michigan,Van Buren,3054,47,49,2,2020-12-03,42.25190229,-86.01939087
Michigan,Washtenaw,10642,131,140,6,2020-12-03,42.253105,-83.83853204
Michigan,Wayne,67996,942,3268,26,2020-12-03,42.28098405,-83.281255
Michigan,Wexford,708,5,16,0,2020-12-03,44.33853602,-85.57712739
Minnesota,Aitkin,799,4,30,0,2020-12-03,46.60962049,-93.4116826
Minnesota,Anoka,23541,345,236,4,2020-12-03,45.27476015,-93.24604565
Minnesota,Becker,2215,39,21,2,2020-12-03,46.93479392,-95.67158144
Minnesota,Beltrami,2307,32,18,0,2020-12-03,47.97373527,-94.93732139
Minnesota,Benton,3227,55,53,0,2020-12-03,45.69804958,-93.99514135
Minnesota,Big Stone,339,6,2,0,2020-12-03,45.42712824,-96.41403739
Minnesota,Blue Earth,4312,46,17,0,2020-12-03,44.03554215,-94.06699781
Minnesota,Brown,1561,51,15,0,2020-12-03,44.24205652,-94.72562874
Minnesota,Carlton,2014,30,17,0,2020-12-03,46.59180601,-92.67601019
Minnesota,Carver,5097,84,15,0,2020-12-03,44.82017001,-93.8009918
Minnesota,Cass,1535,36,11,1,2020-12-03,46.95043611,-94.32603968
Minnesota,Chippewa,980,30,8,0,2020-12-03,45.02343421,-95.56403693
Minnesota,Chisago,3345,76,16,2,2020-12-03,45.5021011,-92.90861945
Minnesota,Clay,5299,86,60,1,2020-12-03,46.89289518,-96.48761922
Minnesota,Clearwater,554,16,10,1,2020-12-03,47.57992111,-95.37790562
Minnesota,Cook,80,1,0,0,2020-12-03,47.90504893,-90.52629546
Minnesota,Cottonwood,945,17,4,0,2020-12-03,44.00715262,-95.18138802
Minnesota,Crow Wing,3833,71,39,2,2020-12-03,46.48096553,-94.06755609
Minnesota,Dakota,23564,462,198,4,2020-12-03,44.67172617,-93.06299363
Minnesota,Dodge,931,20,1,1,2020-12-03,44.02238415,-92.86244324
Minnesota,Douglas,2830,46,40,1,2020-12-03,45.93348491,-95.45335469
Minnesota,Faribault,609,19,3,1,2020-12-03,43.67381499,-93.94787458
Minnesota,Fillmore,769,21,0,0,2020-12-03,43.67394126,-92.08980382
Minnesota,Freeborn,1622,26,7,1,2020-12-03,43.67385583,-93.34884422
Minnesota,Goodhue,2229,60,32,2,2020-12-03,44.40849741,-92.7234195
Minnesota,Grant,298,3,6,0,2020-12-03,45.93424769,-96.01139609
Minnesota,Hennepin,70069,1171,1145,15,2020-12-03,45.00761521,-93.47694895
Minnesota,Houston,800,31,4,0,2020-12-03,43.67129565,-91.49143057
Minnesota,Hubbard,1197,20,29,1,2020-12-03,47.10778564,-94.91693868
Minnesota,Isanti,2039,44,17,0,2020-12-03,45.56181234,-93.29487636
Minnesota,Itasca,2063,41,24,1,2020-12-03,47.51009045,-93.63092229
Minnesota,Jackson,532,14,1,0,2020-12-03,43.67423373,-95.15398258
Minnesota,Kanabec,686,9,14,0,2020-12-03,45.9459309,-93.29275192
Minnesota,Kandiyohi,4408,88,28,4,2020-12-03,45.1526059,-95.00586446
Minnesota,Kittson,251,11,8,0,2020-12-03,48.77754106,-96.78317184
Minnesota,Koochiching,421,11,6,0,2020-12-03,48.24539665,-93.78352843
Minnesota,Lac qui Parle,412,14,4,0,2020-12-03,44.9973857,-96.17488219
Minnesota,Lake,451,8,8,1,2020-12-03,47.64270764,-91.44557998
Minnesota,Lake of the Woods,107,5,1,0,2020-12-03,48.77217001,-94.90274472
Minnesota,Le Sueur,1570,35,12,1,2020-12-03,44.37136597,-93.72844721
Minnesota,Lincoln,381,9,1,0,2020-12-03,44.41311883,-96.26688165
Minnesota,Lyon,2328,41,12,0,2020-12-03,44.41327865,-95.83806103
Minnesota,McLeod,2337,72,21,4,2020-12-03,44.82367677,-94.27287017
Minnesota,Mahnomen,322,6,5,1,2020-12-03,47.32557075,-95.80921485
Minnesota,Marshall,545,17,9,0,2020-12-03,48.35825983,-96.37017407
Minnesota,Martin,1247,35,21,0,2020-12-03,43.67429718,-94.55099908
Minnesota,Meeker,1448,58,12,1,2020-12-03,45.12328869,-94.52839455
Minnesota,Mille Lacs,1646,34,32,1,2020-12-03,45.93705297,-93.63236823
Minnesota,Morrison,2467,50,31,1,2020-12-03,46.01265363,-94.27341528
Minnesota,Mower,2748,42,23,0,2020-12-03,43.67142874,-92.75234549
Minnesota,Murray,612,6,4,0,2020-12-03,44.02216709,-95.76328482
Minnesota,Nicollet,1721,27,26,0,2020-12-03,44.35291112,-94.24710352
Minnesota,Nobles,3160,23,32,1,2020-12-03,43.67434621,-95.75329576
Minnesota,Norman,371,8,8,0,2020-12-03,47.32628443,-96.45620947
Minnesota,Olmsted,7146,121,37,1,2020-12-03,44.00374114,-92.40209944
Minnesota,Otter Tail,3389,62,25,0,2020-12-03,46.40846929,-95.70835255
Minnesota,Pennington,705,30,8,0,2020-12-03,48.06642577,-96.0370814
Minnesota,Pine,1449,20,8,0,2020-12-03,46.12105238,-92.74070188
Minnesota,Pipestone,765,18,18,0,2020-12-03,44.02301619,-96.25841142
Minnesota,Polk,2715,53,27,1,2020-12-03,47.77372465,-96.40134647
Minnesota,Pope,572,8,1,0,2020-12-03,45.58606667,-95.44451209
Minnesota,Ramsey,29459,511,521,9,2020-12-03,45.01625271,-93.09872295
Minnesota,Red Lake,230,2,3,0,2020-12-03,47.87197525,-96.09561104
Minnesota,Redwood,1046,29,20,0,2020-12-03,44.40555844,-95.25207021
Minnesota,Renville,955,28,30,1,2020-12-03,44.72836381,-94.94553734
Minnesota,Rice,4323,46,38,0,2020-12-03,44.3543376,-93.29658715
Minnesota,Rock,824,23,9,0,2020-12-03,43.67482683,-96.25296832
Minnesota,Roseau,1303,56,5,0,2020-12-03,48.77501878,-95.81079919
Minnesota,St. Louis,9549,269,121,4,2020-12-03,47.6048407,-92.46879855
Minnesota,Scott,8964,154,60,4,2020-12-03,44.6490231,-93.53340251
Minnesota,Sherburne,6187,105,46,3,2020-12-03,45.44447208,-93.77617511
Minnesota,Sibley,840,21,4,0,2020-12-03,44.5796592,-94.23164924
Minnesota,Stearns,14564,250,125,4,2020-12-03,45.55192576,-94.61078221
Minnesota,Steele,2103,47,8,0,2020-12-03,44.02240351,-93.22627088
Minnesota,Stevens,540,7,3,0,2020-12-03,45.58613007,-96.00163705
Minnesota,Swift,636,22,10,1,2020-12-03,45.2829032,-95.68264092
Minnesota,Todd,1903,29,14,0,2020-12-03,46.06996226,-94.89785296
Minnesota,Traverse,153,1,1,0,2020-12-03,45.77298854,-96.47062949
Minnesota,Wabasha,1130,26,1,0,2020-12-03,44.28424356,-92.23121312
Minnesota,Wadena,863,10,7,0,2020-12-03,46.58589171,-94.96968506
Minnesota,Waseca,1434,16,11,0,2020-12-03,44.02211116,-93.58720034
Minnesota,Washington,14864,274,125,5,2020-12-03,45.03864533,-92.88429635
Minnesota,Watonwan,894,12,4,0,2020-12-03,43.97823903,-94.61413846
Minnesota,Wilkin,417,6,5,0,2020-12-03,46.35721532,-96.4684375
Minnesota,Winona,2978,58,32,1,2020-12-03,43.98772283,-91.78081305
Minnesota,Wright,8475,204,48,3,2020-12-03,45.17297924,-93.96234781
Minnesota,Yellow Medicine,696,20,12,0,2020-12-03,44.71710183,-95.86842453
Mississippi,Adams,1483,11,52,0,2020-12-03,31.47669768,-91.35326037
Mississippi,Alcorn,1604,11,28,0,2020-12-03,34.88084463,-88.57996173
Mississippi,Amite,593,17,15,0,2020-12-03,31.17467303,-90.80501621
Mississippi,Attala,1247,19,35,1,2020-12-03,33.08658803,-89.57838564
Mississippi,Benton,505,1,18,0,2020-12-03,34.81681228,-89.18945516
Mississippi,Bolivar,2501,21,85,1,2020-12-03,33.79696941,-90.87372121
Mississippi,Calhoun,815,20,13,0,2020-12-03,33.93683395,-89.33686647
Mississippi,Carroll,763,8,15,0,2020-12-03,33.44834567,-89.91994479
Mississippi,Chickasaw,1121,14,32,0,2020-12-03,33.91983202,-88.9481545
Mississippi,Choctaw,369,6,7,0,2020-12-03,33.34598242,-89.24809382
Mississippi,Claiborne,593,1,16,0,2020-12-03,31.97061673,-90.90702196
Mississippi,Clarke,956,8,53,0,2020-12-03,32.04158545,-88.68896219999998
Mississippi,Clay,971,10,27,0,2020-12-03,33.65358105,-88.77784255
Mississippi,Coahoma,1578,19,44,1,2020-12-03,34.22772299,-90.60415045
Mississippi,Copiah,1725,17,40,0,2020-12-03,31.86977774,-90.44565118
Mississippi,Covington,1355,55,41,1,2020-12-03,31.63225413,-89.55389939
Mississippi,DeSoto,10708,145,104,0,2020-12-03,34.87625235,-89.99091418
Mississippi,Forrest,4001,54,87,1,2020-12-03,31.18961454,-89.25832496
Mississippi,Franklin,372,9,6,1,2020-12-03,31.47786634,-90.89672989
Mississippi,George,1317,22,25,0,2020-12-03,30.86259065,-88.64436789
Mississippi,Greene,630,6,22,0,2020-12-03,31.21444233,-88.63922281
Mississippi,Grenada,1471,17,45,0,2020-12-03,33.77036166,-89.80245083
Mississippi,Hancock,1309,33,42,1,2020-12-03,30.41830223,-89.48851033
Mississippi,Harrison,7555,158,113,0,2020-12-03,30.51359752,-89.12467576
Mississippi,Hinds,10519,105,205,1,2020-12-03,32.2656285,-90.44435448
Mississippi,Holmes,1357,13,61,0,2020-12-03,33.12345854,-90.08923538
Mississippi,Humphreys,557,5,19,0,2020-12-03,33.12825718,-90.52252707
Mississippi,Issaquena,123,2,4,0,2020-12-03,32.72531359,-90.97392828
Mississippi,Itawamba,1626,27,37,1,2020-12-03,34.27993475,-88.3606733
Mississippi,Jackson,6708,53,128,0,2020-12-03,30.54020656,-88.64184064
Mississippi,Jasper,885,15,23,0,2020-12-03,32.01922104,-89.11786866
Mississippi,Jefferson,387,4,12,0,2020-12-03,31.73397872,-91.03764977
Mississippi,Jefferson Davis,602,6,17,0,2020-12-03,31.56884708,-89.82670990000003
Mississippi,Jones,3821,60,89,1,2020-12-03,31.62257767,-89.16896899999998
Mississippi,Kemper,493,13,18,0,2020-12-03,32.75462946,-88.64105766
Mississippi,Lafayette,3440,30,57,4,2020-12-03,34.35687874,-89.48490961
Mississippi,Lamar,3075,56,50,0,2020-12-03,31.20572971,-89.5077704
Mississippi,Lauderdale,3727,64,147,0,2020-12-03,32.40419769,-88.66229662
Mississippi,Lawrence,752,6,14,0,2020-12-03,31.55147224,-90.10841127
Mississippi,Leake,1433,15,44,0,2020-12-03,32.7536828,-89.52402044
Mississippi,Lee,5476,73,97,1,2020-12-03,34.291877500000005,-88.68149954
Mississippi,Leflore,2139,28,91,0,2020-12-03,33.55545125,-90.29900733
Mississippi,Lincoln,2008,3,67,1,2020-12-03,31.53288662,-90.45391915
Mississippi,Lowndes,2611,83,67,0,2020-12-03,33.47386518,-88.44191529999998
Mississippi,Madison,5202,82,110,3,2020-12-03,32.63389156,-90.03513564
Mississippi,Marion,1242,28,48,1,2020-12-03,31.23132643,-89.8209217
Mississippi,Marshall,2271,21,51,0,2020-12-03,34.76216286,-89.50299462
Mississippi,Monroe,2122,25,78,0,2020-12-03,33.89236763,-88.4808438
Mississippi,Montgomery,788,4,26,0,2020-12-03,33.49419589,-89.61729103
Mississippi,Neshoba,2311,31,122,0,2020-12-03,32.75339664,-89.11726492
Mississippi,Newton,1121,16,29,0,2020-12-03,32.40021118,-89.11843336
Mississippi,Noxubee,742,9,17,0,2020-12-03,33.11009499,-88.56949061
Mississippi,Oktibbeha,2599,47,62,0,2020-12-03,33.42491685,-88.87905132
Mississippi,Panola,2402,29,53,0,2020-12-03,34.36398677,-89.95064249
Mississippi,Pearl River,1638,49,70,1,2020-12-03,30.77090935,-89.58677275
Mississippi,Perry,693,6,26,0,2020-12-03,31.17161885,-88.99281835
Mississippi,Pike,1683,16,60,0,2020-12-03,31.17507789,-90.40392572
Mississippi,Pontotoc,2112,31,31,0,2020-12-03,34.226046000000004,-89.03636807
Mississippi,Prentiss,1567,18,32,1,2020-12-03,34.61810501,-88.51986294
Mississippi,Quitman,511,1,7,0,2020-12-03,34.25157572,-90.28908
Mississippi,Rankin,6130,73,112,5,2020-12-03,32.26469147,-89.94537876
Mississippi,Scott,1627,14,30,0,2020-12-03,32.406704100000006,-89.53789439
Mississippi,Sharkey,331,2,17,0,2020-12-03,32.88149103,-90.8159538
Mississippi,Simpson,1551,11,53,0,2020-12-03,31.91282117,-89.91716179
Mississippi,Smith,757,15,16,0,2020-12-03,32.01744532,-89.50644846
Mississippi,Stone,831,11,15,0,2020-12-03,30.79187949,-89.11547539
Mississippi,Sunflower,1955,14,55,0,2020-12-03,33.60192578,-90.58882684
Mississippi,Tallahatchie,1007,13,27,0,2020-12-03,33.95339918,-90.1729398
Mississippi,Tate,1840,36,51,0,2020-12-03,34.65133709,-89.94485778
Mississippi,Tippah,1325,25,30,0,2020-12-03,34.76872156,-88.90988194
Mississippi,Tishomingo,1148,8,44,1,2020-12-03,34.74023475,-88.23917219
Mississippi,Tunica,635,5,19,0,2020-12-03,34.64967704,-90.37481167
Mississippi,Union,1768,39,26,0,2020-12-03,34.49162015,-89.00776006
Mississippi,Walthall,799,6,30,0,2020-12-03,31.14971548,-90.10446654
Mississippi,Warren,1849,19,58,0,2020-12-03,32.35810271,-90.83352619
Mississippi,Washington,3367,46,108,0,2020-12-03,33.28392041,-90.94196237
Mississippi,Wayne,1249,19,24,0,2020-12-03,31.64135687,-88.69573913
Mississippi,Webster,479,2,14,0,2020-12-03,33.61300486,-89.28392912
Mississippi,Wilkinson,413,6,22,0,2020-12-03,31.16078225,-91.31018819
Mississippi,Winston,1317,30,26,0,2020-12-03,33.08747908,-89.03391385
Mississippi,Yalobusha,744,2,28,0,2020-12-03,34.02824175,-89.70762049999998
Mississippi,Yazoo,1629,16,40,0,2020-12-03,32.77890365,-90.39656148
Missouri,Adair,1122,12,3,0,2020-12-03,40.19058551,-92.60078167
Missouri,Andrew,851,15,10,0,2020-12-03,39.98492163,-94.80163024
Missouri,Atchison,220,6,3,0,2020-12-03,40.43238737,-95.42970639
Missouri,Audrain,1144,19,15,1,2020-12-03,39.215877,-91.84242683
Missouri,Barry,1500,20,29,2,2020-12-03,36.70978521,-93.82919888
Missouri,Barton,644,6,5,0,2020-12-03,37.50207671,-94.34757022
Missouri,Bates,563,6,9,0,2020-12-03,38.25271289,-94.34113157
Missouri,Benton,791,6,9,0,2020-12-03,38.29503305,-93.28756116
Missouri,Bollinger,834,22,8,0,2020-12-03,37.32449052,-90.02725304
Missouri,Boone,10692,115,25,0,2020-12-03,38.99186229,-92.30723575
Missouri,Buchanan,4911,68,63,0,2020-12-03,39.65816401,-94.80138942
Missouri,Butler,2247,15,9,0,2020-12-03,36.71462476,-90.40421163
Missouri,Caldwell,409,4,3,0,2020-12-03,39.65620858,-93.98308093
Missouri,Callaway,2960,35,11,0,2020-12-03,38.83674754,-91.92186505
Missouri,Camden,2547,27,49,0,2020-12-03,38.02199522,-92.76083747
Missouri,Cape Girardeau,5253,76,65,0,2020-12-03,37.38489388,-89.6843587
Missouri,Carroll,450,8,6,0,2020-12-03,39.42762566,-93.50626255
Missouri,Carter,303,3,6,0,2020-12-03,36.94160441,-90.96051322
Missouri,Cass,3989,68,40,0,2020-12-03,38.64789422,-94.353399
Missouri,Cedar,450,3,7,0,2020-12-03,37.72391475,-93.85445441
Missouri,Chariton,254,5,0,0,2020-12-03,39.51499357,-92.9629191
Missouri,Christian,3985,70,24,0,2020-12-03,36.9711783,-93.18537118
Missouri,Clark,309,6,4,0,2020-12-03,40.41040752,-91.73661677
Missouri,Clay,4837,85,76,-1,2020-12-03,39.31132056,-94.41850862
Missouri,Clinton,933,20,47,1,2020-12-03,39.6013098,-94.40465394
Missouri,Cole,6420,82,60,0,2020-12-03,38.50455671,-92.27860244
Missouri,Cooper,1208,21,8,0,2020-12-03,38.844478,-92.80896081
Missouri,Crawford,1239,11,14,0,2020-12-03,37.97663738,-91.30528104
Missouri,Dade,296,1,8,0,2020-12-03,37.431814,-93.8503345
Missouri,Dallas,613,3,10,0,2020-12-03,37.6811355,-93.02127031
Missouri,Daviess,353,7,8,0,2020-12-03,39.96145298,-93.98519678
Missouri,DeKalb,621,11,15,2,2020-12-03,39.89201062,-94.40476508
Missouri,Dent,539,8,4,0,2020-12-03,37.60663134,-91.50790473
Missouri,Douglas,452,2,15,0,2020-12-03,36.9325593,-92.49905109
Missouri,Dunklin,1738,12,14,0,2020-12-03,36.27167174,-90.09122243
Missouri,Franklin,5040,70,86,0,2020-12-03,38.41127108,-91.07522826
Missouri,Gasconade,502,7,25,1,2020-12-03,38.43947277,-91.50847147
Missouri,Gentry,440,12,13,0,2020-12-03,40.21097916,-94.40944419
Missouri,Greene,14449,132,190,8,2020-12-03,37.2575872,-93.34230916
Missouri,Grundy,533,18,14,0,2020-12-03,40.11406587,-93.56509276
Missouri,Harrison,415,7,3,0,2020-12-03,40.35570088,-93.99222144
Missouri,Henry,1138,19,12,1,2020-12-03,38.38482826,-93.79293734
Missouri,Hickory,379,3,6,0,2020-12-03,37.94163617,-93.3203037
Missouri,Holt,277,7,4,1,2020-12-03,40.09799248,-95.2163888
Missouri,Howard,524,8,2,0,2020-12-03,39.1435761,-92.69756691
Missouri,Howell,1616,9,31,1,2020-12-03,36.77383887,-91.88683935
Missouri,Iron,247,5,1,0,2020-12-03,37.55487945,-90.7735296
Missouri,Jackson,18081,269,185,1,2020-12-03,39.01002188,-94.34724536
Missouri,Jasper,8499,66,119,2,2020-12-03,37.20351921,-94.34050458
Missouri,Jefferson,11667,207,108,0,2020-12-03,38.25926778,-90.53870896
Missouri,Johnson,2617,35,16,0,2020-12-03,38.74719601,-93.80691168
Missouri,Knox,136,1,1,0,2020-12-03,40.12699751,-92.14780832
Missouri,Laclede,1903,33,32,0,2020-12-03,37.65896829,-92.5888493
Missouri,Lafayette,1601,20,30,0,2020-12-03,39.06986886,-93.78076396
Missouri,Lawrence,1978,15,39,0,2020-12-03,37.10626634,-93.83293097
Missouri,Lewis,436,3,2,0,2020-12-03,40.09673161,-91.72070156
Missouri,Lincoln,2587,47,13,0,2020-12-03,39.05345619,-90.95588181
Missouri,Linn,334,5,11,0,2020-12-03,39.87001769,-93.10704106
Missouri,Livingston,804,12,16,0,2020-12-03,39.78110272,-93.54645978
Missouri,McDonald,1426,9,16,0,2020-12-03,36.62869595,-94.34867205
Missouri,Macon,701,2,3,0,2020-12-03,39.83049768,-92.56453089
Missouri,Madison,925,13,9,0,2020-12-03,37.47865134,-90.3467143
Missouri,Maries,379,3,4,0,2020-12-03,38.16193985,-91.92249662
Missouri,Marion,1846,14,18,0,2020-12-03,39.80601912,-91.62203062
Missouri,Mercer,89,1,1,0,2020-12-03,40.42212303,-93.5682959
Missouri,Miller,1576,30,26,0,2020-12-03,38.21450288,-92.42610898
Missouri,Mississippi,915,12,7,0,2020-12-03,36.82516239,-89.29505753
Missouri,Moniteau,1274,10,15,0,2020-12-03,38.63571781,-92.57976951
Missouri,Monroe,407,6,3,0,2020-12-03,39.49593978,-92.00043978
Missouri,Montgomery,358,4,6,0,2020-12-03,38.94022054,-91.47000721
Missouri,Morgan,1104,15,13,1,2020-12-03,38.4181765,-92.88791859
Missouri,New Madrid,1388,4,24,0,2020-12-03,36.59666326,-89.66070007
Missouri,Newton,3027,15,38,0,2020-12-03,36.90519407,-94.3394104
Missouri,Nodaway,2076,39,13,0,2020-12-03,40.36079813,-94.88133008
Missouri,Oregon,394,7,1,0,2020-12-03,36.68710164,-91.4033755
Missouri,Osage,973,15,4,0,2020-12-03,38.46036182,-91.8613635
Missouri,Ozark,303,5,3,0,2020-12-03,36.64916339,-92.44459066
Missouri,Pemiscot,1125,16,19,0,2020-12-03,36.2130572,-89.78742322
Missouri,Perry,1596,26,12,0,2020-12-03,37.70660776,-89.82741088
Missouri,Pettis,2705,5,36,0,2020-12-03,38.72798918,-93.28471706
