State,County,Total Cases,New Cases,Total Deaths,New Deaths,Date,Latitude,Longitude
Alabama,Autauga,1928,4,28,0,2020-10-14,32.53952745,-86.64408227
Alabama,Baldwin,6270,22,66,1,2020-10-14,30.72774991,-87.72207058
Alabama,Barbour,950,-1,9,0,2020-10-14,31.868263,-85.3871286
Alabama,Bibb,744,0,13,1,2020-10-14,32.99642064,-87.1251146
Alabama,Blount,1750,8,23,7,2020-10-14,33.98210918,-86.56790593
Alabama,Bullock,628,2,16,0,2020-10-14,32.10030533,-85.71265535
Alabama,Butler,977,9,40,0,2020-10-14,31.75300095,-86.68057478
Alabama,Calhoun,3922,25,57,8,2020-10-14,33.77483727,-85.82630386
Alabama,Chambers,1256,2,43,0,2020-10-14,32.91360079,-85.39072749
Alabama,Cherokee,687,0,14,1,2020-10-14,34.17805983,-85.60638968
Alabama,Chilton,1740,2,31,1,2020-10-14,32.85044126,-86.7173256
Alabama,Choctaw,377,0,12,0,2020-10-14,32.02227341,-88.2656443
Alabama,Clarke,1229,6,16,0,2020-10-14,31.68099859,-87.83548597
Alabama,Clay,667,6,11,2,2020-10-14,33.26984193,-85.85836077
Alabama,Cleburne,483,8,6,0,2020-10-14,33.67679204,-85.52005899
Alabama,Coffee,1568,17,7,1,2020-10-14,31.39932826,-85.98901039
Alabama,Colbert,1840,8,27,0,2020-10-14,34.69847452,-87.80168544
Alabama,Conecuh,549,0,12,0,2020-10-14,31.43401703,-86.99320044
Alabama,Coosa,190,1,3,0,2020-10-14,32.93690146,-86.24847739
Alabama,Covington,1585,1,29,0,2020-10-14,31.2477854,-86.45050893
Alabama,Crenshaw,574,4,30,0,2020-10-14,31.72941803,-86.31593104
Alabama,Cullman,2132,22,21,0,2020-10-14,34.13020303,-86.86888037
Alabama,Dale,1564,3,50,0,2020-10-14,31.43037123,-85.61095742
Alabama,Dallas,1837,1,26,0,2020-10-14,32.32688101,-87.1086671
Alabama,DeKalb,2942,29,24,0,2020-10-14,34.45946862,-85.80782906
Alabama,Elmore,3009,14,51,1,2020-10-14,32.59785413,-86.14415284
Alabama,Escambia,1687,-3,27,0,2020-10-14,31.1256789,-87.15918694
Alabama,Etowah,3869,31,46,1,2020-10-14,34.04567266,-86.04051873
Alabama,Fayette,520,2,10,0,2020-10-14,33.72076938,-87.73886638
Alabama,Franklin,1916,16,30,0,2020-10-14,34.44235334,-87.84289505
Alabama,Geneva,806,7,7,1,2020-10-14,31.09389027,-85.83572839
Alabama,Greene,329,3,15,0,2020-10-14,32.85504247,-87.95684022
Alabama,Hale,714,2,29,0,2020-10-14,32.76039258,-87.63284988
Alabama,Henry,611,6,5,0,2020-10-14,31.51148016,-85.24267944
Alabama,Houston,3537,22,25,0,2020-10-14,31.15197924,-85.29939599
Alabama,Jackson,1876,31,13,1,2020-10-14,34.78144169,-85.99750489
Alabama,Jefferson,21746,94,362,0,2020-10-14,33.55554728,-86.895063
Alabama,Lamar,426,2,3,0,2020-10-14,33.77995024,-88.09668032
Alabama,Lauderdale,1950,6,38,1,2020-10-14,34.90171875,-87.65624729
Alabama,Lawrence,748,7,28,0,2020-10-14,34.52041498,-87.31069453
Alabama,Lee,6346,11,64,0,2020-10-14,32.60154883,-85.35132246
Alabama,Limestone,2574,33,25,2,2020-10-14,34.81185586,-86.98310072
Alabama,Lowndes,685,0,27,0,2020-10-14,32.1597283,-86.65158371
Alabama,Macon,520,1,18,0,2020-10-14,32.38759944,-85.69267724
Alabama,Madison,8678,32,83,0,2020-10-14,34.76327133,-86.55069633
Alabama,Marengo,910,7,21,1,2020-10-14,32.24767634,-87.78796182
Alabama,Marion,1025,1,29,0,2020-10-14,34.13697363,-87.88704173
Alabama,Marshall,4182,10,46,1,2020-10-14,34.36975964,-86.30486727
Alabama,Mobile,14056,33,312,3,2020-10-14,30.78472347,-88.20842409
Alabama,Monroe,615,1,9,0,2020-10-14,31.56729412,-87.36995001
Alabama,Montgomery,9399,53,194,5,2020-10-14,32.2206831,-86.20969272
Alabama,Morgan,3757,33,32,0,2020-10-14,34.45500589,-86.85475946
Alabama,Perry,575,0,6,0,2020-10-14,32.64048341,-87.29770589
Alabama,Pickens,747,12,15,0,2020-10-14,33.28094866,-88.08818103
Alabama,Pike,1284,4,12,0,2020-10-14,31.80396383,-85.9408295
Alabama,Randolph,761,14,13,0,2020-10-14,33.29526734,-85.45708831
Alabama,Russell,1868,-1,3,0,2020-10-14,32.28725256,-85.18415324
Alabama,St. Clair,2647,16,41,0,2020-10-14,33.71902176,-86.31029372
Alabama,Shelby,6804,46,59,1,2020-10-14,33.26879845,-86.66232561
Alabama,Sumter,459,2,21,0,2020-10-14,32.59117397,-88.19916205
Alabama,Talladega,2454,7,33,0,2020-10-14,33.37823223,-86.16886178
Alabama,Tallapoosa,1236,3,85,0,2020-10-14,32.86698258,-85.79833053
Alabama,Tuscaloosa,9651,32,128,0,2020-10-14,33.28726072,-87.52556818
Alabama,Walker,2590,4,91,0,2020-10-14,33.80270512,-87.30027177
Alabama,Washington,611,4,12,0,2020-10-14,31.4092794,-88.20689944
Alabama,Wilcox,554,0,11,0,2020-10-14,31.98773215,-87.30891118
Alabama,Winston,856,7,13,1,2020-10-14,34.15030532,-87.37325922
Alaska,Aleutians East,5,0,0,0,2020-10-14,55.32222414,-161.9722021
Alaska,Bristol Bay,10,0,0,0,2020-10-14,58.74513976,-156.701064
Alaska,Denali,13,0,0,0,2020-10-14,63.67264044,-150.0076108
Alaska,Fairbanks North Star,1626,13,11,0,2020-10-14,64.80726247,-146.5692662
Alaska,Haines,6,0,0,0,2020-10-14,59.09893571,-135.4679843
Alaska,Kenai Peninsula,539,5,3,0,2020-10-14,60.24429722,-151.5388884
Alaska,Ketchikan Gateway,54,0,0,0,2020-10-14,55.57445008,-130.975561
Alaska,Kodiak Island,41,0,0,0,2020-10-14,57.65529415,-153.7493579
Alaska,Matanuska-Susitna,766,3,2,0,2020-10-14,62.31305045,-149.5741743
Alaska,North Slope,178,4,0,0,2020-10-14,69.31479216,-153.4836093
Alaska,Northwest Arctic,187,4,0,0,2020-10-14,67.04919196,-159.7503946
Arizona,Apache,3734,26,166,0,2020-10-14,35.39465006,-109.4892383
Arizona,Cochise,1986,14,73,0,2020-10-14,31.87934684,-109.7516088
Arizona,Coconino,4563,34,145,0,2020-10-14,35.83883429,-111.7707178
Arizona,Gila,1597,60,61,0,2020-10-14,33.80190085,-110.8132779
Arizona,Graham,963,12,26,0,2020-10-14,32.93166885,-109.8882178
Arizona,Greenlee,66,2,1,0,2020-10-14,33.21498827,-109.2405279
Arizona,La Paz,575,3,16,0,2020-10-14,33.72854224,-113.9810029
Arizona,Maricopa,147551,541,3475,4,2020-10-14,33.34835867,-112.4918154
Arizona,Mohave,4121,25,228,0,2020-10-14,35.70471703,-113.7577902
Arizona,Navajo,5959,36,236,0,2020-10-14,35.3997715,-110.3218983
Arizona,Pima,26632,116,633,0,2020-10-14,32.0971334,-111.7890033
Arizona,Pinal,11152,29,213,1,2020-10-14,32.90525627,-111.3449483
Arizona,Santa Cruz,2921,-1,64,0,2020-10-14,31.52508998,-110.8479088
Arizona,Yavapai,2727,6,86,0,2020-10-14,34.59933926,-112.5538588
Arizona,Yuma,13088,-1,348,0,2020-10-14,32.76895712,-113.9066674
Arkansas,Arkansas,578,9,11,0,2020-10-14,34.29145151,-91.37277296
Arkansas,Ashley,488,4,12,0,2020-10-14,33.19153461,-91.7698471
Arkansas,Baxter,490,15,5,0,2020-10-14,36.28784385,-92.33782872
Arkansas,Benton,7348,60,102,0,2020-10-14,36.33644656,-94.25680817
Arkansas,Boone,899,12,27,1,2020-10-14,36.3084504,-93.09374925
Arkansas,Bradley,350,0,8,0,2020-10-14,33.46755808,-92.15980837
Arkansas,Calhoun,39,0,0,0,2020-10-14,33.55598792,-92.49974403
Arkansas,Carroll,893,14,12,0,2020-10-14,36.3403856,-93.54270261
Arkansas,Chicot,1022,4,22,0,2020-10-14,33.26458973,-91.29539209
Arkansas,Clark,437,8,5,0,2020-10-14,34.04613432,-93.17484713
Arkansas,Clay,396,12,11,0,2020-10-14,36.36826212,-90.4148172
Arkansas,Cleburne,399,4,14,0,2020-10-14,35.53864922,-92.02640019
Arkansas,Cleveland,198,2,12,0,2020-10-14,33.89723187,-92.18537045
Arkansas,Columbia,622,3,19,0,2020-10-14,33.21230701,-93.22642793
Arkansas,Conway,318,4,3,0,2020-10-14,35.26205537,-92.70506566
Arkansas,Craighead,3774,74,32,0,2020-10-14,35.83018283,-90.63235729
Arkansas,Crawford,1778,20,22,0,2020-10-14,35.58928601,-94.2446814
Arkansas,Crittenden,2098,21,51,0,2020-10-14,35.21247318,-90.30839406
Arkansas,Cross,518,3,19,0,2020-10-14,35.29631396,-90.77185818
Arkansas,Dallas,178,1,5,0,2020-10-14,33.97042763,-92.65167437
Arkansas,Desha,351,3,7,0,2020-10-14,33.83011025,-91.25500948
Arkansas,Drew,381,1,7,0,2020-10-14,33.59035001,-91.71777921
Arkansas,Faulkner,2991,28,27,0,2020-10-14,35.14719007,-92.33717519
Arkansas,Franklin,426,8,2,0,2020-10-14,35.51202821,-93.89299569
Arkansas,Fulton,242,13,8,0,2020-10-14,36.38177105,-91.81729127
Arkansas,Garland,2167,25,57,0,2020-10-14,34.57692074,-93.14921604
Arkansas,Grant,324,11,4,0,2020-10-14,34.29017991,-92.42320562
Arkansas,Greene,1149,27,15,0,2020-10-14,36.1173546,-90.55832668
Arkansas,Hempstead,480,11,5,0,2020-10-14,33.73325583,-93.66935133
Arkansas,Hot Spring,2066,9,30,0,2020-10-14,34.31709259,-92.95396325
Arkansas,Howard,527,3,12,0,2020-10-14,34.09007427,-93.9934871
Arkansas,Independence,1319,8,33,7,2020-10-14,35.74242707,-91.57001641
Arkansas,Izard,356,4,1,0,2020-10-14,36.09604046,-91.90847954
Arkansas,Jackson,572,24,5,0,2020-10-14,35.59802983,-91.21494602
Arkansas,Jefferson,3863,61,97,2,2020-10-14,34.26767081,-91.92619839
Arkansas,Johnson,925,8,9,0,2020-10-14,35.56759135,-93.46036368
Arkansas,Lafayette,141,2,3,0,2020-10-14,33.24116713,-93.60677071
Arkansas,Lawrence,640,27,13,0,2020-10-14,36.04188196,-91.10867198
Arkansas,Lee,1093,1,18,0,2020-10-14,34.78498904,-90.78383866
Arkansas,Lincoln,2157,7,17,0,2020-10-14,33.95317155,-91.74002806
Arkansas,Little River,402,2,29,0,2020-10-14,33.70375665,-94.23468591
Arkansas,Logan,516,8,2,0,2020-10-14,35.21413234,-93.71951016
Arkansas,Lonoke,1467,18,20,1,2020-10-14,34.75392199,-91.88742357
Arkansas,Madison,404,5,6,0,2020-10-14,36.01038185,-93.72524943
Arkansas,Marion,121,1,2,1,2020-10-14,36.26844485,-92.68451899
Arkansas,Miller,1067,19,13,0,2020-10-14,33.31403423,-93.89285258
Arkansas,Mississippi,1918,21,57,2,2020-10-14,35.76271485,-90.0519437
Arkansas,Monroe,187,3,0,0,2020-10-14,34.6815935,-91.20540287
Arkansas,Montgomery,175,-1,8,1,2020-10-14,34.53704874,-93.65824478
Arkansas,Nevada,257,1,14,0,2020-10-14,33.66340119,-93.30632432
Arkansas,Newton,278,2,19,0,2020-10-14,35.91947491,-93.21612969
Arkansas,Ouachita,307,6,7,0,2020-10-14,33.58839816,-92.87795984
Arkansas,Perry,120,1,0,0,2020-10-14,34.9459153,-92.94372564
Arkansas,Phillips,638,6,15,0,2020-10-14,34.43268455,-90.84800154
Arkansas,Pike,251,1,3,0,2020-10-14,34.16250414,-93.65789349
Arkansas,Poinsett,850,22,15,0,2020-10-14,35.57433534,-90.66268713
Arkansas,Polk,319,5,4,0,2020-10-14,34.48254879,-94.22728802
Arkansas,Pope,2450,31,36,0,2020-10-14,35.44871474,-93.03212219
Arkansas,Prairie,185,4,4,0,2020-10-14,34.83624419,-91.55162157
Arkansas,Pulaski,10727,124,188,2,2020-10-14,34.77054088,-92.31355101
Arkansas,Randolph,555,10,23,0,2020-10-14,36.3415714,-91.02455531
Arkansas,St. Francis,1634,8,9,1,2020-10-14,35.02201976,-90.74828138
Arkansas,Saline,2487,22,27,3,2020-10-14,34.64916145,-92.67583224
Arkansas,Scott,132,3,1,0,2020-10-14,34.85588887,-94.0632176
Arkansas,Searcy,169,2,1,0,2020-10-14,35.9109364,-92.69936482
Arkansas,Sebastian,4366,36,81,0,2020-10-14,35.19605503,-94.27162713
Arkansas,Sevier,1240,8,19,0,2020-10-14,33.99780401,-94.2424869
Arkansas,Sharp,286,1,9,0,2020-10-14,36.16258158,-91.47819342
Arkansas,Stone,388,1,19,0,2020-10-14,35.86251946,-92.15684085
Arkansas,Union,1028,4,47,0,2020-10-14,33.16887091,-92.59746952
Arkansas,Van Buren,191,1,3,0,2020-10-14,35.58095779,-92.51295036
Arkansas,Washington,10552,65,129,2,2020-10-14,35.976844,-94.21800746
Arkansas,White,1185,30,32,0,2020-10-14,35.25688493,-91.74908296
Arkansas,Woodruff,74,0,0,0,2020-10-14,35.18902527,-91.2439489
Arkansas,Yell,1299,5,30,0,2020-10-14,35.00292371,-93.41171338
Colorado,Adams,11085,123,244,1,2020-10-14,39.87432092,-104.3362578
Colorado,Alamosa,267,2,9,0,2020-10-14,37.57250606,-105.7885451
Colorado,Arapahoe,10665,93,376,1,2020-10-14,39.64977461,-104.3353617
Colorado,Archuleta,58,0,0,0,2020-10-14,37.19474156,-107.0476867
Colorado,Baca,23,4,0,0,2020-10-14,37.31940883,-102.5603223
Colorado,Bent,12,1,0,0,2020-10-14,37.95474293,-103.0720195
Colorado,Boulder,4850,25,82,0,2020-10-14,40.09313619,-105.3546767
Colorado,Chaffee,358,0,20,0,2020-10-14,38.74745778,-106.1926573
Colorado,Cheyenne,14,0,0,0,2020-10-14,38.82777431,-102.6032558
Colorado,Clear Creek,61,2,1,0,2020-10-14,39.68864463,-105.6463118
Colorado,Conejos,44,2,0,0,2020-10-14,37.201606,-106.1917488
Colorado,Costilla,33,0,1,0,2020-10-14,37.27732493,-105.4276548
Colorado,Crowley,77,0,1,0,2020-10-14,38.32608609,-103.7844965
Colorado,Custer,19,0,0,0,2020-10-14,38.10883162,-105.3683478
Colorado,Delta,194,0,4,0,2020-10-14,38.86246243,-107.8631342
Colorado,Dolores,3,0,0,0,2020-10-14,37.75208676,-108.5211585
Colorado,Douglas,3135,35,63,0,2020-10-14,39.33133796,-104.930001
Colorado,Eagle,1331,6,10,0,2020-10-14,39.62754308,-106.6933637
Colorado,Elbert,177,2,3,0,2020-10-14,39.28656773,-104.1358721
Colorado,El Paso,7908,63,187,1,2020-10-14,38.83240149,-104.5251411
Colorado,Fremont,275,2,1,0,2020-10-14,38.47362326,-105.4399667
Colorado,Garfield,1028,6,5,0,2020-10-14,39.59921777,-107.902708
Colorado,Gilpin,21,1,0,0,2020-10-14,39.85646523,-105.5252597
Colorado,Grand,118,2,1,0,2020-10-14,40.10603347,-106.1178042
Colorado,Gunnison,297,0,7,0,2020-10-14,38.66611652,-107.0320729
Colorado,Hinsdale,3,0,0,0,2020-10-14,37.82247444,-107.3004345
Colorado,Huerfano,27,0,2,0,2020-10-14,37.68473101,-104.9612585
Colorado,Jackson,9,0,0,0,2020-10-14,40.6659387,-106.3408905
Colorado,Jefferson,6806,52,296,1,2020-10-14,39.58635604,-105.2517692
Colorado,Kiowa,1,0,0,0,2020-10-14,38.43260896,-102.7392145
Colorado,Kit Carson,98,0,3,0,2020-10-14,39.30497777,-102.6022199
Colorado,Lake,112,2,0,0,2020-10-14,39.20278823,-106.3555697
Colorado,La Plata,302,1,2,0,2020-10-14,37.28632032,-107.8429014
Colorado,Larimer,3259,42,55,0,2020-10-14,40.66671597,-105.4625784
Colorado,Las Animas,30,2,0,0,2020-10-14,37.3153406,-104.0376458
Colorado,Lincoln,24,0,0,0,2020-10-14,38.98749519,-103.5136649
Colorado,Logan,1035,10,10,1,2020-10-14,40.7249637,-103.110817
Colorado,Mesa,837,14,8,1,2020-10-14,39.01787888,-108.469799
Colorado,Mineral,20,0,0,0,2020-10-14,37.66954283,-106.9281698
Colorado,Moffat,48,0,1,0,2020-10-14,40.61810999,-108.2070876
Colorado,Montezuma,172,0,5,0,2020-10-14,37.33859579,-108.5958857
Colorado,Montrose,405,1,13,0,2020-10-14,38.40214114,-108.2639022
Colorado,Morgan,788,-1,48,0,2020-10-14,40.2627981,-103.8093302
Colorado,Otero,113,0,6,0,2020-10-14,37.9014485,-103.7173385
Colorado,Ouray,32,0,1,0,2020-10-14,38.14717457,-107.7675136
Colorado,Park,65,1,1,0,2020-10-14,39.120926,-105.7182065
Colorado,Phillips,35,1,0,0,2020-10-14,40.59414277,-102.3577703
Colorado,Pitkin,250,2,2,0,2020-10-14,39.21720112,-106.9310027
Colorado,Prowers,99,1,0,0,2020-10-14,37.95544985,-102.3926052
Colorado,Pueblo,1439,33,39,1,2020-10-14,38.17359144,-104.5127437
Colorado,Rio Blanco,25,0,0,0,2020-10-14,39.97913541,-108.2179009
Colorado,Rio Grande,110,1,2,0,2020-10-14,37.5836865,-106.3847838
Colorado,Routt,172,1,8,0,2020-10-14,40.48596505,-106.9905548
Colorado,Saguache,116,0,2,0,2020-10-14,38.08054629,-106.282466
Colorado,San Juan,6,0,0,0,2020-10-14,37.76248981,-107.6763289
Colorado,San Miguel,97,0,0,0,2020-10-14,38.00450883,-108.4020725
Colorado,Sedgwick,16,0,1,0,2020-10-14,40.87595412,-102.3519227
Colorado,Summit,528,3,4,0,2020-10-14,39.63803232,-106.1150762
Colorado,Teller,184,0,4,0,2020-10-14,38.88133511,-105.1614893
Colorado,Washington,74,0,0,0,2020-10-14,39.97015535,-103.202587
Colorado,Weld,5227,30,155,0,2020-10-14,40.55499405,-104.3929621
Colorado,Yuma,158,1,1,0,2020-10-14,40.00346839,-102.4258673
Connecticut,Fairfield,21128,24,1427,1,2020-10-14,41.26809896,-73.3881171
Connecticut,Hartford,16010,61,1443,0,2020-10-14,41.80283011,-72.73103891
Connecticut,Litchfield,1956,4,142,1,2020-10-14,41.7937534,-73.2451475
Connecticut,Middlesex,1720,6,193,0,2020-10-14,41.45949668,-72.53714864
Connecticut,New Haven,15263,40,1119,0,2020-10-14,41.4080325,-72.93620426
Connecticut,New London,2918,13,129,2,2020-10-14,41.48896435,-72.10430976
Connecticut,Tolland,1535,1,67,0,2020-10-14,41.85853803,-72.3308481
Connecticut,Windham,1183,7,17,0,2020-10-14,41.82972709,-71.98182316
Delaware,Kent,3259,5,119,0,2020-10-14,39.08646628,-75.56884914
Delaware,New Castle,11787,40,329,1,2020-10-14,39.57992638,-75.64054974
Delaware,Sussex,7328,26,212,0,2020-10-14,38.66143781,-75.39031349
Florida,Alachua,9133,78,70,0,2020-10-14,29.67866525,-82.35928158
Florida,Baker,1642,17,16,0,2020-10-14,30.33060121,-82.28467476
Florida,Bay,6366,19,122,0,2020-10-14,30.26548745,-85.62122584
Florida,Bradford,1187,6,11,0,2020-10-14,29.95079741,-82.16611613
Florida,Brevard,10110,85,331,2,2020-10-14,28.29409504,-80.73091022
Florida,Broward,79876,265,1484,3,2020-10-14,26.15184651,-80.48725556
Florida,Calhoun,653,1,14,0,2020-10-14,30.40666734,-85.19394153
Florida,Charlotte,3287,22,150,1,2020-10-14,26.90131002,-81.92949121
Florida,Citrus,2983,23,124,3,2020-10-14,28.84804315,-82.47614748
Florida,Clay,5556,21,111,0,2020-10-14,29.98319144,-81.85609986
Florida,Collier,13382,52,239,0,2020-10-14,26.11091986,-81.34687065
Florida,Columbia,4034,13,68,2,2020-10-14,30.22509788,-82.62160164
Florida,DeSoto,1609,1,27,0,2020-10-14,27.18677893,-81.80941373
Florida,Dixie,860,6,11,0,2020-10-14,29.60631086,-83.15724673
Florida,Duval,32311,173,494,3,2020-10-14,30.33225875,-81.66976468
Florida,Escambia,12737,39,264,0,2020-10-14,30.67652764,-87.37284571
Florida,Flagler,1892,9,33,0,2020-10-14,29.45933576,-81.31508595
Florida,Franklin,676,2,4,0,2020-10-14,29.83791238,-84.82731662
Florida,Gadsden,2992,1,51,1,2020-10-14,30.57796289,-84.61915825
Florida,Gilchrist,531,3,17,0,2020-10-14,29.72856978,-82.79880657
Florida,Glades,581,1,6,0,2020-10-14,26.95635849,-81.18996211
Florida,Gulf,911,1,15,0,2020-10-14,29.93543004,-85.2427099
Florida,Hamilton,889,2,9,0,2020-10-14,30.49673973,-82.94998918
Florida,Hardee,1479,19,11,0,2020-10-14,27.49293939,-81.80956574
Florida,Hendry,2128,6,43,0,2020-10-14,26.55386945,-81.16469006
Florida,Hernando,3324,-28,149,0,2020-10-14,28.55364461,-82.42700204
Florida,Highlands,2398,22,100,0,2020-10-14,27.34254618,-81.34071957
Florida,Hillsborough,44652,192,720,1,2020-10-14,27.9276559,-82.32013172
Florida,Holmes,803,4,10,0,2020-10-14,30.86747479,-85.81319222
Florida,Indian River,3458,8,119,0,2020-10-14,27.69308961,-80.60556721
Florida,Jackson,2986,11,83,1,2020-10-14,30.7954597,-85.21500423
Florida,Jefferson,603,1,9,0,2020-10-14,30.43669112,-83.89442308
Florida,Lafayette,1253,2,15,0,2020-10-14,29.98484137,-83.18166636
Florida,Lake,8012,39,211,2,2020-10-14,28.76202069,-81.7125123
Florida,Lee,21489,51,485,1,2020-10-14,26.58410348,-81.88399313
Florida,Leon,11413,57,93,0,2020-10-14,30.45955727,-84.27491114
Florida,Levy,1089,6,10,0,2020-10-14,29.31829741,-82.74007147
Florida,Liberty,520,0,10,0,2020-10-14,30.23766008,-84.8829258
Florida,Madison,1047,4,24,0,2020-10-14,30.44396917,-83.47398594
Florida,Manatee,12270,42,310,3,2020-10-14,27.47196942,-82.31831044
Florida,Marion,10258,60,330,4,2020-10-14,29.21227113,-82.05803627
Florida,Martin,5102,13,151,0,2020-10-14,27.0772071,-80.43109784
Florida,Miami-Dade,176271,434,3485,20,2020-10-14,25.6112362,-80.55170587
Florida,Monroe,1979,8,24,0,2020-10-14,25.20904673,-81.07812416
Florida,Nassau,2297,15,50,0,2020-10-14,30.61037141,-81.80297522
Florida,Okaloosa,5491,40,125,1,2020-10-14,30.69143028,-86.59267105
Florida,Okeechobee,1650,7,35,1,2020-10-14,27.3863362,-80.88944347
Florida,Orange,42572,171,523,3,2020-10-14,28.51367621,-81.31799498
Florida,Osceola,13250,42,174,0,2020-10-14,28.06312234,-81.14882926
Florida,Palm Beach,48337,161,1465,4,2020-10-14,26.64676272,-80.46536002
Florida,Pasco,9989,70,219,0,2020-10-14,28.30810945,-82.40227529
Florida,Pinellas,23510,143,788,1,2020-10-14,27.93130349,-82.72239666
Florida,Polk,21354,74,563,2,2020-10-14,27.95027105,-81.69732947
Florida,Putnam,2229,15,46,0,2020-10-14,29.60779729,-81.74230285
Florida,St. Johns,5814,58,77,0,2020-10-14,29.90096506,-81.43589967
Florida,St. Lucie,8443,27,310,1,2020-10-14,27.37763908,-80.47106649
Florida,Santa Rosa,5616,31,84,2,2020-10-14,30.6934145,-87.02458128
Florida,Sarasota,8786,50,291,1,2020-10-14,27.18546175,-82.33174248
Florida,Seminole,9524,25,231,-1,2020-10-14,28.7158582,-81.24060348
Florida,Sumter,2700,26,77,0,2020-10-14,28.70181754,-82.0794267
Florida,Suwannee,2861,12,75,0,2020-10-14,30.19746066,-82.9909967
Florida,Taylor,1406,4,14,0,2020-10-14,30.04848048,-83.60445406
Florida,Union,1041,4,25,0,2020-10-14,30.04412971,-82.37497443
Florida,Volusia,11649,67,296,2,2020-10-14,29.05858895,-81.18263252
Florida,Wakulla,1209,8,11,0,2020-10-14,30.16548905,-84.39895211
Florida,Walton,2142,28,29,0,2020-10-14,30.64204028,-86.16935664
Florida,Washington,1124,3,24,0,2020-10-14,30.61359259,-85.66002461
Georgia,Appling,1109,1,34,0,2020-10-14,31.74847232,-82.28909114
Georgia,Atkinson,468,3,4,0,2020-10-14,31.29633502,-82.87545866
Georgia,Bacon,617,0,14,0,2020-10-14,31.55456473,-82.45936528
Georgia,Baker,85,0,6,0,2020-10-14,31.32669878,-84.44218806
Georgia,Baldwin,2219,17,62,0,2020-10-14,33.06882326,-83.24701748
Georgia,Banks,527,-1,8,0,2020-10-14,34.35607081,-83.49644388
Georgia,Barrow,2418,11,47,0,2020-10-14,33.99148694,-83.71436292
Georgia,Bartow,3219,41,91,0,2020-10-14,34.23732119,-84.83887523
Georgia,Ben Hill,837,2,29,0,2020-10-14,31.76095874,-83.22145359
Georgia,Berrien,471,-1,12,0,2020-10-14,31.27590016,-83.2252992
Georgia,Bibb,6371,36,187,-1,2020-10-14,32.80904227,-83.70489165
Georgia,Bleckley,474,7,21,0,2020-10-14,32.43829035,-83.33035166
Georgia,Brantley,375,1,11,0,2020-10-14,31.19576557,-81.97743999
Georgia,Brooks,535,1,26,0,2020-10-14,30.83922642,-83.58303423
Georgia,Bryan,1229,3,13,0,2020-10-14,32.00979311,-81.44002948
Georgia,Bulloch,2979,13,32,0,2020-10-14,32.39577406,-81.74811421
Georgia,Burke,862,3,11,0,2020-10-14,33.05917989,-81.99928721
Georgia,Butts,722,0,43,0,2020-10-14,33.2830945,-83.9543504
Georgia,Calhoun,258,2,9,0,2020-10-14,31.53169785,-84.62725131
Georgia,Camden,1363,4,16,0,2020-10-14,30.92951916,-81.66601818
Georgia,Candler,507,2,23,0,2020-10-14,32.40209349,-82.07702563
Georgia,Carroll,3045,13,74,0,2020-10-14,33.58138199,-85.07976677
Georgia,Catoosa,1304,12,19,0,2020-10-14,34.89872298,-85.13757014
Georgia,Charlton,645,0,9,0,2020-10-14,30.78371028,-82.13951596
Georgia,Chatham,8956,29,178,1,2020-10-14,32.00043026,-81.12489526
Georgia,Chattahoochee,1707,1,1,0,2020-10-14,32.34341231,-84.78809239
Georgia,Chattooga,851,7,26,0,2020-10-14,34.47197698,-85.34535662
Georgia,Cherokee,6571,53,97,0,2020-10-14,34.24393976,-84.47431861
Georgia,Clarke,5435,36,46,0,2020-10-14,33.95436462,-83.37124007
Georgia,Clay,122,0,3,0,2020-10-14,31.62221166,-84.97713865
Georgia,Clayton,7616,47,170,0,2020-10-14,33.54187245,-84.35594188
Georgia,Clinch,411,2,11,0,2020-10-14,30.91395822,-82.70432472
Georgia,Cobb,20838,159,442,0,2020-10-14,33.94243204,-84.5761255
Georgia,Coffee,2155,4,57,0,2020-10-14,31.54892966,-82.8549206
Georgia,Colquitt,2011,17,37,0,2020-10-14,31.18810588,-83.7677946
Georgia,Columbia,4027,12,62,0,2020-10-14,33.54534185,-82.263524
Georgia,Cook,566,2,15,0,2020-10-14,31.16068491,-83.42947229
Georgia,Coweta,2783,8,58,0,2020-10-14,33.35334302,-84.76129976
Georgia,Crawford,185,2,6,0,2020-10-14,32.71391813,-83.98061238
Georgia,Crisp,610,0,19,0,2020-10-14,31.92289565,-83.76811843
Georgia,Dade,310,4,5,0,2020-10-14,34.8549167,-85.50490424
Georgia,Dawson,867,7,9,0,2020-10-14,34.44244079,-84.16964071
Georgia,Decatur,1241,4,34,0,2020-10-14,30.87967778,-84.57619536
Georgia,DeKalb,19857,60,383,1,2020-10-14,33.76944049,-84.22396017
Georgia,Dodge,492,25,13,0,2020-10-14,32.17265114,-83.16948926
Georgia,Dooly,351,0,14,0,2020-10-14,32.15630737,-83.79746561
Georgia,Dougherty,3237,10,188,0,2020-10-14,31.53328528,-84.21722377
Georgia,Douglas,3877,13,71,0,2020-10-14,33.70291126,-84.77026156
Georgia,Early,520,1,33,0,2020-10-14,31.32155345,-84.90255207
Georgia,Echols,244,1,2,0,2020-10-14,30.71101099,-82.89687287
Georgia,Effingham,1625,12,28,0,2020-10-14,32.36616021,-81.34280942
Georgia,Elbert,730,6,8,0,2020-10-14,34.11302332,-82.83936148
Georgia,Emanuel,1142,5,35,1,2020-10-14,32.59221302,-82.30239915
Georgia,Evans,449,1,6,0,2020-10-14,32.15328841,-81.8870105
Georgia,Fannin,759,4,28,0,2020-10-14,34.86430205,-84.316964
Georgia,Fayette,1987,8,51,-1,2020-10-14,33.41357794,-84.49089434
Georgia,Floyd,3500,39,49,0,2020-10-14,34.26268279,-85.21577392
Georgia,Forsyth,4440,40,48,0,2020-10-14,34.22604035,-84.1231513
Georgia,Franklin,815,1,16,0,2020-10-14,34.37525597,-83.23159927
Georgia,Fulton,29329,55,597,3,2020-10-14,33.79216944,-84.46319413
Georgia,Gilmer,935,8,16,1,2020-10-14,34.69316688,-84.45802506
Georgia,Glascock,40,0,2,0,2020-10-14,33.22879932,-82.61297636
Georgia,Glynn,3572,0,98,0,2020-10-14,31.23279254,-81.53811412
Georgia,Gordon,2042,26,39,0,2020-10-14,34.50487351,-84.87296253
Georgia,Grady,833,2,23,0,2020-10-14,30.87454847,-84.23418364
Georgia,Greene,547,2,24,0,2020-10-14,33.5769205,-83.17139104
Georgia,Gwinnett,29157,142,427,2,2020-10-14,33.96044201,-84.02137802
Georgia,Habersham,1802,19,73,1,2020-10-14,34.63331566,-83.53094677
Georgia,Hall,10098,70,164,0,2020-10-14,34.32207823,-83.81896936
Georgia,Hancock,407,2,44,0,2020-10-14,33.2721566,-82.99766919
Georgia,Haralson,563,8,9,0,2020-10-14,33.79602175,-85.21005667
Georgia,Harris,826,3,25,0,2020-10-14,32.73709786,-84.90538572
Georgia,Hart,548,1,16,0,2020-10-14,34.34626973,-82.96567682
Georgia,Heard,204,0,6,0,2020-10-14,33.29686567,-85.12886832
Georgia,Henry,5723,24,106,0,2020-10-14,33.4533428,-84.1481466
Georgia,Houston,3346,23,86,0,2020-10-14,32.45802497,-83.66879087
Georgia,Irwin,343,1,6,0,2020-10-14,31.60213036,-83.27501387
Georgia,Jackson,2181,16,39,1,2020-10-14,34.13794553,-83.56814788
Georgia,Jasper,239,1,3,0,2020-10-14,33.31535543,-83.68844964
Georgia,Jeff Davis,754,0,22,0,2020-10-14,31.80405727,-82.6372487
Georgia,Jefferson,827,0,31,0,2020-10-14,33.05867328,-82.41609057
Georgia,Jenkins,457,0,31,0,2020-10-14,32.79248718,-81.96040187
Georgia,Johnson,434,1,22,0,2020-10-14,32.70211082,-82.66166794
Georgia,Jones,614,3,13,0,2020-10-14,33.02512137,-83.56019163
Georgia,Lamar,390,0,19,0,2020-10-14,33.07841647,-84.14263877
Georgia,Lanier,309,1,7,0,2020-10-14,31.0382857,-83.06472457
Georgia,Laurens,1863,11,82,0,2020-10-14,32.46325233,-82.92221316
Georgia,Lee,730,2,26,0,2020-10-14,31.7793306,-84.14324253
Georgia,Liberty,1172,3,24,0,2020-10-14,31.82588896,-81.49251135
Georgia,Lincoln,220,0,7,0,2020-10-14,33.79201475,-82.45024131
Georgia,Long,267,1,4,0,2020-10-14,31.75218791,-81.74952375
Georgia,Lowndes,4179,28,85,-1,2020-10-14,30.83568832,-83.27056716
Georgia,Lumpkin,987,12,14,0,2020-10-14,34.57286511,-84.00425681
Georgia,McDuffie,646,2,14,0,2020-10-14,33.47851918,-82.48252774
Georgia,McIntosh,300,1,7,0,2020-10-14,31.49683595,-81.40163426
Georgia,Macon,240,1,10,0,2020-10-14,32.35207048,-84.04234127
Georgia,Madison,743,4,11,1,2020-10-14,34.12920917,-83.21218732
Georgia,Marion,194,-1,9,0,2020-10-14,32.3483402,-84.52733571
Georgia,Meriwether,566,1,14,0,2020-10-14,33.04163534,-84.68859732
Georgia,Miller,295,0,2,0,2020-10-14,31.16568912,-84.73151117
Georgia,Mitchell,841,0,46,0,2020-10-14,31.22483255,-84.19381821
Georgia,Monroe,734,4,54,0,2020-10-14,33.014289,-83.92097166
Georgia,Montgomery,348,3,7,0,2020-10-14,32.17201038,-82.53527476
Georgia,Morgan,508,3,4,0,2020-10-14,33.59232073,-83.49129491
Georgia,Murray,902,6,8,0,2020-10-14,34.78897608,-84.74993177
Georgia,Muscogee,6230,12,173,0,2020-10-14,32.50931999,-84.87142262
Georgia,Newton,2733,15,91,0,2020-10-14,33.55514538,-83.8454714
Georgia,Oconee,811,5,27,0,2020-10-14,33.83749973,-83.43679568
Georgia,Oglethorpe,382,4,11,0,2020-10-14,33.8786296,-83.08278123
Georgia,Paulding,2979,22,59,0,2020-10-14,33.91969522,-84.86848792
Georgia,Peach,714,5,24,0,2020-10-14,32.56934316,-83.82937
Georgia,Pickens,663,2,9,0,2020-10-14,34.46589159,-84.46406611
Georgia,Pierce,636,1,23,0,2020-10-14,31.35928155,-82.21598442
Georgia,Pike,368,1,11,0,2020-10-14,33.09310242,-84.38790389
Georgia,Polk,1577,13,22,1,2020-10-14,34.00267074,-85.18677781
Georgia,Pulaski,320,0,22,0,2020-10-14,32.23334561,-83.4754996
Georgia,Putnam,753,1,27,0,2020-10-14,33.32056115,-83.37552891
Georgia,Quitman,38,0,1,0,2020-10-14,31.86728114,-85.01773177
Georgia,Rabun,402,0,11,0,2020-10-14,34.88389445,-83.40304637
Georgia,Randolph,338,0,29,0,2020-10-14,31.76622818,-84.75732369
Georgia,Richmond,7571,22,173,0,2020-10-14,33.35777107,-82.07026432
Georgia,Rockdale,1975,10,40,0,2020-10-14,33.65145002,-84.02202167
Georgia,Schley,107,0,2,0,2020-10-14,32.2654021,-84.31258912
Georgia,Screven,436,1,11,0,2020-10-14,32.74976524,-81.60779441
Georgia,Seminole,377,3,10,0,2020-10-14,30.93464824,-84.86823924
Georgia,Spalding,1442,10,62,0,2020-10-14,33.26310031,-84.28013991
Georgia,Stephens,1222,6,42,1,2020-10-14,34.55151201,-83.29405315
Georgia,Stewart,524,0,16,0,2020-10-14,32.07996777,-84.83208037
Georgia,Sumter,949,0,66,1,2020-10-14,32.03650571,-84.19821492
Georgia,Talbot,167,0,7,0,2020-10-14,32.69642758,-84.53351366
Georgia,Taliaferro,25,0,0,0,2020-10-14,33.56543317,-82.88136816
Georgia,Tattnall,876,4,11,0,2020-10-14,32.04785085,-82.05539188
Georgia,Taylor,224,2,12,0,2020-10-14,32.55792548,-84.25077141
Georgia,Telfair,416,5,22,0,2020-10-14,31.92829517,-82.93491155
Georgia,Terrell,335,0,32,0,2020-10-14,31.77527543,-84.44069698
Georgia,Thomas,1551,1,68,0,2020-10-14,30.86392347,-83.91847289
Georgia,Tift,1884,3,60,1,2020-10-14,31.45743864,-83.5236119
Georgia,Toombs,1423,6,54,0,2020-10-14,32.12059861,-82.32957247
Georgia,Towns,397,5,10,0,2020-10-14,34.91369188,-83.7410746
Georgia,Treutlen,283,2,11,0,2020-10-14,32.40422134,-82.56904553
Georgia,Troup,2931,18,103,0,2020-10-14,33.03349196,-85.02812115
Georgia,Turner,328,1,24,0,2020-10-14,31.71612656,-83.62069378
Georgia,Twiggs,206,1,9,0,2020-10-14,32.67435595,-83.43078662
Georgia,Union,848,4,23,0,2020-10-14,34.82995757,-83.98967069
Georgia,Upson,828,5,68,1,2020-10-14,32.87920671,-84.30024826
Georgia,Walker,1702,23,42,1,2020-10-14,34.73376362,-85.30165174
Georgia,Walton,1999,15,63,0,2020-10-14,33.78017694,-83.73552314
Georgia,Ware,1615,11,61,0,2020-10-14,31.05449097,-82.42224148
Georgia,Warren,163,1,5,0,2020-10-14,33.41146451,-82.67795848
Georgia,Washington,713,3,11,0,2020-10-14,32.96711864,-82.79357039
Georgia,Wayne,1187,2,29,0,2020-10-14,31.5521809,-81.91894878
Georgia,Webster,44,0,2,0,2020-10-14,32.04066113,-84.54742852
Georgia,Wheeler,356,0,13,0,2020-10-14,32.12009104,-82.72574721
Georgia,White,967,6,22,0,2020-10-14,34.64624278,-83.74905525
Georgia,Whitfield,4942,27,63,1,2020-10-14,34.80987459,-84.96093476
Georgia,Wilcox,251,1,25,0,2020-10-14,31.97496928,-83.43438555
Georgia,Wilkes,272,0,6,0,2020-10-14,33.78290391,-82.74286107
Georgia,Wilkinson,356,0,18,0,2020-10-14,32.80291082,-83.17140684
Georgia,Worth,578,2,32,0,2020-10-14,31.55162306,-83.85090513
Idaho,Ada,14706,102,156,0,2020-10-14,43.4526575,-116.2415516
Idaho,Adams,31,1,2,0,2020-10-14,44.89333571,-116.4545247
Idaho,Bannock,1505,26,8,0,2020-10-14,42.67002716,-112.2233311
Idaho,Bear Lake,53,0,1,0,2020-10-14,42.28269683,-111.3289238
Idaho,Benewah,162,0,3,0,2020-10-14,47.21754179,-116.6586851
Idaho,Bingham,1175,17,10,0,2020-10-14,43.2167288,-112.3978437
Idaho,Blaine,781,6,6,0,2020-10-14,43.4085812,-113.9752658
Idaho,Boise,74,0,2,0,2020-10-14,43.98829931,-115.7309284
Idaho,Bonner,413,9,1,1,2020-10-14,48.29996017,-116.6017932
Idaho,Bonneville,3560,34,22,1,2020-10-14,43.38713372,-111.6161537
Idaho,Boundary,76,5,1,0,2020-10-14,48.76684761,-116.4630179
Idaho,Butte,57,6,0,0,2020-10-14,43.72592209,-113.1735463
Idaho,Camas,38,0,0,0,2020-10-14,43.46665742,-114.8065892
Idaho,Canyon,8940,68,104,0,2020-10-14,43.61970148,-116.7095499
Idaho,Caribou,157,1,2,0,2020-10-14,42.77149116,-111.5597683
Idaho,Cassia,1018,34,8,0,2020-10-14,42.28347888,-113.6012409
Idaho,Clark,40,1,0,0,2020-10-14,44.28496071,-112.3505704
Idaho,Clearwater,112,4,0,0,2020-10-14,46.67459924,-115.6622393
Idaho,Custer,85,6,1,0,2020-10-14,44.24186819,-114.2855494
Idaho,Elmore,425,5,4,0,2020-10-14,43.3507101,-115.4701578
Idaho,Franklin,207,4,1,0,2020-10-14,42.18332217,-111.8149666
Idaho,Fremont,323,16,3,0,2020-10-14,44.22800938,-111.4809943
Idaho,Gem,373,10,4,0,2020-10-14,44.06482372,-116.398376
Idaho,Gooding,395,4,2,0,2020-10-14,42.96927962,-114.8108306
Idaho,Idaho,266,6,0,0,2020-10-14,45.84721541,-115.4634436
Idaho,Jefferson,789,19,3,0,2020-10-14,43.82078483,-112.3131749
Idaho,Jerome,903,5,7,0,2020-10-14,42.68891267,-114.2655033
Idaho,Kootenai,3179,74,45,1,2020-10-14,47.67282258,-116.7020872
Idaho,Latah,768,20,0,0,2020-10-14,46.81587887,-116.7113698
Idaho,Lemhi,149,6,0,0,2020-10-14,44.9438088,-113.9309747
Idaho,Lewis,55,2,2,0,2020-10-14,46.23315327,-116.434146
Idaho,Lincoln,122,5,0,0,2020-10-14,43.0012336,-114.1358773
Idaho,Madison,1736,51,2,0,2020-10-14,43.78141028,-111.6538474
Idaho,Minidoka,930,18,8,0,2020-10-14,42.85518524,-113.6357257
Idaho,Nez Perce,565,11,24,0,2020-10-14,46.32638236,-116.7500975
Idaho,Oneida,29,0,0,0,2020-10-14,42.1949428,-112.5407838
Idaho,Owyhee,360,2,5,0,2020-10-14,42.58016894,-116.1693871
Idaho,Payette,1028,7,9,0,2020-10-14,44.00545243,-116.7647695
Idaho,Power,309,1,1,0,2020-10-14,42.69254894,-112.8395742
Idaho,Shoshone,222,2,19,1,2020-10-14,47.35364087,-115.8916749
Idaho,Teton,245,9,1,0,2020-10-14,43.75303583,-111.2056773
Idaho,Twin Falls,3014,44,41,0,2020-10-14,42.35440512,-114.6685381
Idaho,Valley,107,2,1,0,2020-10-14,44.76728382,-115.5676773
Idaho,Washington,410,2,7,0,2020-10-14,44.45275475,-116.7847688
Illinois,Adams,1458,26,13,2,2020-10-14,39.98815591,-91.18786813
Illinois,Alexander,102,1,1,0,2020-10-14,37.18049267,-89.32910838
Illinois,Bond,405,13,9,0,2020-10-14,38.88829622,-89.43534887
Illinois,Boone,1491,27,24,0,2020-10-14,42.32359279,-88.82345779
Illinois,Brown,82,2,0,0,2020-10-14,39.96209138,-90.75068024
Illinois,Bureau,799,1,15,0,2020-10-14,41.40385234,-89.5283051
Illinois,Calhoun,66,0,0,0,2020-10-14,39.16840183,-90.66330078
Illinois,Carroll,293,6,6,0,2020-10-14,42.06823429,-89.93395545
Illinois,Cass,435,1,11,0,2020-10-14,39.96991073,-90.24734436
Illinois,Champaign,5525,91,27,0,2020-10-14,40.13919438,-88.20046615
Illinois,Christian,724,12,22,1,2020-10-14,39.54581621,-89.27780482
Illinois,Clark,240,6,4,0,2020-10-14,39.33425789,-87.78705622
Illinois,Clay,259,7,6,0,2020-10-14,38.75388572,-88.48914513
Illinois,Clinton,1452,14,23,0,2020-10-14,38.60704876,-89.42385254
Illinois,Coles,1676,14,38,1,2020-10-14,39.51949084,-88.22358557
Illinois,Cook,157573,847,5321,6,2020-10-14,41.84144849,-87.81658794
Illinois,Crawford,589,13,6,0,2020-10-14,39.0032229,-87.75954624
Illinois,Cumberland,241,4,5,0,2020-10-14,39.27432424,-88.2401158
Illinois,DeKalb,1941,29,42,1,2020-10-14,41.89373302,-88.76958483
Illinois,De Witt,209,5,3,0,2020-10-14,40.17514519,-88.90959682
Illinois,Douglas,420,22,8,0,2020-10-14,39.76768052,-88.21854195
Illinois,DuPage,19767,127,588,3,2020-10-14,41.85116968,-88.08642662
Illinois,Edgar,133,0,8,0,2020-10-14,39.6809186,-87.74759563
Illinois,Edwards,84,1,0,0,2020-10-14,38.41353228,-88.05720863
Illinois,Effingham,1014,19,3,0,2020-10-14,39.05935711,-88.58969584
Illinois,Fayette,574,24,15,0,2020-10-14,39.00072038,-89.02452658
Illinois,Ford,159,2,7,1,2020-10-14,40.59706922,-88.22350769
Illinois,Franklin,711,13,6,1,2020-10-14,37.99189086,-88.92567818
Illinois,Fulton,321,20,0,0,2020-10-14,40.47289135,-90.20862357
Illinois,Gallatin,94,5,2,0,2020-10-14,37.76430935,-88.22953869
Illinois,Greene,250,2,15,0,2020-10-14,39.35907414,-90.388865
Illinois,Grundy,808,13,7,0,2020-10-14,41.28569601,-88.41905692
Illinois,Hamilton,97,6,2,0,2020-10-14,38.08163641,-88.53883373
Illinois,Hancock,259,5,3,0,2020-10-14,40.40423981,-91.16313899
Illinois,Hardin,47,1,0,0,2020-10-14,37.51810645,-88.26873022
Illinois,Henderson,93,3,0,0,2020-10-14,40.81908672,-90.92491462
Illinois,Henry,764,4,5,0,2020-10-14,41.3533994,-90.13296166
Illinois,Iroquois,431,9,19,0,2020-10-14,40.74717633,-87.82466784
Illinois,Jackson,1367,11,24,0,2020-10-14,37.78595185,-89.38232563
Illinois,Jasper,231,3,10,0,2020-10-14,39.01054275,-88.15437049
Illinois,Jefferson,804,8,40,1,2020-10-14,38.29980057,-88.9240025
Illinois,Jersey,435,4,21,1,2020-10-14,39.08869046,-90.35393073
Illinois,Jo Daviess,374,5,3,1,2020-10-14,42.36542373,-90.21094405
Illinois,Johnson,279,14,0,0,2020-10-14,37.45939802,-88.88165419
Illinois,Kane,14558,122,336,1,2020-10-14,41.93842729,-88.42861412
Illinois,Kankakee,3019,20,78,0,2020-10-14,41.13746989,-87.86205334
Illinois,Kendall,2315,10,26,0,2020-10-14,41.59081014,-88.42869583
Illinois,Knox,937,28,8,3,2020-10-14,40.93148779,-90.2133034
Illinois,Lake,18633,112,499,0,2020-10-14,42.3224907,-88.00367925
Illinois,LaSalle,2041,37,58,0,2020-10-14,41.3442613,-88.88633881
Illinois,Lawrence,293,5,6,0,2020-10-14,38.71987914,-87.72884035
Illinois,Lee,525,8,1,0,2020-10-14,41.74583951,-89.29977132
Illinois,Livingston,489,4,9,0,2020-10-14,40.89188292,-88.55784752
Illinois,Logan,518,5,4,1,2020-10-14,40.12581572,-89.36638784
Illinois,McDonough,577,1,15,0,2020-10-14,40.45674722,-90.67775541
Illinois,McHenry,5248,46,119,0,2020-10-14,42.32451172,-88.45248227
Illinois,McLean,3746,34,29,0,2020-10-14,40.48996987,-88.84621113
Illinois,Macon,2190,75,48,0,2020-10-14,39.86064913,-88.96342505
Illinois,Macoupin,664,10,8,0,2020-10-14,39.26119767,-89.92424028
Illinois,Madison,6499,73,150,2,2020-10-14,38.83042506,-89.90422563
Illinois,Marion,774,17,8,1,2020-10-14,38.64963204,-88.91899208
Illinois,Marshall,129,2,3,2,2020-10-14,41.0327901,-89.34510444
Illinois,Mason,215,6,1,0,2020-10-14,40.23917274,-89.91824452
Illinois,Massac,133,2,2,0,2020-10-14,37.22078441,-88.71036614
Illinois,Menard,152,0,1,0,2020-10-14,40.02742725,-89.80246001
Illinois,Mercer,191,8,6,0,2020-10-14,41.20596782,-90.74290052
Illinois,Monroe,810,2,27,0,2020-10-14,38.27594376,-90.17761038
Illinois,Montgomery,496,14,14,0,2020-10-14,39.23198845,-89.47809254
Illinois,Morgan,762,5,24,0,2020-10-14,39.71654544,-90.20255104
Illinois,Moultrie,295,15,4,0,2020-10-14,39.64187451,-88.62099969
Illinois,Ogle,950,24,6,0,2020-10-14,42.04165196,-89.32184679
Illinois,Peoria,4030,45,58,2,2020-10-14,40.78702156,-89.76078901
Illinois,Perry,382,5,16,0,2020-10-14,38.08510853,-89.36856219
Illinois,Piatt,183,6,0,0,2020-10-14,40.01360584,-88.59319339
Illinois,Pike,207,6,2,0,2020-10-14,39.62265059,-90.8877017
Illinois,Pope,36,0,1,0,2020-10-14,37.41391284,-88.56152109
Illinois,Pulaski,218,6,1,0,2020-10-14,37.22631423,-89.13085001
Illinois,Putnam,75,0,0,0,2020-10-14,41.2013541,-89.2869272
Illinois,Randolph,1075,6,14,1,2020-10-14,38.05095369,-89.82512254
Illinois,Richland,296,2,11,0,2020-10-14,38.71240969,-88.08475366
Illinois,Rock Island,3446,35,85,2,2020-10-14,41.46613806,-90.57042164
Illinois,St. Clair,7330,36,207,2,2020-10-14,38.46996033,-89.93063427
Illinois,Saline,457,14,6,0,2020-10-14,37.75332999,-88.54119706
Illinois,Sangamon,3154,102,53,3,2020-10-14,39.75836914,-89.65872023
Illinois,Schuyler,74,1,1,0,2020-10-14,40.1571798,-90.61114163
Illinois,Scott,84,0,0,0,2020-10-14,39.6429169,-90.47814431
Illinois,Shelby,533,21,7,0,2020-10-14,39.39133527,-88.80611122
Illinois,Stark,72,3,2,0,2020-10-14,41.09309773,-89.79745866
Illinois,Stephenson,712,5,7,0,2020-10-14,42.35129217,-89.662598
Illinois,Tazewell,2215,51,44,0,2020-10-14,40.50716185,-89.51404662
Illinois,Union,683,15,25,0,2020-10-14,37.47119609,-89.25548938
Illinois,Vermilion,1361,38,7,1,2020-10-14,40.18417171,-87.73384359
Illinois,Wabash,189,4,4,0,2020-10-14,38.44272901,-87.84922065
Illinois,Warren,414,15,6,0,2020-10-14,40.84925021,-90.6147432
Illinois,Washington,265,3,1,0,2020-10-14,38.35309213,-89.40982703
Illinois,Wayne,397,7,7,0,2020-10-14,38.42955355,-88.42586459
Illinois,White,210,0,1,0,2020-10-14,38.08706198,-88.17657461
Illinois,Whiteside,1040,21,21,0,2020-10-14,41.75509713,-89.91556058
Illinois,Will,15888,122,408,4,2020-10-14,41.44619267,-87.97862712
Illinois,Williamson,1601,26,56,0,2020-10-14,37.73033511,-88.92994027
Illinois,Winnebago,8207,144,161,3,2020-10-14,42.33641854,-89.16085327
Illinois,Woodford,496,2,10,1,2020-10-14,40.78579374,-89.20973757
Iowa,Adair,108,5,1,0,2020-10-14,41.33075609,-94.47105874
Iowa,Adams,59,4,0,0,2020-10-14,41.02903567,-94.69932645
Iowa,Allamakee,302,5,8,0,2020-10-14,43.28383218,-91.37860922
Iowa,Appanoose,190,4,3,0,2020-10-14,40.74324454,-92.86865906
Iowa,Audubon,122,4,1,0,2020-10-14,41.6844628,-94.90581859
Iowa,Benton,451,23,1,0,2020-10-14,42.08011739,-92.06463573
Iowa,Black Hawk,5005,41,96,0,2020-10-14,42.4704581,-92.30524729
Iowa,Boone,631,9,8,0,2020-10-14,42.03657094,-93.9313999
Iowa,Bremer,583,7,7,0,2020-10-14,42.77461496,-92.31795937
Iowa,Buchanan,366,9,3,0,2020-10-14,42.4709188,-91.83510825
Iowa,Buena Vista,2161,6,12,0,2020-10-14,42.73545875,-95.15100162
Iowa,Butler,326,3,2,0,2020-10-14,42.73172833,-92.79015971
Iowa,Calhoun,249,7,3,0,2020-10-14,42.38521079,-94.64046046
Iowa,Carroll,956,20,7,1,2020-10-14,42.03617207,-94.86032705
Iowa,Cass,252,7,2,0,2020-10-14,41.33149454,-94.92792482
Iowa,Cedar,320,7,5,0,2020-10-14,41.77233777,-91.13246684
Iowa,Cerro Gordo,1201,10,23,0,2020-10-14,43.08177563,-93.2612239
Iowa,Cherokee,345,5,2,0,2020-10-14,42.73538914,-95.62389402
Iowa,Chickasaw,313,2,1,0,2020-10-14,43.06001295,-92.31773347
Iowa,Clarke,297,2,3,0,2020-10-14,41.02868181,-93.78499767
Iowa,Clay,449,7,4,0,2020-10-14,43.08247182,-95.15096481
Iowa,Clayton,328,6,3,0,2020-10-14,42.84443388,-91.34133693
Iowa,Clinton,1306,15,25,0,2020-10-14,41.89981633,-90.53275096
Iowa,Crawford,1269,13,12,1,2020-10-14,42.03718237,-95.3819718
Iowa,Dallas,3189,40,42,1,2020-10-14,41.68560356,-94.04127625
Iowa,Davis,150,5,4,0,2020-10-14,40.74773536,-92.41005468
Iowa,Decatur,112,3,0,0,2020-10-14,40.73742757,-93.78645949
Iowa,Delaware,617,23,8,1,2020-10-14,42.47104597,-91.3664492
Iowa,Des Moines,1081,61,9,0,2020-10-14,40.92012606,-91.18326592
Iowa,Dickinson,650,14,7,0,2020-10-14,43.37787725,-95.1510206
Iowa,Dubuque,4341,74,50,0,2020-10-14,42.46815349,-90.88181925
Iowa,Emmet,364,6,14,1,2020-10-14,43.37782951,-94.67858943
Iowa,Fayette,309,11,2,0,2020-10-14,42.86271799,-91.8441231
Iowa,Floyd,400,3,11,1,2020-10-14,43.0600053,-92.78940097
Iowa,Franklin,364,1,18,0,2020-10-14,42.73270384,-93.26256925
Iowa,Fremont,168,2,0,0,2020-10-14,40.7454272,-95.60129045
Iowa,Greene,157,3,0,0,2020-10-14,42.03614551,-94.39658081
Iowa,Grundy,262,2,4,0,2020-10-14,42.40183723,-92.78829551
Iowa,Guthrie,349,6,14,0,2020-10-14,41.68378965,-94.50111014
Iowa,Hamilton,420,14,3,0,2020-10-14,42.38382428,-93.70197703
Iowa,Hancock,253,1,4,0,2020-10-14,43.08178477,-93.73454884
Iowa,Hardin,392,12,5,1,2020-10-14,42.38353877,-93.23654611
Iowa,Harrison,510,38,6,0,2020-10-14,41.68330137,-95.81558439
Iowa,Henry,937,15,5,0,2020-10-14,40.98767962,-91.54436349
Iowa,Howard,223,3,8,0,2020-10-14,43.35671042,-92.31702714
Iowa,Humboldt,268,11,3,0,2020-10-14,42.7764426,-94.20722537
Iowa,Ida,170,3,2,0,2020-10-14,42.38696136,-95.51355387
Iowa,Iowa,354,18,2,0,2020-10-14,41.68630265,-92.0643373
Iowa,Jackson,468,7,3,0,2020-10-14,42.17178824,-90.57354837
Iowa,Jasper,991,10,35,0,2020-10-14,41.68576082,-93.05567785
Iowa,Jefferson,179,2,1,0,2020-10-14,41.03192394,-91.94849466
Iowa,Johnson,5530,26,30,0,2020-10-14,41.67169354,-91.58754744
Iowa,Jones,368,6,3,0,2020-10-14,42.12118609,-91.13139641
Iowa,Keokuk,134,1,1,0,2020-10-14,41.33649833,-92.1785067
Iowa,Kossuth,396,12,0,0,2020-10-14,43.20405458,-94.20691791
Iowa,Lee,803,22,9,0,2020-10-14,40.64181461,-91.48183025
Iowa,Linn,4820,75,122,0,2020-10-14,42.07923082,-91.59809485
Iowa,Louisa,475,5,15,0,2020-10-14,41.21842119,-91.26102611
Iowa,Lucas,178,5,6,0,2020-10-14,41.02958964,-93.32780803
Iowa,Lyon,492,13,5,0,2020-10-14,43.38107862,-96.20926845
Iowa,Madison,321,4,2,0,2020-10-14,41.33081904,-94.01554631
Iowa,Mahaska,556,12,22,1,2020-10-14,41.33521503,-92.64083907
Iowa,Marion,887,8,10,1,2020-10-14,41.33445101,-93.09934783
Iowa,Marshall,1883,8,36,0,2020-10-14,42.03586837,-92.9990819
Iowa,Mills,302,12,1,0,2020-10-14,41.03299766,-95.61920963
Iowa,Mitchell,211,0,0,0,2020-10-14,43.35638371,-92.78887719
Iowa,Monona,209,4,1,0,2020-10-14,42.05220391,-95.95743843
Iowa,Monroe,224,13,11,0,2020-10-14,41.02988815,-92.8690667
Iowa,Montgomery,139,1,5,0,2020-10-14,41.03018714,-95.15642896
Iowa,Muscatine,1254,15,57,0,2020-10-14,41.48370744,-91.1121697
Iowa,O'Brien,536,8,9,0,2020-10-14,43.08310673,-95.62474482
Iowa,Osceola,231,13,0,0,2020-10-14,43.37824276,-95.62422844
Iowa,Page,304,5,0,0,2020-10-14,40.7393172,-95.1497813
Iowa,Palo Alto,267,3,1,0,2020-10-14,43.08193849,-94.67824621
Iowa,Plymouth,1447,24,24,0,2020-10-14,42.737633,-96.21366621
Iowa,Pocahontas,195,1,2,0,2020-10-14,42.73420133,-94.67862564
Iowa,Polk,17467,134,278,1,2020-10-14,41.68679484,-93.57767461
Iowa,Pottawattamie,2740,40,43,0,2020-10-14,41.33640314,-95.53907776
Iowa,Poweshiek,400,6,11,0,2020-10-14,41.68625425,-92.53155731
Iowa,Ringgold,82,13,2,0,2020-10-14,40.73518949,-94.24368535
Iowa,Sac,340,3,2,1,2020-10-14,42.38624071,-95.10547892
Iowa,Scott,3764,95,32,0,2020-10-14,41.63935978,-90.61959493
Iowa,Shelby,325,9,1,0,2020-10-14,41.6850066,-95.31015553
Iowa,Sioux,2192,55,11,1,2020-10-14,43.08221074,-96.1767568
Iowa,Story,3760,23,17,0,2020-10-14,42.03621213,-93.46499005
Iowa,Tama,871,9,35,0,2020-10-14,42.07991767,-92.53266945
Iowa,Taylor,205,2,2,1,2020-10-14,40.73710579,-94.69778563
Iowa,Union,198,8,3,0,2020-10-14,41.0277278,-94.24234847
Iowa,Van Buren,142,-1,2,0,2020-10-14,40.75326764,-91.95017958
Iowa,Wapello,1443,3,60,0,2020-10-14,41.03064984,-92.40954728
Iowa,Warren,1095,16,6,0,2020-10-14,41.33559454,-93.56007641
Iowa,Washington,579,10,11,0,2020-10-14,41.33577126,-91.71725711
Iowa,Wayne,109,0,3,0,2020-10-14,40.73969028,-93.32752197
Iowa,Webster,1622,32,14,0,2020-10-14,42.42853483,-94.17987389
Iowa,Winnebago,383,11,16,0,2020-10-14,43.37751174,-93.73407298
Iowa,Winneshiek,402,5,9,0,2020-10-14,43.29094334,-91.84422722
Iowa,Woodbury,6553,95,82,1,2020-10-14,42.38979414,-96.0459439
Iowa,Worth,121,2,0,0,2020-10-14,43.37750768,-93.26087602
Iowa,Wright,671,6,1,0,2020-10-14,42.73305373,-93.73515113
Kansas,Allen,104,7,1,0,2020-10-14,37.88582951,-95.30030847
Kansas,Anderson,113,27,0,0,2020-10-14,38.21413251,-95.29272815
Kansas,Atchison,460,23,4,0,2020-10-14,39.53185661,-95.30870026
Kansas,Barber,24,1,0,0,2020-10-14,37.2288586,-98.68460053
Kansas,Barton,645,0,7,0,2020-10-14,38.47889676,-98.75636726
Kansas,Bourbon,267,52,3,0,2020-10-14,37.85508555,-94.84865997
Kansas,Brown,173,0,5,0,2020-10-14,39.82652589,-95.56421698
Kansas,Butler,744,14,3,0,2020-10-14,37.78134351,-96.83878537
Kansas,Chase,87,0,2,0,2020-10-14,38.30292938,-96.59563862
Kansas,Chautauqua,22,0,0,0,2020-10-14,37.14994405,-96.2454192
Kansas,Cherokee,578,0,7,0,2020-10-14,37.16928494,-94.8462897
Kansas,Cheyenne,88,3,5,2,2020-10-14,39.78580976,-101.7318201
Kansas,Clark,58,1,1,0,2020-10-14,37.23577007,-99.81883015
Kansas,Clay,63,0,2,0,2020-10-14,39.34948772,-97.16518128
Kansas,Cloud,94,7,1,0,2020-10-14,39.48028352,-97.64925343
Kansas,Coffey,136,0,9,0,2020-10-14,38.2365018,-95.73379515
Kansas,Comanche,19,0,0,0,2020-10-14,37.1911452,-99.27113247
Kansas,Cowley,440,10,9,0,2020-10-14,37.23781842,-96.83776647
Kansas,Crawford,1131,0,8,0,2020-10-14,37.50675523,-94.85245778
Kansas,Decatur,41,0,1,0,2020-10-14,39.78468441,-100.4594081
Kansas,Dickinson,260,5,3,0,2020-10-14,38.86600962,-97.15532383
Kansas,Doniphan,141,0,0,0,2020-10-14,39.79067154,-95.14056866
Kansas,Douglas,2663,18,14,0,2020-10-14,38.88503636,-95.2925121
Kansas,Edwards,60,0,0,0,2020-10-14,37.88735543,-99.31263309
Kansas,Elk,13,0,0,0,2020-10-14,37.45338105,-96.24369667
Kansas,Ellis,1239,24,14,1,2020-10-14,38.91458712,-99.31751551
Kansas,Ellsworth,133,3,0,0,2020-10-14,38.69677695,-98.20462799
Kansas,Finney,2525,51,14,0,2020-10-14,38.04340344,-100.7381938
Kansas,Ford,3073,52,13,0,2020-10-14,37.69200114,-99.88825298
Kansas,Franklin,471,9,3,0,2020-10-14,38.56443815,-95.28644341
Kansas,Geary,346,8,4,0,2020-10-14,38.99871131,-96.7577178
Kansas,Gove,136,0,2,0,2020-10-14,38.91588178,-100.4829321
Kansas,Graham,56,0,1,0,2020-10-14,39.34987223,-99.88332493
Kansas,Grant,371,5,8,0,2020-10-14,37.56227336,-101.3079758
Kansas,Gray,181,0,0,0,2020-10-14,37.73836671,-100.4369088
Kansas,Greeley,22,0,0,0,2020-10-14,38.4808095,-101.8061079
Kansas,Greenwood,66,2,0,0,2020-10-14,37.8774388,-96.23250453
Kansas,Hamilton,48,1,0,0,2020-10-14,37.99978709,-101.7921066
Kansas,Harper,126,0,2,0,2020-10-14,37.19175361,-98.07578384
Kansas,Harvey,461,20,7,0,2020-10-14,38.04293782,-97.42747573
Kansas,Haskell,103,0,1,0,2020-10-14,37.5620394,-100.8710738
Kansas,Hodgeman,30,0,0,0,2020-10-14,38.08780079,-99.89829881
Kansas,Jackson,277,0,3,0,2020-10-14,39.41673394,-95.79356799
Kansas,Jefferson,237,0,4,0,2020-10-14,39.2347941,-95.38289232
Kansas,Jewell,20,0,1,0,2020-10-14,39.78470589,-98.21820662
Kansas,Johnson,12562,110,171,3,2020-10-14,38.88548175,-94.82250877
Kansas,Kearny,120,6,3,1,2020-10-14,38.00017981,-101.321681
Kansas,Kingman,107,3,3,1,2020-10-14,37.55909527,-98.13638678
Kansas,Kiowa,43,0,0,0,2020-10-14,37.55848695,-99.2856537
Kansas,Labette,310,23,5,0,2020-10-14,37.19113093,-95.29849679
Kansas,Lane,16,0,0,0,2020-10-14,38.48119447,-100.4660754
Kansas,Leavenworth,2386,9,17,2,2020-10-14,39.20183497,-95.03620809
Kansas,Lincoln,15,0,1,0,2020-10-14,39.04549684,-98.20756994
Kansas,Linn,109,16,1,1,2020-10-14,38.21267844,-94.84254089
Kansas,Logan,68,0,0,0,2020-10-14,38.91735806,-101.148475
Kansas,Lyon,1226,11,37,0,2020-10-14,38.45576156,-96.15275715
Kansas,McPherson,330,0,5,0,2020-10-14,38.39184858,-97.64769869
Kansas,Marion,99,2,1,0,2020-10-14,38.35855394,-97.0985251
Kansas,Marshall,56,3,0,0,2020-10-14,39.78359669,-96.52278974
Kansas,Meade,137,0,1,0,2020-10-14,37.23859987,-100.364831
Kansas,Miami,474,31,2,1,2020-10-14,38.56383358,-94.83832189
Kansas,Mitchell,57,0,0,0,2020-10-14,39.39331582,-98.20906732
Kansas,Montgomery,540,0,6,0,2020-10-14,37.19236568,-95.74329258
Kansas,Morris,48,2,0,0,2020-10-14,38.68827511,-96.65128437
Kansas,Morton,32,0,2,0,2020-10-14,37.19141121,-101.7992519
Kansas,Nemaha,215,0,1,0,2020-10-14,39.78345387,-96.01392079
Kansas,Neosho,201,8,0,0,2020-10-14,37.55862897,-95.30670046
Kansas,Ness,107,0,8,0,2020-10-14,38.47974157,-99.91547333
Kansas,Norton,204,5,1,0,2020-10-14,39.78443827,-99.90286639
Kansas,Osage,132,3,1,1,2020-10-14,38.65235984,-95.72707998
Kansas,Osborne,18,0,0,0,2020-10-14,39.3503437,-98.76753828
Kansas,Ottawa,97,3,0,0,2020-10-14,39.13237408,-97.65020313
Kansas,Pawnee,406,9,1,0,2020-10-14,38.18108732,-99.23692334
Kansas,Phillips,149,2,9,0,2020-10-14,39.78465501,-99.34668865
Kansas,Pottawatomie,307,0,0,0,2020-10-14,39.37925655,-96.34564657
Kansas,Pratt,96,4,0,0,2020-10-14,37.64780729,-98.73922153
Kansas,Rawlins,67,1,0,0,2020-10-14,39.78525843,-101.0761617
Kansas,Reno,1522,46,8,0,2020-10-14,37.95230263,-98.08607292
Kansas,Republic,62,2,1,0,2020-10-14,39.82799632,-97.65036709
Kansas,Rice,107,8,1,0,2020-10-14,38.34616184,-98.19992118
Kansas,Riley,2015,35,9,0,2020-10-14,39.28935726,-96.73420026
Kansas,Rooks,130,0,7,0,2020-10-14,39.35022773,-99.32484567
Kansas,Rush,93,0,0,0,2020-10-14,38.52275276,-99.30863983
Kansas,Russell,155,13,3,0,2020-10-14,38.91462787,-98.76254297
Kansas,Saline,934,24,12,0,2020-10-14,38.78369175,-97.65185177
Kansas,Scott,151,5,1,0,2020-10-14,38.48222076,-100.9066539
Kansas,Sedgwick,9547,61,107,0,2020-10-14,37.6842718,-97.4608198
Kansas,Seward,1896,0,7,0,2020-10-14,37.19324632,-100.8507201
Kansas,Shawnee,3107,27,65,2,2020-10-14,39.04100763,-95.7557264
Kansas,Sheridan,86,21,0,0,2020-10-14,39.35018161,-100.4418259
Kansas,Sherman,130,21,0,0,2020-10-14,39.35147699,-101.7197624
Kansas,Smith,19,2,0,0,2020-10-14,39.78516566,-98.78566062
Kansas,Stafford,65,2,1,0,2020-10-14,38.03100851,-98.71762001
Kansas,Stanton,48,0,2,0,2020-10-14,37.56304714,-101.7843534
Kansas,Stevens,194,6,1,0,2020-10-14,37.1923008,-101.3118967
Kansas,Sumner,225,1,3,0,2020-10-14,37.23682549,-97.47721621
Kansas,Thomas,237,8,2,2,2020-10-14,39.35107575,-101.0553705
Kansas,Trego,69,0,3,0,2020-10-14,38.91467218,-99.87284448
Kansas,Wabaunsee,75,1,1,0,2020-10-14,38.95471985,-96.20350509
Kansas,Wallace,23,0,0,0,2020-10-14,38.91686134,-101.7638876
Kansas,Washington,26,0,0,0,2020-10-14,39.78420784,-97.0875323
Kansas,Wichita,10,0,0,0,2020-10-14,38.48178252,-101.3471509
Kansas,Wilson,79,0,2,0,2020-10-14,37.55937174,-95.74323255
Kansas,Woodson,26,2,0,0,2020-10-14,37.8865336,-95.74006277
Kansas,Wyandotte,7695,66,143,1,2020-10-14,39.11727348,-94.76378225
Kentucky,Adair,418,16,19,0,2020-10-14,37.10459774,-85.28129668
Kentucky,Allen,448,1,9,0,2020-10-14,36.75197631,-86.19457544
Kentucky,Anderson,207,5,1,0,2020-10-14,38.00671029,-84.99171713
Kentucky,Ballard,60,0,1,0,2020-10-14,37.05842757,-88.99427697
Kentucky,Barren,879,9,13,0,2020-10-14,36.96469836,-85.93338945
Kentucky,Bath,98,3,1,0,2020-10-14,38.14735938,-83.74588932
Kentucky,Bell,577,8,16,0,2020-10-14,36.73355174,-83.67766671
Kentucky,Boone,1831,18,25,0,2020-10-14,38.97065142,-84.72615357
Kentucky,Bourbon,251,3,1,0,2020-10-14,38.2054607,-84.21827874
Kentucky,Boyd,559,4,15,1,2020-10-14,38.36176608,-82.68652187
Kentucky,Boyle,367,10,0,0,2020-10-14,37.62680923,-84.8633779
Kentucky,Bracken,45,2,0,0,2020-10-14,38.69158994,-84.08532444
Kentucky,Breathitt,105,0,0,0,2020-10-14,37.52333168,-83.31959161
Kentucky,Breckinridge,162,6,2,0,2020-10-14,37.77377239,-86.42885017
Kentucky,Bullitt,1124,38,13,1,2020-10-14,37.97162523,-85.68955617
Kentucky,Butler,375,5,16,0,2020-10-14,37.20946153,-86.68748787
Kentucky,Caldwell,218,11,0,0,2020-10-14,37.14749129,-87.86948214
Kentucky,Calloway,799,8,9,0,2020-10-14,36.62093411,-88.2731593
Kentucky,Campbell,1018,15,16,0,2020-10-14,38.94384345,-84.37875208
Kentucky,Carlisle,90,2,1,0,2020-10-14,36.85372876,-88.9669222
Kentucky,Carroll,206,-1,5,0,2020-10-14,38.66599534,-85.12601074
Kentucky,Carter,277,11,4,0,2020-10-14,38.31690743,-83.05092385
Kentucky,Casey,287,2,15,0,2020-10-14,37.32533118,-84.92726209
Kentucky,Christian,1614,19,25,0,2020-10-14,36.89267803,-87.49055367
Kentucky,Clark,409,2,10,0,2020-10-14,37.9689263,-84.14615986
Kentucky,Clay,389,7,6,0,2020-10-14,37.16451126,-83.712575
Kentucky,Clinton,172,8,2,0,2020-10-14,36.72581156,-85.13377529
Kentucky,Crittenden,137,5,1,0,2020-10-14,37.35839237,-88.0882609
Kentucky,Cumberland,113,1,0,0,2020-10-14,36.78926125,-85.39050034
Kentucky,Daviess,1730,9,20,0,2020-10-14,37.73028906,-87.0901948
Kentucky,Edmonson,154,1,12,0,2020-10-14,37.21218923,-86.23955613
Kentucky,Elliott,61,1,0,0,2020-10-14,38.11624059,-83.09771563
Kentucky,Estill,232,4,0,0,2020-10-14,37.69241417,-83.95956369
Kentucky,Fayette,9399,91,82,1,2020-10-14,38.0368225,-84.45576892
Kentucky,Fleming,104,3,0,0,2020-10-14,38.36758311,-83.69657514
Kentucky,Floyd,245,2,4,0,2020-10-14,37.56213922,-82.74750924
Kentucky,Franklin,768,3,13,1,2020-10-14,38.2379395,-84.87962551
Kentucky,Fulton,205,3,3,0,2020-10-14,36.55238827,-89.20140068
Kentucky,Gallatin,110,0,8,0,2020-10-14,38.75398691,-84.8558382
Kentucky,Garrard,214,3,3,0,2020-10-14,37.6388668,-84.53289319
Kentucky,Grant,209,4,6,0,2020-10-14,38.64962758,-84.62415957
Kentucky,Graves,831,4,29,0,2020-10-14,36.72292505,-88.65143315
Kentucky,Grayson,438,4,15,0,2020-10-14,37.46231118,-86.34248968
Kentucky,Green,302,5,8,0,2020-10-14,37.26484328,-85.5540745
Kentucky,Greenup,523,9,5,0,2020-10-14,38.54332505,-82.9215658
Kentucky,Hancock,110,3,1,0,2020-10-14,37.83766422,-86.78280584
Kentucky,Hardin,1599,32,12,0,2020-10-14,37.6976111,-85.96319251
Kentucky,Harlan,532,3,13,0,2020-10-14,36.85699301,-83.21899516
Kentucky,Harrison,229,6,1,0,2020-10-14,38.44188174,-84.32869741
Kentucky,Hart,232,13,1,0,2020-10-14,37.29943898,-85.88461055
Kentucky,Henderson,1126,26,14,1,2020-10-14,37.79344553,-87.57392021
Kentucky,Henry,221,4,2,0,2020-10-14,38.44942688,-85.11587507
Kentucky,Hickman,95,3,1,0,2020-10-14,36.6794808,-88.97875928
Kentucky,Hopkins,851,27,40,0,2020-10-14,37.30939025,-87.54670406
Kentucky,Jackson,406,3,17,0,2020-10-14,37.41866422,-83.99825483
Kentucky,Jefferson,18386,265,323,1,2020-10-14,38.18664655,-85.65931031
Kentucky,Jessamine,784,19,1,0,2020-10-14,37.87119786,-84.58252003
Kentucky,Johnson,206,5,2,0,2020-10-14,37.85106355,-82.8264322
Kentucky,Kenton,2287,28,49,0,2020-10-14,38.93950319,-84.53241199
Kentucky,Knott,263,1,1,0,2020-10-14,37.35388197,-82.94981134
Kentucky,Knox,680,17,9,0,2020-10-14,36.89225732,-83.85403396
Kentucky,Larue,193,12,1,0,2020-10-14,37.54567114,-85.70138352
Kentucky,Laurel,1175,16,7,0,2020-10-14,37.10975748,-84.11321779
Kentucky,Lawrence,108,18,0,0,2020-10-14,38.07136018,-82.72882223
Kentucky,Lee,27,6,0,0,2020-10-14,37.59645942,-83.71513901
Kentucky,Leslie,108,2,0,0,2020-10-14,37.09246661,-83.37999606
Kentucky,Letcher,261,6,2,0,2020-10-14,37.12306748,-82.85346474
Kentucky,Lewis,255,5,15,0,2020-10-14,38.53184419,-83.37735618
Kentucky,Lincoln,258,4,16,0,2020-10-14,37.45475628,-84.6565327
Kentucky,Livingston,107,2,1,0,2020-10-14,37.21137452,-88.34797529
Kentucky,Logan,648,8,30,0,2020-10-14,36.85949479,-86.877635
Kentucky,Lyon,92,2,4,0,2020-10-14,37.02080035,-88.07886257
Kentucky,McCracken,899,20,11,0,2020-10-14,37.05350953,-88.70445755
Kentucky,McCreary,226,5,1,0,2020-10-14,36.73874143,-84.48102924
Kentucky,McLean,112,4,2,0,2020-10-14,37.5301951,-87.26803443
Kentucky,Madison,2091,22,9,0,2020-10-14,37.71659336,-84.27220275
Kentucky,Magoffin,117,2,0,0,2020-10-14,37.70820545,-83.0657714
Kentucky,Marion,302,12,8,0,2020-10-14,37.55218078,-85.26898542
Kentucky,Marshall,393,12,4,0,2020-10-14,36.8800707,-88.32803576
Kentucky,Martin,107,3,3,0,2020-10-14,37.79990579,-82.51247478
Kentucky,Mason,143,1,2,0,2020-10-14,38.59471935,-83.82151043
Kentucky,Meade,291,8,3,0,2020-10-14,37.96163597,-86.21028219
Kentucky,Menifee,74,1,1,0,2020-10-14,37.94090733,-83.59985712
Kentucky,Mercer,299,3,5,0,2020-10-14,37.81474237,-84.87488475
Kentucky,Metcalfe,148,3,2,0,2020-10-14,36.99459295,-85.63123699
Kentucky,Monroe,237,3,4,0,2020-10-14,36.71225341,-85.71596443
Kentucky,Montgomery,349,6,4,0,2020-10-14,38.03253032,-83.9145241
Kentucky,Morgan,99,1,0,0,2020-10-14,37.92465657,-83.25558245
Kentucky,Muhlenberg,873,6,12,0,2020-10-14,37.21425819,-87.14632053
Kentucky,Nelson,615,7,4,0,2020-10-14,37.80335779,-85.4657193
Kentucky,Nicholas,80,9,1,0,2020-10-14,38.33342292,-84.01889177
Kentucky,Ohio,540,6,9,0,2020-10-14,37.47751843,-86.85368087
Kentucky,Oldham,1272,30,26,0,2020-10-14,38.39791089,-85.448222
Kentucky,Owen,108,2,2,0,2020-10-14,38.51679143,-84.82404619
Kentucky,Owsley,55,2,1,0,2020-10-14,37.42823949,-83.68811419
Kentucky,Pendleton,108,2,0,0,2020-10-14,38.69607718,-84.35599463
Kentucky,Perry,392,12,9,0,2020-10-14,37.25023553,-83.22922731
Kentucky,Pike,646,34,3,0,2020-10-14,37.47088263,-82.39487445
Kentucky,Powell,128,1,0,0,2020-10-14,37.83218794,-83.82553961
Kentucky,Pulaski,915,17,11,0,2020-10-14,37.10466131,-84.57629079
Kentucky,Robertson,13,0,1,0,2020-10-14,38.51923469,-84.05055616
Kentucky,Rockcastle,254,18,1,0,2020-10-14,37.36642393,-84.31176452
Kentucky,Rowan,306,7,1,0,2020-10-14,38.19484205,-83.42088935
Kentucky,Russell,308,11,6,0,2020-10-14,36.99308373,-85.06070117
Kentucky,Scott,956,22,16,0,2020-10-14,38.29622293,-84.5816631
Kentucky,Shelby,1217,20,24,0,2020-10-14,38.21476019,-85.194223
Kentucky,Simpson,303,2,8,0,2020-10-14,36.74058474,-86.58047435
Kentucky,Spencer,248,4,0,0,2020-10-14,38.03223971,-85.32749335
Kentucky,Taylor,388,16,7,0,2020-10-14,37.3677562,-85.3329931
Kentucky,Todd,241,6,8,0,2020-10-14,36.8381152,-87.17878374
Kentucky,Trigg,214,3,0,0,2020-10-14,36.80767017,-87.87333656
Kentucky,Trimble,77,0,0,0,2020-10-14,38.61056487,-85.33775972
Kentucky,Union,441,8,5,0,2020-10-14,37.66166713,-87.94300009
Kentucky,Warren,4744,33,57,0,2020-10-14,36.99903045,-86.42672751
Kentucky,Washington,177,2,1,0,2020-10-14,37.75599461,-85.17407732
Kentucky,Wayne,209,6,0,0,2020-10-14,36.80310688,-84.8251971
Kentucky,Webster,263,7,4,1,2020-10-14,37.52168356,-87.67989953
Kentucky,Whitley,649,18,3,0,2020-10-14,36.75700531,-84.14541217
Kentucky,Wolfe,57,0,0,0,2020-10-14,37.73941626,-83.49303612
Kentucky,Woodford,330,5,0,0,2020-10-14,38.04178222,-84.7417556
Louisiana,Acadia,3034,6,99,0,2020-10-14,30.2950649,-92.41419698
Louisiana,Allen,1771,8,52,0,2020-10-14,30.65385745,-92.82442028
Louisiana,Ascension,3876,-6,98,0,2020-10-14,30.20406249,-90.9132841
Louisiana,Assumption,778,4,24,0,2020-10-14,29.89946234,-91.06461642
Louisiana,Avoyelles,1646,15,62,0,2020-10-14,31.07796211,-92.00079449
Louisiana,Beauregard,1033,1,39,0,2020-10-14,30.64836518,-93.34173616
Louisiana,Bienville,549,7,33,0,2020-10-14,32.34569994,-93.05398492
Louisiana,Bossier,3692,18,111,0,2020-10-14,32.67932307,-93.60460152
Louisiana,Caddo,9348,19,380,0,2020-10-14,32.57991587,-93.88375652
Louisiana,Calcasieu,8095,27,221,0,2020-10-14,30.22931235,-93.35400434
Louisiana,Caldwell,324,-1,3,0,2020-10-14,32.0902519,-92.11752148
Louisiana,Cameron,236,5,2,0,2020-10-14,29.87592238,-93.19310676
Louisiana,Catahoula,453,3,12,0,2020-10-14,31.66778967,-91.84526385
Louisiana,Claiborne,584,6,23,0,2020-10-14,32.82308512,-92.99526883
Louisiana,Concordia,558,20,15,0,2020-10-14,31.44817835,-91.63814433
Louisiana,De Soto,964,0,35,0,2020-10-14,32.05457447,-93.74130302
Louisiana,East Baton Rouge,15504,-8,451,0,2020-10-14,30.53842039,-91.09777565
Louisiana,East Carroll,557,-1,6,0,2020-10-14,32.73926954,-91.23425694
Louisiana,East Feliciana,1773,9,75,0,2020-10-14,30.84425359,-91.04976723
Louisiana,Evangeline,1376,4,36,0,2020-10-14,30.72985248,-92.39915924
Louisiana,Franklin,1255,4,44,1,2020-10-14,32.13675181,-91.67589857
Louisiana,Grant,512,0,30,0,2020-10-14,31.59882456,-92.56124347
Louisiana,Iberia,3026,5,92,0,2020-10-14,29.86803617,-91.75871777
Louisiana,Iberville,1433,4,58,0,2020-10-14,30.25734305,-91.3499598
Louisiana,Jackson,758,5,22,0,2020-10-14,32.30251776,-92.55692092
Louisiana,Jefferson,18116,-2,578,0,2020-10-14,29.74075478,-90.11115756
Louisiana,Jefferson Davis,1298,7,42,0,2020-10-14,30.26896765,-92.81210004
Louisiana,Lafayette,9209,26,136,0,2020-10-14,30.2049055,-92.06959876
Louisiana,Lafourche,3793,5,123,0,2020-10-14,29.52470226,-90.40976986
Louisiana,LaSalle,458,-1,10,0,2020-10-14,31.67884782,-92.15907765
Louisiana,Lincoln,1574,20,48,0,2020-10-14,32.6003154,-92.6659741
Louisiana,Livingston,3982,1,76,0,2020-10-14,30.44143993,-90.73061664
Louisiana,Madison,891,2,8,0,2020-10-14,32.36918118,-91.23973355
Louisiana,Morehouse,859,6,23,0,2020-10-14,32.81686191,-91.80421614
Louisiana,Natchitoches,1306,7,26,0,2020-10-14,31.72321584,-93.09816516
Louisiana,Orleans,13057,35,588,0,2020-10-14,30.06971951,-89.92660315
Louisiana,Ouachita,6648,9,153,2,2020-10-14,32.47645559,-92.15704172
Louisiana,Plaquemines,813,1,19,0,2020-10-14,29.42245447,-89.60322085
Louisiana,Pointe Coupee,1080,-1,40,0,2020-10-14,30.71409502,-91.60209535
Louisiana,Rapides,4460,2,152,1,2020-10-14,31.19778499,-92.52997303
Louisiana,Red River,374,1,24,0,2020-10-14,32.09530039,-93.34213308
Louisiana,Richland,831,1,15,0,2020-10-14,32.41391005,-91.76634876
Louisiana,Sabine,926,7,14,0,2020-10-14,31.56388699,-93.55433981
Louisiana,St. Bernard,1488,1,31,0,2020-10-14,29.87761636,-89.51887093
Louisiana,St. Charles,1886,-3,62,0,2020-10-14,29.90709658,-90.35555967
Louisiana,St. Helena,421,-9,4,0,2020-10-14,30.82210324,-90.71013176
Louisiana,St. James,825,5,40,0,2020-10-14,30.02531716,-90.80212061
Louisiana,St. John the Baptist,1613,4,105,0,2020-10-14,30.12597499,-90.4753503
Louisiana,St. Landry,3485,-1,130,0,2020-10-14,30.59724262,-92.00135806
Louisiana,St. Martin,2149,9,61,0,2020-10-14,30.13112107,-91.61403569
Louisiana,St. Mary,1982,3,83,2,2020-10-14,29.69262097,-91.44702164
Louisiana,St. Tammany,7451,5,269,0,2020-10-14,30.40942847,-89.95642711
Louisiana,Tangipahoa,4822,6,122,0,2020-10-14,30.62888673,-90.40664996
Louisiana,Tensas,184,-1,2,0,2020-10-14,32.00760749,-91.32915234
Louisiana,Terrebonne,3747,-1,121,1,2020-10-14,29.37343766,-90.82626855
Louisiana,Union,1042,1,49,0,2020-10-14,32.83121059,-92.3749373
Louisiana,Vermilion,2079,3,68,0,2020-10-14,29.83517605,-92.30292538
Louisiana,Vernon,1105,1,54,2,2020-10-14,31.10884837,-93.18153838
Louisiana,Washington,1703,4,68,0,2020-10-14,30.85288548,-90.03866652
Louisiana,Webster,1392,11,32,0,2020-10-14,32.70847669,-93.33121835
Louisiana,West Baton Rouge,934,-2,42,0,2020-10-14,30.46058217,-91.30989571
Louisiana,West Carroll,357,-1,10,0,2020-10-14,32.78550125,-91.461201
Louisiana,West Feliciana,746,3,25,0,2020-10-14,30.87882871,-91.4148538
Louisiana,Winn,657,0,19,0,2020-10-14,31.94449367,-92.63789413
Maine,Androscoggin,823,6,10,0,2020-10-14,44.1664747,-70.20380627
Maine,Aroostook,53,0,1,0,2020-10-14,46.65926321,-68.59841248
Maine,Cumberland,2396,4,70,0,2020-10-14,43.8370751,-70.37226999
Maine,Franklin,71,-1,1,0,2020-10-14,44.97330019,-70.44381045
Maine,Hancock,56,0,1,0,2020-10-14,44.59816444,-68.38401854
Maine,Kennebec,274,6,11,0,2020-10-14,44.40759555,-69.76738544
Maine,Knox,53,1,1,0,2020-10-14,44.11486325,-69.10529169
Maine,Lincoln,51,1,1,0,2020-10-14,44.05996956,-69.54227124
Maine,Oxford,161,3,2,0,2020-10-14,44.49952995,-70.75682123
Maine,Penobscot,270,-1,6,0,2020-10-14,45.40194593,-68.65020455
Maine,Piscataquis,10,0,0,0,2020-10-14,45.83839062,-69.2860223
Maine,Sagadahoc,73,-1,0,0,2020-10-14,43.95415864,-69.85074999
Maine,Somerset,128,5,8,0,2020-10-14,45.51229767,-69.95995554
Maine,Waldo,85,5,14,0,2020-10-14,44.4858305,-69.12061935
Maine,Washington,20,0,0,0,2020-10-14,45.01607142,-67.62813524
Maine,York,1292,8,17,0,2020-10-14,43.47808377,-70.71052375
Maryland,Allegany,536,8,23,0,2020-10-14,39.62357628,-78.69280486
Maryland,Anne Arundel,10986,71,260,2,2020-10-14,39.00670238,-76.60329337
Maryland,Baltimore,19176,74,647,0,2020-10-14,39.45784712,-76.62911955
Maryland,Calvert,1078,4,28,0,2020-10-14,38.53961642,-76.56820632
Maryland,Caroline,686,2,8,0,2020-10-14,38.87172293,-75.82904158
Maryland,Carroll,2099,7,127,1,2020-10-14,39.56453592,-77.02373735
Maryland,Cecil,1190,11,36,0,2020-10-14,39.56647682,-75.94627411
Maryland,Charles,2962,15,101,0,2020-10-14,38.51092331,-76.98580666
Maryland,Dorchester,644,2,10,0,2020-10-14,38.45413522,-76.02752426
Maryland,Frederick,4399,20,135,0,2020-10-14,39.47296601,-77.39999394
Maryland,Garrett,87,5,1,0,2020-10-14,39.52786077,-79.27355126
Maryland,Harford,3317,29,77,0,2020-10-14,39.55010644,-76.3077594
Maryland,Howard,5487,14,123,0,2020-10-14,39.25305293,-76.93126208
Maryland,Kent,325,0,24,0,2020-10-14,39.24976208,-76.04741541
Maryland,Montgomery,23926,109,859,3,2020-10-14,39.13676329,-77.20358245
Maryland,Prince George's,30969,91,840,1,2020-10-14,38.83070039,-76.8496441
Maryland,Queen Anne's,711,6,26,0,2020-10-14,39.06198912,-76.03530977
Maryland,St. Mary's,1375,2,59,0,2020-10-14,38.30058422,-76.6062928
Maryland,Somerset,358,13,4,0,2020-10-14,38.1163542,-75.75118623
Maryland,Talbot,593,4,6,0,2020-10-14,38.76618159,-76.10882561
Maryland,Washington,2039,31,41,0,2020-10-14,39.60835778,-77.82002295
Maryland,Wicomico,2248,6,49,0,2020-10-14,38.37301947,-75.62705831
Maryland,Worcester,1143,10,30,0,2020-10-14,38.21274277,-75.33200012
Maryland,Baltimore,19176,74,647,0,2020-10-14,39.45784712,-76.62911955
Massachusetts,Barnstable,1877,-1,178,0,2020-10-14,41.72980578,-70.28854339
Massachusetts,Berkshire,733,1,51,0,2020-10-14,42.37428441,-73.20524838
Massachusetts,Bristol,10777,38,725,0,2020-10-14,41.79228404,-71.10872211
Massachusetts,Essex,21516,136,1315,2,2020-10-14,42.6687626,-70.94687179
Massachusetts,Franklin,426,0,71,0,2020-10-14,42.58119713,-72.58602547
Massachusetts,Hampden,8894,40,794,2,2020-10-14,42.13440424,-72.63235561
Massachusetts,Hampshire,1374,10,152,2,2020-10-14,42.33997957,-72.65898478
Massachusetts,Middlesex,29460,102,2200,4,2020-10-14,42.48607732,-71.39049229
Massachusetts,Norfolk,10975,33,1086,2,2020-10-14,42.16073095,-71.20530408
Massachusetts,Plymouth,10424,44,786,2,2020-10-14,41.94070556,-70.80802823
Massachusetts,Suffolk,25896,72,1150,2,2020-10-14,42.3279514,-71.07850442
Massachusetts,Worcester,15238,49,1132,1,2020-10-14,42.35026951,-71.90493363
Michigan,Alcona,50,2,2,0,2020-10-14,44.6846864,-83.59507875
Michigan,Alger,67,4,0,0,2020-10-14,46.41292944,-86.60260122
Michigan,Allegan,961,18,7,0,2020-10-14,42.59147037,-85.89102866
Michigan,Alpena,148,0,14,0,2020-10-14,45.03477666,-83.62212411
Michigan,Antrim,85,3,0,0,2020-10-14,44.99690221,-85.15503082
Michigan,Arenac,84,2,3,0,2020-10-14,44.0636262,-83.89277559
Michigan,Baraga,61,4,4,1,2020-10-14,46.6720582,-88.36363591
Michigan,Barry,476,19,4,-1,2020-10-14,42.59513984,-85.30834519
Michigan,Bay,1158,7,55,0,2020-10-14,43.70639106,-83.98731479
Michigan,Benzie,97,2,2,0,2020-10-14,44.63899297,-86.01608482
Michigan,Berrien,2177,30,77,0,2020-10-14,41.95447397,-86.4131308
Michigan,Branch,731,12,10,0,2020-10-14,41.91600556,-85.05929476
Michigan,Calhoun,1978,38,51,0,2020-10-14,42.24633834,-85.00493569
Michigan,Cass,732,22,22,0,2020-10-14,41.91522292,-85.99405727
Michigan,Charlevoix,123,0,4,0,2020-10-14,45.37790017,-85.19614053
Michigan,Cheboygan,104,3,2,0,2020-10-14,45.44787015,-84.50122149
Michigan,Chippewa,95,-1,0,0,2020-10-14,46.29552653,-84.54353449
Michigan,Clare,168,-1,6,0,2020-10-14,43.98794227,-84.8481986
Michigan,Clinton,821,6,14,0,2020-10-14,42.94400871,-84.60145248
Michigan,Crawford,132,0,5,0,2020-10-14,44.68255561,-84.61006219
Michigan,Delta,888,39,15,0,2020-10-14,45.9048491,-86.9080745
Michigan,Dickinson,355,13,4,0,2020-10-14,46.00999672,-87.86961634
Michigan,Eaton,852,14,10,0,2020-10-14,42.59599185,-84.83740035
Michigan,Emmet,180,3,4,0,2020-10-14,45.52625509,-84.89083249
Michigan,Genesee,5525,60,315,1,2020-10-14,43.02244215,-83.70589709
Michigan,Gladwin,139,4,2,0,2020-10-14,43.98901072,-84.38774817
Michigan,Gogebic,206,6,2,0,2020-10-14,46.40862701,-89.69377193
Michigan,Grand Traverse,605,3,12,1,2020-10-14,44.69565625,-85.55585247
Michigan,Gratiot,377,11,16,0,2020-10-14,43.29265605,-84.60505416
Michigan,Hillsdale,411,11,27,0,2020-10-14,41.88753639,-84.59312019
Michigan,Houghton,821,12,5,0,2020-10-14,46.89988536,-88.68495385
Michigan,Huron,251,3,5,0,2020-10-14,43.83353985,-83.04078453
Michigan,Ingham,4128,42,57,2,2020-10-14,42.59716886,-84.37472069
Michigan,Ionia,504,25,7,0,2020-10-14,42.94502238,-85.07413319
Michigan,Iosco,252,1,14,0,2020-10-14,44.35486835,-83.63484895
Michigan,Iron,310,8,16,1,2020-10-14,46.20974132,-88.53136251
Michigan,Isabella,869,8,15,0,2020-10-14,43.64060976,-84.84664923
Michigan,Jackson,1407,38,57,0,2020-10-14,42.24807035,-84.42258681
Michigan,Kalamazoo,3817,44,98,0,2020-10-14,42.24542231,-85.53038622
Michigan,Kalkaska,102,1,4,0,2020-10-14,44.68512729,-85.09085699
Michigan,Kent,11817,192,173,1,2020-10-14,43.03197711,-85.54934642
Michigan,Keweenaw,16,1,0,0,2020-10-14,47.63197653,-88.41434263
Michigan,Lake,40,0,0,0,2020-10-14,43.99050893,-85.802173
Michigan,Lapeer,735,14,38,0,2020-10-14,43.09052506,-83.22153148
Michigan,Leelanau,123,1,1,0,2020-10-14,44.94430054,-85.80150326
Michigan,Lenawee,967,8,18,0,2020-10-14,41.89475156,-84.06603727
Michigan,Livingston,1645,33,32,0,2020-10-14,42.60302282,-83.91297209
Michigan,Luce,32,2,0,0,2020-10-14,46.47227431,-85.54471223
Michigan,Mackinac,118,7,0,0,2020-10-14,46.07028979,-85.04980537
Michigan,Macomb,16319,157,1047,4,2020-10-14,42.69158356,-82.92752801
Michigan,Manistee,102,5,3,0,2020-10-14,44.33352407,-86.05626916
Michigan,Marquette,579,14,12,0,2020-10-14,46.4338914,-87.64043701
Michigan,Mason,157,1,1,0,2020-10-14,43.99509218,-86.24988902
Michigan,Mecosta,315,3,3,0,2020-10-14,43.64064262,-85.32463223
Michigan,Menominee,571,5,3,0,2020-10-14,45.58038692,-87.55370409
Michigan,Midland,748,16,13,0,2020-10-14,43.64330771,-84.38804374
Michigan,Missaukee,70,0,1,0,2020-10-14,44.33772443,-85.09256478
Michigan,Monroe,1714,28,29,0,2020-10-14,41.92734151,-83.53749864
Michigan,Montcalm,434,6,7,0,2020-10-14,43.31082541,-85.15252824
Michigan,Montmorency,18,0,0,0,2020-10-14,45.0275929,-84.12696227
Michigan,Muskegon,1732,24,73,0,2020-10-14,43.29123859,-86.15176712
Michigan,Newaygo,479,11,2,0,2020-10-14,43.554374,-85.80070107
Michigan,Oakland,22324,145,1222,0,2020-10-14,42.66090111,-83.38595416
Michigan,Oceana,553,5,6,0,2020-10-14,43.64124435,-86.26726673
Michigan,Ogemaw,80,1,5,0,2020-10-14,44.33481032,-84.12725175
Michigan,Ontonagon,59,1,0,0,2020-10-14,46.6652262,-89.31390481
Michigan,Osceola,112,2,0,0,2020-10-14,43.98992088,-85.32566756
Michigan,Oscoda,50,0,1,0,2020-10-14,44.68192279,-84.12939244
Michigan,Otsego,203,1,11,0,2020-10-14,45.02085831,-84.59898295
Michigan,Ottawa,4086,41,70,0,2020-10-14,42.95996803,-85.9969107
Michigan,Presque Isle,31,0,1,0,2020-10-14,45.34018577,-83.91498656
Michigan,Roscommon,122,6,4,0,2020-10-14,44.33473082,-84.61067651
Michigan,Saginaw,3276,27,148,1,2020-10-14,43.33433923,-84.0513121
Michigan,St. Clair,1205,17,61,1,2020-10-14,42.92655373,-82.67937954
Michigan,St. Joseph,981,15,12,0,2020-10-14,41.91441767,-85.52797979
Michigan,Sanilac,161,1,7,0,2020-10-14,43.42406072,-82.82055898
Michigan,Schoolcraft,49,2,0,0,2020-10-14,46.19235734,-86.19972234
Michigan,Shiawassee,593,3,32,0,2020-10-14,42.953928,-84.14585902
Michigan,Tuscola,556,8,34,0,2020-10-14,43.46606813,-83.41897025
Michigan,Van Buren,882,6,18,0,2020-10-14,42.25190229,-86.01939087
Michigan,Washtenaw,4361,95,116,0,2020-10-14,42.253105,-83.83853204
Michigan,Wayne,37426,190,3011,1,2020-10-14,42.28098405,-83.281255
Michigan,Wexford,143,2,4,0,2020-10-14,44.33853602,-85.57712739
Minnesota,Aitkin,129,6,1,0,2020-10-14,46.60962049,-93.4116826
Minnesota,Anoka,7548,63,144,0,2020-10-14,45.27476015,-93.24604565
Minnesota,Becker,418,15,2,0,2020-10-14,46.93479392,-95.67158144
Minnesota,Beltrami,683,26,6,0,2020-10-14,47.97373527,-94.93732139
Minnesota,Benton,740,25,4,0,2020-10-14,45.69804958,-93.99514135
Minnesota,Big Stone,117,7,0,0,2020-10-14,45.42712824,-96.41403739
Minnesota,Blue Earth,1886,6,7,0,2020-10-14,44.03554215,-94.06699781
Minnesota,Brown,271,0,3,0,2020-10-14,44.24205652,-94.72562874
Minnesota,Carlton,355,4,1,0,2020-10-14,46.59180601,-92.67601019
Minnesota,Carver,1621,12,7,0,2020-10-14,44.82017001,-93.8009918
Minnesota,Cass,267,6,4,0,2020-10-14,46.95043611,-94.32603968
Minnesota,Chippewa,330,8,2,0,2020-10-14,45.02343421,-95.56403693
Minnesota,Chisago,743,26,2,0,2020-10-14,45.5021011,-92.90861945
Minnesota,Clay,1824,51,43,1,2020-10-14,46.89289518,-96.48761922
Minnesota,Clearwater,57,5,0,0,2020-10-14,47.57992111,-95.37790562
Minnesota,Cook,8,-1,0,0,2020-10-14,47.90504893,-90.52629546
Minnesota,Cottonwood,251,-1,0,0,2020-10-14,44.00715262,-95.18138802
Minnesota,Crow Wing,757,9,21,1,2020-10-14,46.48096553,-94.06755609
Minnesota,Dakota,8742,69,133,1,2020-10-14,44.67172617,-93.06299363
Minnesota,Dodge,341,3,0,0,2020-10-14,44.02238415,-92.86244324
Minnesota,Douglas,528,5,3,0,2020-10-14,45.93348491,-95.45335469
Minnesota,Faribault,189,2,0,0,2020-10-14,43.67381499,-93.94787458
Minnesota,Fillmore,211,4,0,0,2020-10-14,43.67394126,-92.08980382
Minnesota,Freeborn,597,4,4,0,2020-10-14,43.67385583,-93.34884422
Minnesota,Goodhue,462,1,11,0,2020-10-14,44.40849741,-92.7234195
Minnesota,Grant,81,-1,4,0,2020-10-14,45.93424769,-96.01139609
Minnesota,Hennepin,30923,225,959,4,2020-10-14,45.00761521,-93.47694895
Minnesota,Houston,168,4,1,0,2020-10-14,43.67129565,-91.49143057
Minnesota,Hubbard,231,17,1,0,2020-10-14,47.10778564,-94.91693868
Minnesota,Isanti,445,8,3,2,2020-10-14,45.56181234,-93.29487636
Minnesota,Itasca,597,12,16,0,2020-10-14,47.51009045,-93.63092229
Minnesota,Jackson,178,2,1,0,2020-10-14,43.67423373,-95.15398258
Minnesota,Kanabec,166,3,9,0,2020-10-14,45.9459309,-93.29275192
Minnesota,Kandiyohi,1378,29,4,0,2020-10-14,45.1526059,-95.00586446
Minnesota,Kittson,18,1,0,0,2020-10-14,48.77754106,-96.78317184
Minnesota,Koochiching,147,1,4,0,2020-10-14,48.24539665,-93.78352843
Minnesota,Lac qui Parle,112,5,2,0,2020-10-14,44.9973857,-96.17488219
Minnesota,Lake,90,3,0,0,2020-10-14,47.64270764,-91.44557998
Minnesota,Lake of the Woods,39,0,1,0,2020-10-14,48.77217001,-94.90274472
Minnesota,Le Sueur,549,3,5,0,2020-10-14,44.37136597,-93.72844721
Minnesota,Lincoln,150,1,0,0,2020-10-14,44.41311883,-96.26688165
Minnesota,Lyon,848,6,5,0,2020-10-14,44.41327865,-95.83806103
Minnesota,McLeod,548,1,3,0,2020-10-14,44.82367677,-94.27287017
Minnesota,Mahnomen,78,2,1,0,2020-10-14,47.32557075,-95.80921485
Minnesota,Marshall,73,3,1,0,2020-10-14,48.35825983,-96.37017407
Minnesota,Martin,558,7,16,0,2020-10-14,43.67429718,-94.55099908
Minnesota,Meeker,279,3,3,0,2020-10-14,45.12328869,-94.52839455
Minnesota,Mille Lacs,286,18,4,1,2020-10-14,45.93705297,-93.63236823
Minnesota,Morrison,467,23,4,1,2020-10-14,46.01265363,-94.27341528
Minnesota,Mower,1453,22,7,0,2020-10-14,43.67142874,-92.75234549
Minnesota,Murray,224,5,3,0,2020-10-14,44.02216709,-95.76328482
Minnesota,Nicollet,637,7,17,0,2020-10-14,44.35291112,-94.24710352
Minnesota,Nobles,2072,8,16,0,2020-10-14,43.67434621,-95.75329576
Minnesota,Norman,86,1,0,0,2020-10-14,47.32628443,-96.45620947
Minnesota,Olmsted,2884,23,29,1,2020-10-14,44.00374114,-92.40209944
Minnesota,Otter Tail,641,26,6,0,2020-10-14,46.40846929,-95.70835255
Minnesota,Pennington,150,5,1,0,2020-10-14,48.06642577,-96.0370814
Minnesota,Pine,464,3,0,0,2020-10-14,46.12105238,-92.74070188
Minnesota,Pipestone,310,5,16,1,2020-10-14,44.02301619,-96.25841142
Minnesota,Polk,439,22,4,0,2020-10-14,47.77372465,-96.40134647
Minnesota,Pope,130,6,0,0,2020-10-14,45.58606667,-95.44451209
Minnesota,Ramsey,12656,124,337,2,2020-10-14,45.01625271,-93.09872295
Minnesota,Red Lake,49,2,2,0,2020-10-14,47.87197525,-96.09561104
Minnesota,Redwood,220,4,9,1,2020-10-14,44.40555844,-95.25207021
Minnesota,Renville,215,5,10,0,2020-10-14,44.72836381,-94.94553734
Minnesota,Rice,1506,8,8,0,2020-10-14,44.3543376,-93.29658715
Minnesota,Rock,269,19,1,0,2020-10-14,43.67482683,-96.25296832
Minnesota,Roseau,158,0,0,0,2020-10-14,48.77501878,-95.81079919
Minnesota,St. Louis,2348,49,55,0,2020-10-14,47.6048407,-92.46879855
Minnesota,Scott,2995,26,34,0,2020-10-14,44.6490231,-93.53340251
Minnesota,Sherburne,1413,32,18,2,2020-10-14,45.44447208,-93.77617511
Minnesota,Sibley,227,2,3,0,2020-10-14,44.5796592,-94.23164924
Minnesota,Stearns,4841,83,33,2,2020-10-14,45.55192576,-94.61078221
Minnesota,Steele,668,9,2,0,2020-10-14,44.02240351,-93.22627088
Minnesota,Stevens,151,4,1,0,2020-10-14,45.58613007,-96.00163705
Minnesota,Swift,178,4,1,0,2020-10-14,45.2829032,-95.68264092
Minnesota,Todd,619,14,2,0,2020-10-14,46.06996226,-94.89785296
Minnesota,Traverse,47,1,0,0,2020-10-14,45.77298854,-96.47062949
Minnesota,Wabasha,283,4,0,0,2020-10-14,44.28424356,-92.23121312
Minnesota,Wadena,143,12,0,0,2020-10-14,46.58589171,-94.96968506
Minnesota,Waseca,881,3,9,0,2020-10-14,44.02211116,-93.58720034
Minnesota,Washington,4794,71,64,2,2020-10-14,45.03864533,-92.88429635
Minnesota,Watonwan,551,1,4,0,2020-10-14,43.97823903,-94.61413846
Minnesota,Wilkin,106,4,4,0,2020-10-14,46.35721532,-96.4684375
Minnesota,Winona,1095,14,18,0,2020-10-14,43.98772283,-91.78081305
Minnesota,Wright,2125,32,11,1,2020-10-14,45.17297924,-93.96234781
Minnesota,Yellow Medicine,249,3,4,0,2020-10-14,44.71710183,-95.86842453
Mississippi,Adams,1008,6,41,0,2020-10-14,31.47669768,-91.35326037
Mississippi,Alcorn,907,6,12,0,2020-10-14,34.88084463,-88.57996173
Mississippi,Amite,397,17,13,1,2020-10-14,31.17467303,-90.80501621
Mississippi,Attala,728,17,25,0,2020-10-14,33.08658803,-89.57838564
Mississippi,Benton,282,2,4,0,2020-10-14,34.81681228,-89.18945516
Mississippi,Bolivar,1962,3,75,0,2020-10-14,33.79696941,-90.87372121
Mississippi,Calhoun,578,4,12,0,2020-10-14,33.93683395,-89.33686647
Mississippi,Carroll,346,3,12,0,2020-10-14,33.44834567,-89.91994479
Mississippi,Chickasaw,794,8,24,0,2020-10-14,33.91983202,-88.9481545
Mississippi,Choctaw,198,0,6,0,2020-10-14,33.34598242,-89.24809382
Mississippi,Claiborne,524,1,16,0,2020-10-14,31.97061673,-90.90702196
Mississippi,Clarke,691,17,48,0,2020-10-14,32.04158545,-88.6889622
Mississippi,Clay,651,9,21,1,2020-10-14,33.65358105,-88.77784255
Mississippi,Coahoma,1215,4,35,1,2020-10-14,34.22772299,-90.60415045
Mississippi,Copiah,1304,13,35,0,2020-10-14,31.86977774,-90.44565118
Mississippi,Covington,886,3,25,0,2020-10-14,31.63225413,-89.55389939
Mississippi,DeSoto,6302,64,77,2,2020-10-14,34.87625235,-89.99091418
Mississippi,Forrest,2863,18,76,0,2020-10-14,31.18961454,-89.25832496
Mississippi,Franklin,213,1,3,0,2020-10-14,31.47786634,-90.89672989
Mississippi,George,908,12,16,0,2020-10-14,30.86259065,-88.64436789
Mississippi,Greene,439,11,17,0,2020-10-14,31.21444233,-88.63922281
Mississippi,Grenada,1180,5,37,1,2020-10-14,33.77036166,-89.80245083
Mississippi,Hancock,706,5,27,0,2020-10-14,30.41830223,-89.48851033
Mississippi,Harrison,4521,50,80,0,2020-10-14,30.51359752,-89.12467576
Mississippi,Hinds,7528,31,168,1,2020-10-14,32.2656285,-90.44435448
Mississippi,Holmes,1123,3,60,0,2020-10-14,33.12345854,-90.08923538
Mississippi,Humphreys,389,1,16,0,2020-10-14,33.12825718,-90.52252707
Mississippi,Issaquena,106,0,3,0,2020-10-14,32.72531359,-90.97392828
Mississippi,Itawamba,1040,11,24,0,2020-10-14,34.27993475,-88.3606733
Mississippi,Jackson,4130,47,75,1,2020-10-14,30.54020656,-88.64184064
Mississippi,Jasper,651,7,16,0,2020-10-14,32.01922104,-89.11786866
Mississippi,Jefferson,255,0,10,0,2020-10-14,31.73397872,-91.03764977
Mississippi,Jefferson Davis,379,0,11,0,2020-10-14,31.56884708,-89.8267099
Mississippi,Jones,2739,19,81,0,2020-10-14,31.62257767,-89.168969
Mississippi,Kemper,311,2,15,0,2020-10-14,32.75462946,-88.64105766
Mississippi,Lafayette,2376,14,42,0,2020-10-14,34.35687874,-89.48490961
Mississippi,Lamar,2035,23,38,1,2020-10-14,31.20572971,-89.5077704
Mississippi,Lauderdale,2278,23,129,1,2020-10-14,32.40419769,-88.66229662
Mississippi,Lawrence,479,5,14,0,2020-10-14,31.55147224,-90.10841127
Mississippi,Leake,1076,11,39,0,2020-10-14,32.7536828,-89.52402044
Mississippi,Lee,3290,51,78,0,2020-10-14,34.2918775,-88.68149954
Mississippi,Leflore,1553,6,84,1,2020-10-14,33.55545125,-90.29900733
Mississippi,Lincoln,1278,24,54,1,2020-10-14,31.53288662,-90.45391915
Mississippi,Lowndes,1698,5,61,1,2020-10-14,33.47386518,-88.4419153
Mississippi,Madison,3552,26,92,0,2020-10-14,32.63389156,-90.03513564
Mississippi,Marion,915,0,42,0,2020-10-14,31.23132643,-89.8209217
Mississippi,Marshall,1228,19,24,1,2020-10-14,34.76216286,-89.50299462
Mississippi,Monroe,1402,16,72,0,2020-10-14,33.89236763,-88.4808438
Mississippi,Montgomery,520,5,23,0,2020-10-14,33.49419589,-89.61729103
Mississippi,Neshoba,1767,13,109,0,2020-10-14,32.75339664,-89.11726492
Mississippi,Newton,832,8,27,0,2020-10-14,32.40021118,-89.11843336
Mississippi,Noxubee,588,4,16,0,2020-10-14,33.11009499,-88.56949061
Mississippi,Oktibbeha,1913,9,54,1,2020-10-14,33.42491685,-88.87905132
Mississippi,Panola,1612,4,36,1,2020-10-14,34.36398677,-89.95064249
Mississippi,Pearl River,1036,13,55,1,2020-10-14,30.77090935,-89.58677275
Mississippi,Perry,465,3,21,0,2020-10-14,31.17161885,-88.99281835
Mississippi,Pike,1334,31,55,0,2020-10-14,31.17507789,-90.40392572
Mississippi,Pontotoc,1407,5,19,1,2020-10-14,34.226046,-89.03636807
Mississippi,Prentiss,967,7,19,0,2020-10-14,34.61810501,-88.51986294
Mississippi,Quitman,407,0,6,0,2020-10-14,34.25157572,-90.28908
Mississippi,Rankin,3658,28,86,2,2020-10-14,32.26469147,-89.94537876
Mississippi,Scott,1206,4,29,0,2020-10-14,32.4067041,-89.53789439
Mississippi,Sharkey,273,2,14,0,2020-10-14,32.88149103,-90.8159538
Mississippi,Simpson,1161,5,48,0,2020-10-14,31.91282117,-89.91716179
Mississippi,Smith,573,1,16,1,2020-10-14,32.01744532,-89.50644846
Mississippi,Stone,433,9,14,0,2020-10-14,30.79187949,-89.11547539
Mississippi,Sunflower,1545,1,49,0,2020-10-14,33.60192578,-90.58882684
Mississippi,Tallahatchie,812,3,25,1,2020-10-14,33.95339918,-90.1729398
Mississippi,Tate,1099,3,39,0,2020-10-14,34.65133709,-89.94485778
Mississippi,Tippah,812,12,19,0,2020-10-14,34.76872156,-88.90988194
Mississippi,Tishomingo,766,5,40,0,2020-10-14,34.74023475,-88.23917219
Mississippi,Tunica,515,1,17,0,2020-10-14,34.64967704,-90.37481167
Mississippi,Union,1102,4,24,0,2020-10-14,34.49162015,-89.00776006
Mississippi,Walthall,628,9,27,0,2020-10-14,31.14971548,-90.10446654
Mississippi,Warren,1481,5,54,1,2020-10-14,32.35810271,-90.83352619
Mississippi,Washington,2456,34,93,2,2020-10-14,33.28392041,-90.94196237
Mississippi,Wayne,960,1,21,0,2020-10-14,31.64135687,-88.69573913
Mississippi,Webster,360,0,13,0,2020-10-14,33.61300486,-89.28392912
Mississippi,Wilkinson,319,1,19,0,2020-10-14,31.16078225,-91.31018819
Mississippi,Winston,798,4,21,0,2020-10-14,33.08747908,-89.03391385
Mississippi,Yalobusha,472,2,14,0,2020-10-14,34.02824175,-89.7076205
Mississippi,Yazoo,1126,17,33,0,2020-10-14,32.77890365,-90.39656148
Missouri,Adair,424,18,0,0,2020-10-14,40.19058551,-92.60078167
Missouri,Andrew,357,15,3,0,2020-10-14,39.98492163,-94.80163024
Missouri,Atchison,70,2,1,1,2020-10-14,40.43238737,-95.42970639
Missouri,Audrain,514,31,5,0,2020-10-14,39.215877,-91.84242683
Missouri,Barry,615,31,8,0,2020-10-14,36.70978521,-93.82919888
Missouri,Barton,357,39,2,0,2020-10-14,37.50207671,-94.34757022
Missouri,Bates,208,22,3,0,2020-10-14,38.25271289,-94.34113157
Missouri,Benton,428,7,5,0,2020-10-14,38.29503305,-93.28756116
Missouri,Bollinger,412,20,3,1,2020-10-14,37.32449052,-90.02725304
Missouri,Boone,5398,154,19,5,2020-10-14,38.99186229,-92.30723575
Missouri,Buchanan,2577,119,37,5,2020-10-14,39.65816401,-94.80138942
Missouri,Butler,881,47,9,1,2020-10-14,36.71462476,-90.40421163
Missouri,Caldwell,141,11,1,0,2020-10-14,39.65620858,-93.98308093
Missouri,Callaway,930,72,4,0,2020-10-14,38.83674754,-91.92186505
Missouri,Camden,1359,57,21,0,2020-10-14,38.02199522,-92.76083747
Missouri,Cape Girardeau,2327,86,30,3,2020-10-14,37.38489388,-89.6843587
Missouri,Carroll,159,4,2,0,2020-10-14,39.42762566,-93.50626255
Missouri,Carter,141,4,3,0,2020-10-14,36.94160441,-90.96051322
Missouri,Cass,1795,62,28,-1,2020-10-14,38.64789422,-94.353399
Missouri,Cedar,196,16,3,1,2020-10-14,37.72391475,-93.85445441
Missouri,Chariton,54,0,1,0,2020-10-14,39.51499357,-92.9629191
Missouri,Christian,1947,99,8,0,2020-10-14,36.9711783,-93.18537118
Missouri,Clark,92,7,0,0,2020-10-14,40.41040752,-91.73661677
Missouri,Clay,2198,213,47,3,2020-10-14,39.31132056,-94.41850862
Missouri,Clinton,371,38,5,5,2020-10-14,39.6013098,-94.40465394
Missouri,Cole,2203,108,18,2,2020-10-14,38.50455671,-92.27860244
Missouri,Cooper,507,-8,2,-1,2020-10-14,38.844478,-92.80896081
Missouri,Crawford,500,19,6,-1,2020-10-14,37.97663738,-91.30528104
Missouri,Dade,121,14,0,0,2020-10-14,37.431814,-93.8503345
Missouri,Dallas,253,11,1,0,2020-10-14,37.6811355,-93.02127031
Missouri,Daviess,187,15,2,1,2020-10-14,39.96145298,-93.98519678
Missouri,DeKalb,205,16,2,0,2020-10-14,39.89201062,-94.40476508
Missouri,Dent,215,18,2,0,2020-10-14,37.60663134,-91.50790473
Missouri,Douglas,251,3,3,0,2020-10-14,36.9325593,-92.49905109
Missouri,Dunklin,927,-21,11,0,2020-10-14,36.27167174,-90.09122243
Missouri,Franklin,2155,82,35,2,2020-10-14,38.41127108,-91.07522826
Missouri,Gasconade,201,15,24,0,2020-10-14,38.43947277,-91.50847147
Missouri,Gentry,164,16,10,0,2020-10-14,40.21097916,-94.40944419
Missouri,Greene,7941,213,100,4,2020-10-14,37.2575872,-93.34230916
Missouri,Grundy,229,-1,8,1,2020-10-14,40.11406587,-93.56509276
Missouri,Harrison,154,9,1,0,2020-10-14,40.35570088,-93.99222144
Missouri,Henry,308,19,5,0,2020-10-14,38.38482826,-93.79293734
Missouri,Hickory,161,11,3,0,2020-10-14,37.94163617,-93.3203037
Missouri,Holt,95,0,1,0,2020-10-14,40.09799248,-95.2163888
Missouri,Howard,211,11,2,0,2020-10-14,39.1435761,-92.69756691
Missouri,Howell,943,62,4,0,2020-10-14,36.77383887,-91.88683935
Missouri,Iron,78,5,1,1,2020-10-14,37.55487945,-90.7735296
Missouri,Jackson,8901,582,120,4,2020-10-14,39.01002188,-94.34724536
Missouri,Jasper,4558,-88,61,2,2020-10-14,37.20351921,-94.34050458
Missouri,Jefferson,4930,84,71,2,2020-10-14,38.25926778,-90.53870896
Missouri,Johnson,1331,59,12,2,2020-10-14,38.74719601,-93.80691168
Missouri,Knox,57,2,1,0,2020-10-14,40.12699751,-92.14780832
Missouri,Laclede,991,71,15,3,2020-10-14,37.65896829,-92.5888493
Missouri,Lafayette,703,30,19,0,2020-10-14,39.06986886,-93.78076396
Missouri,Lawrence,880,57,14,1,2020-10-14,37.10626634,-93.83293097
Missouri,Lewis,151,1,2,0,2020-10-14,40.09673161,-91.72070156
Missouri,Lincoln,985,37,3,0,2020-10-14,39.05345619,-90.95588181
Missouri,Linn,142,-2,1,0,2020-10-14,39.87001769,-93.10704106
Missouri,Livingston,525,7,4,-1,2020-10-14,39.78110272,-93.54645978
Missouri,McDonald,1167,29,13,1,2020-10-14,36.62869595,-94.34867205
Missouri,Macon,187,5,0,0,2020-10-14,39.83049768,-92.56453089
Missouri,Madison,398,31,1,0,2020-10-14,37.47865134,-90.3467143
Missouri,Maries,119,10,0,0,2020-10-14,38.16193985,-91.92249662
Missouri,Marion,781,16,14,0,2020-10-14,39.80601912,-91.62203062
Missouri,Mercer,31,-1,0,0,2020-10-14,40.42212303,-93.5682959
Missouri,Miller,668,35,3,0,2020-10-14,38.21450288,-92.42610898
Missouri,Mississippi,348,4,4,0,2020-10-14,36.82516239,-89.29505753
Missouri,Moniteau,435,36,6,1,2020-10-14,38.63571781,-92.57976951
Missouri,Monroe,109,9,1,0,2020-10-14,39.49593978,-92.00043978
Missouri,Montgomery,96,6,1,0,2020-10-14,38.94022054,-91.47000721
Missouri,Morgan,526,29,5,0,2020-10-14,38.4181765,-92.88791859
Missouri,New Madrid,661,8,17,0,2020-10-14,36.59666326,-89.66070007
Missouri,Newton,1813,292,16,2,2020-10-14,36.90519407,-94.3394104
Missouri,Nodaway,944,34,10,0,2020-10-14,40.36079813,-94.88133008
Missouri,Oregon,189,16,0,0,2020-10-14,36.68710164,-91.4033755
Missouri,Osage,293,43,3,0,2020-10-14,38.46036182,-91.8613635
Missouri,Ozark,162,4,1,0,2020-10-14,36.64916339,-92.44459066
Missouri,Pemiscot,628,12,12,1,2020-10-14,36.2130572,-89.78742322
Missouri,Perry,721,14,8,0,2020-10-14,37.70660776,-89.82741088
Missouri,Pettis,1309,8,13,0,2020-10-14,38.72798918,-93.28471706
Missouri,Phelps,687,98,18,3,2020-10-14,37.87736118,-91.79351727
Missouri,Pike,287,12,4,0,2020-10-14,39.34310674,-91.16980779
Missouri,Platte,859,57,12,0,2020-10-14,39.38154439,-94.77068479
Missouri,Polk,823,31,9,2,2020-10-14,37.6162296,-93.39828174
Missouri,Pulaski,846,27,8,0,2020-10-14,37.82462075,-92.20783203
Missouri,Putnam,45,4,1,0,2020-10-14,40.47942497,-93.02042674
Missouri,Ralls,172,4,0,0,2020-10-14,39.52817427,-91.51838643
Missouri,Randolph,443,29,2,0,2020-10-14,39.44007257,-92.4971374
Missouri,Ray,215,7,2,0,2020-10-14,39.3537468,-93.98905745
Missouri,Reynolds,50,5,0,0,2020-10-14,37.36085952,-90.97009925
Missouri,Ripley,192,31,3,2,2020-10-14,36.65460667,-90.85990261
Missouri,St. Charles,9086,410,135,8,2020-10-14,38.77875681,-90.66662425
Missouri,St. Clair,97,6,1,1,2020-10-14,38.03699437,-93.77631447
Missouri,Ste. Genevieve,258,9,1,0,2020-10-14,37.89090059,-90.1949941
Missouri,St. Francois,2505,38,19,1,2020-10-14,37.81214171,-90.47598685
Missouri,St. Louis,26881,206,872,33,2020-10-14,38.6377004,-90.4458375
Missouri,Saline,857,5,9,0,2020-10-14,39.13734288,-93.20259964
Missouri,Schuyler,32,1,0,0,2020-10-14,40.46921489,-92.52311943
Missouri,Scotland,45,0,1,0,2020-10-14,40.45214695,-92.14709064
Missouri,Scott,1151,37,18,1,2020-10-14,37.05588075,-89.56474493
Missouri,Shannon,179,5,2,0,2020-10-14,37.15772072,-91.40190382
Missouri,Shelby,88,2,1,0,2020-10-14,39.79742518,-92.07634971
Missouri,Stoddard,693,28,15,0,2020-10-14,36.85571651,-89.9444155
Missouri,Stone,597,27,7,1,2020-10-14,36.75000327,-93.45256475
Missouri,Sullivan,259,12,1,1,2020-10-14,40.2099105,-93.11150106
Missouri,Taney,1479,-1,33,-5,2020-10-14,36.65465345,-93.04075153
Missouri,Texas,489,31,2,0,2020-10-14,37.31728859,-91.96564727
Missouri,Vernon,268,13,3,1,2020-10-14,37.8457799,-94.34127305
Missouri,Warren,546,22,2,1,2020-10-14,38.76529479,-91.16124662
Missouri,Washington,551,7,11,-1,2020-10-14,37.96130078,-90.87948158
Missouri,Wayne,269,9,1,0,2020-10-14,37.11303869,-90.46001416
Missouri,Webster,962,42,6,0,2020-10-14,37.2813734,-92.876329
Missouri,Worth,24,2,0,0,2020-10-14,40.47945588,-94.42328751
Missouri,Wright,521,35,0,0,2020-10-14,37.27029221,-92.46914488
Missouri,St. Louis,26881,206,872,33,2020-10-14,38.6377004,-90.4458375
Montana,Beaverhead,213,1,1,0,2020-10-14,45.13434354,-112.8984694
Montana,Big Horn,1072,18,30,0,2020-10-14,45.42335905,-107.492347
Montana,Blaine,155,9,2,0,2020-10-14,48.43175214,-108.9582723
Montana,Broadwater,26,1,0,0,2020-10-14,46.33277565,-111.4955813
Montana,Carbon,182,10,0,0,2020-10-14,45.22850116,-109.0274047
Montana,Carter,11,0,0,0,2020-10-14,45.5197966,-104.5395536
Montana,Cascade,1178,117,6,0,2020-10-14,47.30797024,-111.3467922
Montana,Chouteau,48,1,0,0,2020-10-14,47.88084126,-110.4353362
Montana,Custer,156,8,2,0,2020-10-14,46.25319932,-105.5737526
Montana,Daniels,11,0,0,0,2020-10-14,48.78420029,-105.5476343
Montana,Dawson,138,9,1,-1,2020-10-14,47.26584855,-104.8944417
Montana,Deer Lodge,271,4,0,0,2020-10-14,46.05953325,-113.073353
Montana,Fallon,27,0,0,0,2020-10-14,46.33478338,-104.4183565
Montana,Fergus,134,5,1,0,2020-10-14,47.26331584,-109.2245206
Montana,Flathead,2209,69,23,0,2020-10-14,48.29575866,-114.0520569
Montana,Gallatin,2012,56,4,0,2020-10-14,45.54486106,-111.1692571
Montana,Garfield,19,1,0,0,2020-10-14,47.27545948,-107.0002351
Montana,Glacier,678,5,1,0,2020-10-14,48.70513576,-112.9934235
Montana,Golden Valley,5,0,0,0,2020-10-14,46.3816474,-109.1768522
Montana,Granite,41,1,0,0,2020-10-14,46.4060522,-113.4414186
Montana,Hill,433,33,8,3,2020-10-14,48.62879827,-110.1129252
Montana,Jefferson,112,1,0,0,2020-10-14,46.14907081,-112.094396
Montana,Judith Basin,11,0,0,0,2020-10-14,47.04581276,-110.2660688
Montana,Lake,372,2,1,0,2020-10-14,47.64514965,-114.0898013
Montana,Lewis and Clark,511,22,3,0,2020-10-14,47.12610041,-112.394698
Montana,Liberty,27,0,0,0,2020-10-14,48.56084317,-111.024307
Montana,Lincoln,208,11,3,0,2020-10-14,48.54265777,-115.4046155
Montana,McCone,36,1,0,0,2020-10-14,47.64469406,-105.7944994
Montana,Madison,126,0,1,0,2020-10-14,45.30080065,-111.9173017
Montana,Meagher,43,0,2,0,2020-10-14,46.59907074,-110.8898557
Montana,Mineral,9,0,0,0,2020-10-14,47.15283992,-115.0015239
Montana,Missoula,1447,54,5,0,2020-10-14,47.03728583,-113.9213508
Montana,Musselshell,49,0,1,0,2020-10-14,46.49684637,-108.39498
Montana,Park,161,6,0,0,2020-10-14,45.48965095,-110.5264394
Montana,Petroleum,3,0,0,0,2020-10-14,47.1182463,-108.2508876
Montana,Phillips,132,1,0,0,2020-10-14,48.25936577,-107.9128511
Montana,Pondera,120,2,1,0,2020-10-14,48.22773388,-112.2252703
Montana,Powder River,39,1,0,0,2020-10-14,45.39617714,-105.636738
Montana,Powell,27,0,0,0,2020-10-14,46.85538891,-112.9359164
Montana,Prairie,28,0,0,0,2020-10-14,46.86048047,-105.379384
Montana,Ravalli,262,27,2,0,2020-10-14,46.08520862,-114.1189164
Montana,Richland,166,-1,2,0,2020-10-14,47.78668011,-104.5610786
Montana,Roosevelt,703,9,13,3,2020-10-14,48.29607488,-105.0079268
Montana,Rosebud,709,1,20,0,2020-10-14,46.23397237,-106.729288
Montana,Sanders,82,8,1,0,2020-10-14,47.67657534,-115.1329916
Montana,Sheridan,34,0,0,0,2020-10-14,48.72085833,-104.503829
Montana,Silver Bow,390,3,0,0,2020-10-14,45.90018933,-112.6620092
Montana,Stillwater,124,0,3,0,2020-10-14,45.67071407,-109.3950061
Montana,Sweet Grass,57,1,2,0,2020-10-14,45.81367654,-109.9425686
Montana,Teton,59,3,0,0,2020-10-14,47.83741052,-112.2410688
Montana,Toole,288,2,6,0,2020-10-14,48.65577551,-111.6942414
Montana,Treasure,10,0,0,0,2020-10-14,46.2097322,-107.2666516
Montana,Valley,200,11,2,0,2020-10-14,48.36435097,-106.6669635
Montana,Wheatland,53,4,1,0,2020-10-14,46.46652491,-109.8464636
Montana,Wibaux,34,3,0,0,2020-10-14,46.95925154,-104.2510927
Montana,Yellowstone,4559,79,77,3,2020-10-14,45.93955949,-108.2691486
Nebraska,Adams,681,19,12,0,2020-10-14,40.5244942,-98.50117804
Nebraska,Antelope,131,3,1,0,2020-10-14,42.17695516,-98.0666283
Nebraska,Arthur,3,0,0,0,2020-10-14,41.56896142,-101.6959559
Nebraska,Banner,2,0,0,0,2020-10-14,41.54634427,-103.7114332
Nebraska,Blaine,3,0,0,0,2020-10-14,41.91311716,-99.97677845
Nebraska,Boone,120,3,0,0,2020-10-14,41.70759415,-98.06737183
Nebraska,Box Butte,133,6,1,0,2020-10-14,42.22079243,-103.0878834
Nebraska,Boyd,47,3,0,0,2020-10-14,42.8997274,-98.76486568
Nebraska,Brown,62,0,0,0,2020-10-14,42.43018907,-99.92904055
Nebraska,Buffalo,1447,26,6,0,2020-10-14,40.85486962,-99.07500296
Nebraska,Burt,98,2,1,0,2020-10-14,41.85056773,-96.32605633
Nebraska,Butler,181,4,1,0,2020-10-14,41.22703692,-97.13106306
Nebraska,Cass,430,10,3,0,2020-10-14,40.90899107,-96.13971217
Nebraska,Cedar,122,5,0,0,2020-10-14,42.5988851,-97.25311951
Nebraska,Chase,105,7,0,0,2020-10-14,40.5237198,-101.6978026
Nebraska,Cherry,58,2,4,0,2020-10-14,42.54502621,-101.1244332
Nebraska,Cheyenne,61,5,1,1,2020-10-14,41.21999357,-102.9941693
Nebraska,Clay,115,6,0,0,2020-10-14,40.52439441,-98.05126296
Nebraska,Colfax,836,6,5,0,2020-10-14,41.57486951,-97.0868542
Nebraska,Cuming,226,7,1,0,2020-10-14,41.91637624,-96.78730772
Nebraska,Custer,153,5,4,0,2020-10-14,41.39374521,-99.72805369
Nebraska,Dakota,2418,14,44,0,2020-10-14,42.39040144,-96.56656425
Nebraska,Dawes,178,8,0,0,2020-10-14,42.71985036,-103.1313774
Nebraska,Dawson,1165,7,14,0,2020-10-14,40.87028216,-99.8201461
Nebraska,Deuel,4,0,0,0,2020-10-14,41.11168186,-102.3333331
Nebraska,Dixon,140,4,2,0,2020-10-14,42.49188363,-96.86782408
Nebraska,Dodge,1428,12,15,0,2020-10-14,41.58071748,-96.65598179
Nebraska,Douglas,18878,228,209,2,2020-10-14,41.29518299,-96.15085305
Nebraska,Dundy,16,1,1,0,2020-10-14,40.17638677,-101.6876522
Nebraska,Fillmore,67,1,1,0,2020-10-14,40.52458567,-97.59646937
Nebraska,Franklin,64,3,0,0,2020-10-14,40.17636348,-98.95299073
Nebraska,Frontier,24,4,0,0,2020-10-14,40.52993007,-100.3924658
Nebraska,Furnas,70,3,2,0,2020-10-14,40.17642064,-99.91247454
Nebraska,Gage,362,11,5,0,2020-10-14,40.26186809,-96.68946704
Nebraska,Garden,13,0,0,0,2020-10-14,41.61703149,-102.3313973
Nebraska,Garfield,14,1,0,0,2020-10-14,41.91428955,-98.99111827
Nebraska,Gosper,51,0,0,0,2020-10-14,40.51481965,-99.83020279
Nebraska,Grant,2,0,0,0,2020-10-14,41.91528587,-101.740701
Nebraska,Greeley,42,0,0,0,2020-10-14,41.56742671,-98.52150266
Nebraska,Hall,2316,44,48,0,2020-10-14,40.87257079,-98.50218293
Nebraska,Hamilton,204,7,12,0,2020-10-14,40.87349452,-98.02099117
Nebraska,Harlan,39,2,0,0,2020-10-14,40.17658508,-99.40438879
Nebraska,Hayes,6,1,0,0,2020-10-14,40.52451972,-101.0603568
Nebraska,Hitchcock,25,2,0,0,2020-10-14,40.17609175,-101.0416477
Nebraska,Holt,184,9,1,0,2020-10-14,42.45522056,-98.78402558
Nebraska,Hooker,18,0,1,0,2020-10-14,41.91586243,-101.1354293
Nebraska,Howard,121,4,5,0,2020-10-14,41.2200529,-98.5166499
Nebraska,Jefferson,46,3,0,0,2020-10-14,40.17584531,-97.142601
Nebraska,Johnson,85,1,0,0,2020-10-14,40.39257596,-96.26522753
Nebraska,Kearney,224,18,0,0,2020-10-14,40.50663314,-98.94877182
Nebraska,Keith,75,1,0,0,2020-10-14,41.19930341,-101.6620164
Nebraska,Keya Paha,8,0,0,0,2020-10-14,42.87990694,-99.71343729
Nebraska,Kimball,31,4,0,0,2020-10-14,41.19774275,-103.7148131
Nebraska,Knox,234,5,0,0,2020-10-14,42.63758421,-97.89178836
Nebraska,Lancaster,7665,124,26,0,2020-10-14,40.78416049,-96.68777155
Nebraska,Lincoln,598,22,4,0,2020-10-14,41.04658298,-100.7475374
Nebraska,Logan,7,-1,0,0,2020-10-14,41.56650314,-100.4817851
Nebraska,Loup,5,0,0,0,2020-10-14,41.91371961,-99.45440415
Nebraska,McPherson,7,0,0,0,2020-10-14,41.56797682,-101.0599362
Nebraska,Madison,996,11,7,0,2020-10-14,41.91676024,-97.6005481
Nebraska,Merrick,110,3,1,0,2020-10-14,41.16624273,-98.0374887
Nebraska,Morrill,85,2,0,0,2020-10-14,41.71711774,-103.0061405
Nebraska,Nance,66,0,0,0,2020-10-14,41.39750195,-97.99327291
Nebraska,Nemaha,151,1,0,0,2020-10-14,40.38514847,-95.85433992
Nebraska,Nuckolls,46,6,0,0,2020-10-14,40.17637905,-98.04743961
Nebraska,Otoe,239,7,1,0,2020-10-14,40.64843556,-96.13374142
Nebraska,Pawnee,24,0,0,0,2020-10-14,40.13141096,-96.23705437
Nebraska,Perkins,37,0,10,0,2020-10-14,40.85082525,-101.6502942
Nebraska,Phelps,198,8,0,0,2020-10-14,40.51156033,-99.41461667
Nebraska,Pierce,144,16,8,0,2020-10-14,42.26434853,-97.60122773
Nebraska,Platte,1303,24,5,0,2020-10-14,41.57246836,-97.52144359
Nebraska,Polk,148,7,1,0,2020-10-14,41.18813488,-97.56630712
Nebraska,Red Willow,131,13,0,0,2020-10-14,40.1755688,-100.476998
Nebraska,Richardson,75,0,2,0,2020-10-14,40.1247415,-95.71755036
Nebraska,Rock,49,-2,1,0,2020-10-14,42.42252217,-99.44832069
Nebraska,Saline,809,6,2,0,2020-10-14,40.52418865,-97.14085859
Nebraska,Sarpy,4680,107,32,0,2020-10-14,41.11314181,-96.11156432
Nebraska,Saunders,579,5,4,0,2020-10-14,41.2278103,-96.63773905
Nebraska,Scotts Bluff,488,8,8,0,2020-10-14,41.85070896,-103.7080986
Nebraska,Seward,278,4,3,0,2020-10-14,40.87241834,-97.139673
Nebraska,Sheridan,74,2,0,0,2020-10-14,42.50284406,-102.4126613
Nebraska,Sherman,33,1,2,0,2020-10-14,41.22045983,-98.97588642
Nebraska,Sioux,11,1,0,0,2020-10-14,42.48932059,-103.7576544
Nebraska,Stanton,55,1,0,0,2020-10-14,41.9169835,-97.19394708
Nebraska,Thayer,41,0,0,0,2020-10-14,40.17626377,-97.59504381
Nebraska,Thomas,8,1,0,0,2020-10-14,41.91358968,-100.5556632
Nebraska,Thurston,297,3,4,0,2020-10-14,42.15725356,-96.54157099
Nebraska,Valley,56,1,0,0,2020-10-14,41.56730777,-98.98197724
Nebraska,Washington,377,4,6,0,2020-10-14,41.52815707,-96.22019892
Nebraska,Wayne,256,2,0,0,2020-10-14,42.20934475,-97.11926964
Nebraska,Webster,51,6,0,0,2020-10-14,40.17642643,-98.50019851
Nebraska,Wheeler,3,0,0,0,2020-10-14,41.91482725,-98.52798941
Nebraska,York,329,27,2,0,2020-10-14,40.87272618,-97.59710186
Nevada,Churchill,179,2,4,0,2020-10-14,39.58105744,-118.3394607
Nevada,Clark,72742,303,1458,14,2020-10-14,36.21458855,-115.0130241
Nevada,Douglas,361,9,1,0,2020-10-14,38.912862,-119.6171333
Nevada,Elko,1112,19,11,0,2020-10-14,41.14531606,-115.3577619
Nevada,Esmeralda,0,0,0,0,2020-10-14,37.78436681,-117.6319999
