State,County,Total Cases,New Cases,Total Deaths,New Deaths,Date,Latitude,Longitude
Alabama,Autauga,1999,10,28,0,2020-10-19,32.53952745,-86.64408227
Alabama,Baldwin,6375,6,67,0,2020-10-19,30.72774991,-87.72207058
Alabama,Barbour,981,0,9,0,2020-10-19,31.868263,-85.3871286
Alabama,Bibb,789,4,13,0,2020-10-19,32.99642064,-87.12511459999997
Alabama,Blount,1838,11,23,0,2020-10-19,33.98210918,-86.56790593
Alabama,Bullock,635,1,17,0,2020-10-19,32.10030533,-85.71265535
Alabama,Butler,998,2,40,0,2020-10-19,31.75300095,-86.68057478
Alabama,Calhoun,4102,18,59,0,2020-10-19,33.77483727,-85.82630386
Alabama,Chambers,1273,7,43,0,2020-10-19,32.91360079,-85.39072749
Alabama,Cherokee,715,1,14,0,2020-10-19,34.17805983,-85.60638968
Alabama,Chilton,1805,18,31,0,2020-10-19,32.85044126,-86.7173256
Alabama,Choctaw,386,0,12,0,2020-10-19,32.02227341,-88.26564429999998
Alabama,Clarke,1267,6,16,0,2020-10-19,31.68099859,-87.83548597
Alabama,Clay,707,4,12,0,2020-10-19,33.26984193,-85.85836077
Alabama,Cleburne,524,4,7,0,2020-10-19,33.67679204,-85.52005899
Alabama,Coffee,1640,11,9,0,2020-10-19,31.39932826,-85.98901039
Alabama,Colbert,1906,17,27,0,2020-10-19,34.69847452,-87.80168544
Alabama,Conecuh,554,0,13,0,2020-10-19,31.43401703,-86.99320044
Alabama,Coosa,196,0,3,0,2020-10-19,32.93690146,-86.24847739
Alabama,Covington,1647,3,29,0,2020-10-19,31.2477854,-86.45050893
Alabama,Crenshaw,590,2,30,0,2020-10-19,31.72941803,-86.31593104
Alabama,Cullman,2258,19,23,0,2020-10-19,34.13020303,-86.86888037
Alabama,Dale,1625,10,51,0,2020-10-19,31.43037123,-85.61095742
Alabama,Dallas,1852,7,27,0,2020-10-19,32.32688101,-87.10866709999998
Alabama,DeKalb,3167,34,27,1,2020-10-19,34.45946862,-85.80782906
Alabama,Elmore,3095,14,52,0,2020-10-19,32.59785413,-86.14415284
Alabama,Escambia,1709,6,28,0,2020-10-19,31.1256789,-87.15918694
Alabama,Etowah,4020,29,49,0,2020-10-19,34.04567266,-86.04051873
Alabama,Fayette,547,7,12,0,2020-10-19,33.72076938,-87.73886638
Alabama,Franklin,1991,10,31,0,2020-10-19,34.44235334,-87.84289505
Alabama,Geneva,833,4,7,0,2020-10-19,31.09389027,-85.83572839
Alabama,Greene,333,0,16,0,2020-10-19,32.85504247,-87.95684022
Alabama,Hale,745,8,29,0,2020-10-19,32.76039258,-87.63284988
Alabama,Henry,631,3,6,0,2020-10-19,31.51148016,-85.24267944
Alabama,Houston,3631,8,32,0,2020-10-19,31.15197924,-85.29939599
Alabama,Jackson,1991,12,14,0,2020-10-19,34.78144169,-85.99750489
Alabama,Jefferson,22400,100,372,0,2020-10-19,33.55554728,-86.89506300000002
Alabama,Lamar,457,2,5,0,2020-10-19,33.77995024,-88.09668032
Alabama,Lauderdale,2063,20,40,0,2020-10-19,34.90171875,-87.65624729
Alabama,Lawrence,792,4,30,0,2020-10-19,34.52041498,-87.31069453
Alabama,Lee,6439,9,66,0,2020-10-19,32.60154883,-85.35132246
Alabama,Limestone,2692,9,27,0,2020-10-19,34.81185586,-86.98310072
Alabama,Lowndes,699,1,27,0,2020-10-19,32.1597283,-86.65158371
Alabama,Macon,529,1,19,0,2020-10-19,32.38759944,-85.69267724
Alabama,Madison,8999,48,92,0,2020-10-19,34.76327133,-86.55069633
Alabama,Marengo,967,3,21,0,2020-10-19,32.24767634,-87.78796182
Alabama,Marion,1042,3,29,0,2020-10-19,34.13697363,-87.88704173
Alabama,Marshall,4267,14,48,0,2020-10-19,34.36975964,-86.30486727
Alabama,Mobile,14282,9,314,0,2020-10-19,30.78472347,-88.20842409
Alabama,Monroe,627,2,9,0,2020-10-19,31.56729412,-87.36995001
Alabama,Montgomery,9691,76,196,0,2020-10-19,32.2206831,-86.20969272
Alabama,Morgan,3945,13,32,0,2020-10-19,34.45500589,-86.85475946
Alabama,Perry,579,0,6,0,2020-10-19,32.64048341,-87.29770589
Alabama,Pickens,803,10,17,0,2020-10-19,33.28094866,-88.08818103
Alabama,Pike,1302,1,12,0,2020-10-19,31.80396383,-85.9408295
Alabama,Randolph,795,2,14,0,2020-10-19,33.29526734,-85.45708831
Alabama,Russell,1902,3,3,0,2020-10-19,32.28725256,-85.18415324
Alabama,St. Clair,2797,30,42,0,2020-10-19,33.71902176,-86.31029372
Alabama,Shelby,7035,33,60,0,2020-10-19,33.26879845,-86.66232561
Alabama,Sumter,464,0,21,0,2020-10-19,32.59117397,-88.19916205
Alabama,Talladega,2550,14,34,0,2020-10-19,33.37823223,-86.16886178
Alabama,Tallapoosa,1272,3,86,0,2020-10-19,32.86698258,-85.79833053
Alabama,Tuscaloosa,9983,97,132,0,2020-10-19,33.28726072,-87.52556818
Alabama,Walker,2680,39,92,0,2020-10-19,33.80270512,-87.30027177
Alabama,Washington,621,1,12,0,2020-10-19,31.4092794,-88.20689944
Alabama,Wilcox,557,3,12,0,2020-10-19,31.98773215,-87.30891118
Alabama,Winston,899,13,13,0,2020-10-19,34.15030532,-87.37325922
Alaska,Aleutians East,5,0,0,0,2020-10-19,55.32222414,-161.9722021
Alaska,Bristol Bay,0,-10,0,0,2020-10-19,58.74513976,-156.701064
Alaska,Denali,17,0,0,0,2020-10-19,63.67264044,-150.0076108
Alaska,Fairbanks North Star,1802,60,13,0,2020-10-19,64.80726247,-146.5692662
Alaska,Haines,6,0,0,0,2020-10-19,59.09893571,-135.4679843
Alaska,Kenai Peninsula,579,11,3,0,2020-10-19,60.24429722,-151.53888840000005
Alaska,Ketchikan Gateway,58,0,0,0,2020-10-19,55.57445008,-130.975561
Alaska,Kodiak Island,47,0,0,0,2020-10-19,57.65529415,-153.7493579
Alaska,Matanuska-Susitna,857,16,3,0,2020-10-19,62.31305045,-149.5741743
Alaska,North Slope,205,1,0,0,2020-10-19,69.31479216,-153.4836093
Alaska,Northwest Arctic,203,0,0,0,2020-10-19,67.04919196,-159.7503946
Arizona,Apache,3781,1,168,0,2020-10-19,35.39465006,-109.4892383
Arizona,Cochise,2034,2,73,0,2020-10-19,31.87934684,-109.7516088
Arizona,Coconino,4746,25,147,0,2020-10-19,35.83883429,-111.7707178
Arizona,Gila,1748,7,65,0,2020-10-19,33.80190085,-110.8132779
Arizona,Graham,1038,10,27,0,2020-10-19,32.93166885,-109.8882178
Arizona,Greenlee,71,-1,1,0,2020-10-19,33.21498827,-109.2405279
Arizona,La Paz,590,1,16,0,2020-10-19,33.72854224,-113.9810029
Arizona,Maricopa,150280,560,3512,2,2020-10-19,33.34835867,-112.4918154
Arizona,Mohave,4182,-1,229,0,2020-10-19,35.70471703,-113.7577902
Arizona,Navajo,6100,4,236,0,2020-10-19,35.3997715,-110.3218983
Arizona,Pima,26955,44,634,0,2020-10-19,32.0971334,-111.7890033
Arizona,Pinal,11379,45,216,1,2020-10-19,32.90525627,-111.3449483
Arizona,Santa Cruz,2956,7,65,0,2020-10-19,31.52508998,-110.8479088
Arizona,Yavapai,2776,0,87,0,2020-10-19,34.59933926,-112.5538588
Arizona,Yuma,13261,44,353,0,2020-10-19,32.76895712,-113.90666740000002
Arkansas,Arkansas,606,4,11,0,2020-10-19,34.29145151,-91.37277296
Arkansas,Ashley,501,3,12,0,2020-10-19,33.19153461,-91.7698471
Arkansas,Baxter,552,2,7,0,2020-10-19,36.28784385,-92.33782872
Arkansas,Benton,7632,33,110,0,2020-10-19,36.33644656,-94.25680817
Arkansas,Boone,951,0,29,0,2020-10-19,36.3084504,-93.09374925
Arkansas,Bradley,358,2,8,0,2020-10-19,33.46755808,-92.15980837
Arkansas,Calhoun,42,0,0,0,2020-10-19,33.55598792,-92.49974403
Arkansas,Carroll,937,10,12,0,2020-10-19,36.34038560000001,-93.54270261
Arkansas,Chicot,1031,1,22,0,2020-10-19,33.26458973,-91.29539209
Arkansas,Clark,467,4,4,0,2020-10-19,34.04613432,-93.17484713
Arkansas,Clay,430,1,11,0,2020-10-19,36.36826212,-90.4148172
Arkansas,Cleburne,433,2,14,0,2020-10-19,35.53864922,-92.02640019
Arkansas,Cleveland,206,2,12,0,2020-10-19,33.89723187,-92.18537045
Arkansas,Columbia,658,4,19,0,2020-10-19,33.21230701,-93.22642793
Arkansas,Conway,329,0,3,0,2020-10-19,35.26205537,-92.70506566
Arkansas,Craighead,4072,46,36,0,2020-10-19,35.83018283,-90.63235729
Arkansas,Crawford,1877,10,25,0,2020-10-19,35.58928601,-94.2446814
Arkansas,Crittenden,2190,6,51,0,2020-10-19,35.21247318,-90.30839406
Arkansas,Cross,544,6,21,1,2020-10-19,35.29631396,-90.77185818
Arkansas,Dallas,177,0,5,0,2020-10-19,33.97042763,-92.65167437
Arkansas,Desha,377,3,7,0,2020-10-19,33.83011025,-91.25500948
Arkansas,Drew,403,0,7,0,2020-10-19,33.59035001,-91.71777921
Arkansas,Faulkner,3140,8,29,0,2020-10-19,35.14719007,-92.33717519
Arkansas,Franklin,465,7,2,0,2020-10-19,35.51202821,-93.89299569
Arkansas,Fulton,275,1,9,1,2020-10-19,36.38177105,-91.81729127
Arkansas,Garland,2259,13,62,0,2020-10-19,34.57692074,-93.14921604
Arkansas,Grant,335,1,4,0,2020-10-19,34.29017991,-92.42320562
Arkansas,Greene,1259,13,16,0,2020-10-19,36.11735460000001,-90.55832668
Arkansas,Hempstead,505,4,5,0,2020-10-19,33.73325583,-93.66935133
Arkansas,Hot Spring,2109,4,32,0,2020-10-19,34.31709259,-92.95396325
Arkansas,Howard,544,5,13,0,2020-10-19,34.09007427,-93.9934871
Arkansas,Independence,1381,13,39,1,2020-10-19,35.74242707,-91.57001641
Arkansas,Izard,423,15,1,0,2020-10-19,36.09604046,-91.90847954
Arkansas,Jackson,619,5,5,0,2020-10-19,35.59802983,-91.21494602
Arkansas,Jefferson,3967,34,100,2,2020-10-19,34.26767081,-91.92619839
Arkansas,Johnson,942,1,7,0,2020-10-19,35.56759135,-93.46036368
Arkansas,Lafayette,153,2,3,0,2020-10-19,33.24116713,-93.60677071
Arkansas,Lawrence,731,9,14,0,2020-10-19,36.04188196,-91.10867198
Arkansas,Lee,1102,2,18,0,2020-10-19,34.78498904,-90.78383866
Arkansas,Lincoln,2219,0,17,0,2020-10-19,33.95317155,-91.74002806
Arkansas,Little River,417,4,35,0,2020-10-19,33.70375665,-94.23468591
Arkansas,Logan,549,7,2,0,2020-10-19,35.21413234,-93.71951016
Arkansas,Lonoke,1530,13,23,0,2020-10-19,34.75392199,-91.88742357
Arkansas,Madison,411,2,5,0,2020-10-19,36.01038185,-93.72524943
Arkansas,Marion,133,2,2,0,2020-10-19,36.26844485,-92.68451899
Arkansas,Miller,1193,18,15,0,2020-10-19,33.31403423,-93.89285258
Arkansas,Mississippi,2078,19,63,1,2020-10-19,35.76271485,-90.05194370000002
Arkansas,Monroe,199,1,0,0,2020-10-19,34.6815935,-91.20540287
Arkansas,Montgomery,180,1,8,0,2020-10-19,34.53704874,-93.65824478
Arkansas,Nevada,269,3,14,0,2020-10-19,33.66340119,-93.30632432
Arkansas,Newton,287,0,19,0,2020-10-19,35.91947491,-93.21612969
Arkansas,Ouachita,336,3,7,0,2020-10-19,33.58839816,-92.87795984
Arkansas,Perry,125,1,0,0,2020-10-19,34.9459153,-92.94372564
Arkansas,Phillips,686,4,15,0,2020-10-19,34.43268455,-90.84800154
Arkansas,Pike,254,0,1,0,2020-10-19,34.16250414,-93.65789349
Arkansas,Poinsett,926,12,17,1,2020-10-19,35.57433534,-90.66268713
Arkansas,Polk,342,0,4,0,2020-10-19,34.48254879,-94.22728802
Arkansas,Pope,2557,6,36,0,2020-10-19,35.44871474,-93.03212219
Arkansas,Prairie,193,1,4,0,2020-10-19,34.83624419,-91.55162157
Arkansas,Pulaski,11175,65,193,0,2020-10-19,34.77054088,-92.31355101
Arkansas,Randolph,593,5,23,0,2020-10-19,36.3415714,-91.02455531
Arkansas,St. Francis,1657,5,10,0,2020-10-19,35.02201976,-90.74828138
Arkansas,Saline,2599,7,28,0,2020-10-19,34.64916145,-92.67583224
Arkansas,Scott,148,1,1,0,2020-10-19,34.85588887,-94.0632176
Arkansas,Searcy,178,1,1,0,2020-10-19,35.9109364,-92.69936482
Arkansas,Sebastian,4563,24,88,1,2020-10-19,35.19605503,-94.27162713
Arkansas,Sevier,1274,3,16,0,2020-10-19,33.99780401,-94.2424869
Arkansas,Sharp,306,3,9,0,2020-10-19,36.16258158,-91.47819342
Arkansas,Stone,389,0,21,1,2020-10-19,35.86251946,-92.15684085
Arkansas,Union,1073,1,47,0,2020-10-19,33.16887091,-92.59746952
Arkansas,Van Buren,200,0,3,0,2020-10-19,35.58095779,-92.51295036
Arkansas,Washington,10889,38,140,1,2020-10-19,35.976844,-94.21800746
Arkansas,White,1287,12,32,0,2020-10-19,35.25688493,-91.74908296
Arkansas,Woodruff,90,2,0,0,2020-10-19,35.18902527,-91.2439489
Arkansas,Yell,1320,-1,30,0,2020-10-19,35.00292371,-93.41171338
California,Alameda,22738,102,433,-9,2020-10-19,37.64629437,-121.8929271
California,Alpine,3,0,0,0,2020-10-19,38.59678594,-119.8223594
California,Amador,313,4,16,0,2020-10-19,38.44583082,-120.65696
California,Butte,3019,7,50,0,2020-10-19,39.66727762,-121.6005252
California,Calaveras,333,0,17,0,2020-10-19,38.20537103,-120.552913
California,Colusa,545,0,6,0,2020-10-19,39.17881957,-122.2331726
California,Contra Costa,18157,103,234,0,2020-10-19,37.91923498,-121.9289527
California,Del Norte,173,0,1,0,2020-10-19,41.74228275,-123.8974063
California,El Dorado,1283,6,4,0,2020-10-19,38.77965956,-120.5233166
California,Fresno,30051,140,429,0,2020-10-19,36.75733899,-119.6466953
California,Glenn,639,0,3,0,2020-10-19,39.59875897,-122.3938452
California,Humboldt,554,10,9,1,2020-10-19,40.69923009,-123.876044
California,Imperial,12475,65,335,0,2020-10-19,33.0393082,-115.3669042
California,Inyo,215,3,15,0,2020-10-19,36.51112084,-117.41119779999998
California,Kern,33448,75,410,0,2020-10-19,35.34329425,-118.7277796
California,Kings,8159,8,83,0,2020-10-19,36.07409056,-119.8159973
California,Lake,670,7,15,0,2020-10-19,39.10124298,-122.7536244
California,Lassen,757,0,1,0,2020-10-19,40.67311306,-120.59350990000002
California,Los Angeles,289366,915,6877,1,2020-10-19,34.30828379,-118.2282411
California,Madera,4886,50,73,0,2020-10-19,37.21513971,-119.76655890000002
California,Marin,7019,18,124,0,2020-10-19,38.07122463,-122.7210631
California,Mariposa,78,0,2,0,2020-10-19,37.57978556,-119.9073334
California,Mendocino,1103,14,21,0,2020-10-19,39.4381191,-123.3911313
California,Merced,9314,0,152,0,2020-10-19,37.18922369,-120.7209035
California,Modoc,27,0,0,0,2020-10-19,41.58965602,-120.7244817
California,Mono,175,0,2,0,2020-10-19,37.93899289,-118.8872409
California,Monterey,11091,69,83,0,2020-10-19,36.21862405,-121.2413397
California,Napa,1882,16,14,0,2020-10-19,38.50735751,-122.332839
California,Nevada,582,1,8,0,2020-10-19,39.30394768,-120.7627281
California,Orange,57071,203,1410,1,2020-10-19,33.70147516,-117.76459979999998
California,Placer,3978,80,52,0,2020-10-19,39.06167234,-120.7240569
California,Plumas,54,0,0,0,2020-10-19,40.00355989,-120.8395236
California,Riverside,64075,791,1272,3,2020-10-19,33.74314981,-115.9933578
California,Sacramento,24425,121,468,0,2020-10-19,38.45106826,-121.3425374
California,San Benito,1403,2,14,0,2020-10-19,36.60308176,-121.069975
California,San Bernardino,59779,83,1021,0,2020-10-19,34.84060306,-116.1774685
California,San Diego,52735,380,853,0,2020-10-19,33.03484597,-116.7365326
California,San Joaquin,21187,0,484,0,2020-10-19,37.93433732,-121.2730061
California,San Luis Obispo,4009,24,32,0,2020-10-19,35.38822029,-120.4039028
California,San Mateo,10810,67,157,0,2020-10-19,37.4228808,-122.32755459999998
California,Santa Barbara,9608,20,119,0,2020-10-19,34.65329488,-120.0188492
California,Santa Clara,23355,131,378,5,2020-10-19,37.23104908,-121.6970462
California,Santa Cruz,2706,10,23,0,2020-10-19,37.05580291,-122.0066524
California,Shasta,1723,44,29,0,2020-10-19,40.76391419,-122.0396884
California,Sierra,6,0,0,0,2020-10-19,39.57713498,-120.52007009999998
California,Siskiyou,184,0,0,0,2020-10-19,41.59198861,-122.5407434
California,Solano,7117,108,74,0,2020-10-19,38.26827353,-121.9357113
California,Sonoma,8934,124,129,0,2020-10-19,38.52746429,-122.8862506
California,Stanislaus,17341,49,392,1,2020-10-19,37.55862499,-120.9970722
California,Sutter,1796,0,12,0,2020-10-19,39.03417539,-121.6945899
California,Tehama,774,10,8,0,2020-10-19,40.12570935,-122.2370171
California,Trinity,23,3,0,0,2020-10-19,40.64917670000001,-123.114713
California,Tulare,17120,0,275,0,2020-10-19,36.22026558,-118.8020203
California,Tuolumne,249,0,4,0,2020-10-19,38.02644018,-119.9525093
California,Ventura,13901,56,160,0,2020-10-19,34.44465746,-119.0910613
California,Yolo,3073,10,56,0,2020-10-19,38.68278902,-121.9018288
California,Yuba,1253,0,10,0,2020-10-19,39.26255932,-121.3535644
Colorado,Adams,12020,189,248,0,2020-10-19,39.87432092,-104.3362578
Colorado,Alamosa,285,1,9,0,2020-10-19,37.57250606,-105.7885451
Colorado,Arapahoe,11252,110,377,0,2020-10-19,39.64977461,-104.3353617
Colorado,Archuleta,61,0,0,0,2020-10-19,37.19474156,-107.0476867
Colorado,Baca,24,1,0,0,2020-10-19,37.31940883,-102.5603223
Colorado,Bent,12,0,0,0,2020-10-19,37.95474293,-103.0720195
Colorado,Boulder,5042,46,84,0,2020-10-19,40.09313619,-105.3546767
Colorado,Chaffee,372,2,20,0,2020-10-19,38.74745778,-106.19265729999998
Colorado,Cheyenne,14,0,0,0,2020-10-19,38.82777431,-102.6032558
Colorado,Clear Creek,63,0,1,0,2020-10-19,39.68864463,-105.6463118
Colorado,Conejos,53,1,0,0,2020-10-19,37.201606,-106.19174879999998
Colorado,Costilla,35,1,1,0,2020-10-19,37.27732493,-105.4276548
Colorado,Crowley,81,1,1,0,2020-10-19,38.32608609,-103.7844965
Colorado,Custer,19,0,0,0,2020-10-19,38.10883162,-105.3683478
Colorado,Delta,195,0,4,0,2020-10-19,38.86246243,-107.8631342
Colorado,Dolores,3,0,0,0,2020-10-19,37.75208676,-108.5211585
Colorado,Douglas,3354,58,63,0,2020-10-19,39.33133796,-104.930001
Colorado,Eagle,1344,2,10,0,2020-10-19,39.62754308,-106.6933637
Colorado,Elbert,183,3,3,0,2020-10-19,39.28656773,-104.1358721
Colorado,El Paso,8582,123,188,1,2020-10-19,38.83240149,-104.5251411
Colorado,Fremont,513,46,1,0,2020-10-19,38.47362326,-105.4399667
Colorado,Garfield,1074,11,5,0,2020-10-19,39.59921777,-107.902708
Colorado,Gilpin,24,3,0,0,2020-10-19,39.85646523,-105.5252597
Colorado,Grand,139,5,1,0,2020-10-19,40.10603347,-106.1178042
Colorado,Gunnison,299,2,7,0,2020-10-19,38.66611652,-107.0320729
Colorado,Hinsdale,3,0,0,0,2020-10-19,37.82247444,-107.3004345
Colorado,Huerfano,28,-1,2,0,2020-10-19,37.68473101,-104.9612585
Colorado,Jackson,9,0,0,0,2020-10-19,40.66593870000001,-106.3408905
Colorado,Jefferson,7252,84,299,0,2020-10-19,39.58635604,-105.2517692
Colorado,Kiowa,3,0,0,0,2020-10-19,38.43260896,-102.7392145
Colorado,Kit Carson,103,0,3,0,2020-10-19,39.30497777,-102.6022199
Colorado,Lake,118,1,0,0,2020-10-19,39.20278823,-106.3555697
Colorado,La Plata,325,5,2,0,2020-10-19,37.28632032,-107.8429014
Colorado,Larimer,3547,47,55,0,2020-10-19,40.66671597,-105.4625784
Colorado,Las Animas,50,6,1,0,2020-10-19,37.3153406,-104.0376458
Colorado,Lincoln,24,0,0,0,2020-10-19,38.98749519,-103.5136649
Colorado,Logan,1089,8,10,0,2020-10-19,40.7249637,-103.110817
Colorado,Mesa,1038,23,8,0,2020-10-19,39.01787888,-108.469799
Colorado,Mineral,21,0,0,0,2020-10-19,37.66954283,-106.9281698
Colorado,Moffat,53,2,1,0,2020-10-19,40.61810999,-108.2070876
Colorado,Montezuma,184,2,5,0,2020-10-19,37.33859579,-108.5958857
Colorado,Montrose,422,2,13,0,2020-10-19,38.40214114,-108.26390220000002
Colorado,Morgan,817,3,48,0,2020-10-19,40.26279810000001,-103.8093302
Colorado,Otero,119,4,6,0,2020-10-19,37.9014485,-103.7173385
Colorado,Ouray,33,1,1,0,2020-10-19,38.14717457,-107.7675136
Colorado,Park,81,1,1,0,2020-10-19,39.120926,-105.7182065
Colorado,Phillips,37,0,0,0,2020-10-19,40.59414277,-102.3577703
Colorado,Pitkin,256,-2,2,0,2020-10-19,39.21720112,-106.9310027
Colorado,Prowers,120,3,0,0,2020-10-19,37.95544985,-102.3926052
Colorado,Pueblo,1613,31,40,0,2020-10-19,38.17359144,-104.5127437
Colorado,Rio Blanco,25,0,0,0,2020-10-19,39.97913541,-108.2179009
Colorado,Rio Grande,115,1,2,0,2020-10-19,37.5836865,-106.3847838
Colorado,Routt,187,0,8,0,2020-10-19,40.48596505,-106.9905548
Colorado,Saguache,119,0,2,0,2020-10-19,38.08054629,-106.282466
Colorado,San Juan,6,0,0,0,2020-10-19,37.76248981,-107.67632890000002
Colorado,San Miguel,100,0,0,0,2020-10-19,38.00450883,-108.4020725
Colorado,Sedgwick,26,1,1,0,2020-10-19,40.87595412,-102.3519227
Colorado,Summit,567,4,4,0,2020-10-19,39.63803232,-106.1150762
Colorado,Teller,195,3,4,0,2020-10-19,38.88133511,-105.1614893
Colorado,Washington,78,0,0,0,2020-10-19,39.97015535,-103.202587
Colorado,Weld,5442,50,158,2,2020-10-19,40.55499405,-104.3929621
Colorado,Yuma,188,9,1,0,2020-10-19,40.00346839,-102.4258673
Connecticut,Fairfield,21674,306,1429,2,2020-10-19,41.26809896,-73.3881171
Connecticut,Hartford,16568,295,1449,4,2020-10-19,41.80283011,-72.73103891
Connecticut,Litchfield,2033,42,143,0,2020-10-19,41.7937534,-73.2451475
Connecticut,Middlesex,1809,55,195,1,2020-10-19,41.45949668,-72.53714864
Connecticut,New Haven,15680,225,1120,1,2020-10-19,41.4080325,-72.93620426
Connecticut,New London,3234,151,134,4,2020-10-19,41.48896435,-72.10430976
Connecticut,Tolland,1600,35,67,0,2020-10-19,41.85853803,-72.3308481
Connecticut,Windham,1266,50,17,0,2020-10-19,41.82972709,-71.98182316
Delaware,Kent,3345,14,119,0,2020-10-19,39.08646628,-75.56884914
Delaware,New Castle,12200,47,333,1,2020-10-19,39.57992638,-75.64054974
Delaware,Sussex,7560,42,214,0,2020-10-19,38.66143781,-75.39031349
Florida,Alachua,9496,44,73,2,2020-10-19,29.67866525,-82.35928158
Florida,Baker,1691,6,17,0,2020-10-19,30.33060121,-82.28467476
Florida,Bay,6450,1,128,1,2020-10-19,30.26548745,-85.62122584
Florida,Bradford,1202,0,12,0,2020-10-19,29.95079741,-82.16611613
Florida,Brevard,10427,30,347,2,2020-10-19,28.29409504,-80.73091022
Florida,Broward,81277,170,1515,5,2020-10-19,26.15184651,-80.48725556
Florida,Calhoun,670,1,14,0,2020-10-19,30.40666734,-85.19394153
Florida,Charlotte,3368,5,154,0,2020-10-19,26.90131002,-81.92949121
Florida,Citrus,3045,5,131,1,2020-10-19,28.84804315,-82.47614748
Florida,Clay,5745,23,116,0,2020-10-19,29.98319144,-81.85609986
Florida,Collier,13653,32,246,1,2020-10-19,26.11091986,-81.34687065
Florida,Columbia,4108,1,71,0,2020-10-19,30.22509788,-82.62160164
Florida,DeSoto,1627,1,28,0,2020-10-19,27.18677893,-81.80941373
Florida,Dixie,868,0,11,0,2020-10-19,29.60631086,-83.15724673
Florida,Duval,32951,64,511,3,2020-10-19,30.33225875,-81.66976468
Florida,Escambia,12997,8,269,0,2020-10-19,30.67652764,-87.37284571
Florida,Flagler,1971,15,37,2,2020-10-19,29.45933576,-81.31508595
Florida,Franklin,718,19,4,0,2020-10-19,29.83791238,-84.82731662
Florida,Gadsden,3031,1,54,0,2020-10-19,30.57796289,-84.61915825
Florida,Gilchrist,540,0,18,1,2020-10-19,29.72856978,-82.79880657
Florida,Glades,588,1,6,0,2020-10-19,26.95635849,-81.18996211
Florida,Gulf,925,1,15,0,2020-10-19,29.93543004,-85.24270990000002
Florida,Hamilton,889,0,9,0,2020-10-19,30.49673973,-82.94998918
Florida,Hardee,1534,1,13,0,2020-10-19,27.49293939,-81.80956574
Florida,Hendry,2160,6,43,0,2020-10-19,26.55386945,-81.16469006
Florida,Hernando,3458,7,156,1,2020-10-19,28.55364461,-82.42700204
Florida,Highlands,2443,1,103,1,2020-10-19,27.34254618,-81.34071957
Florida,Hillsborough,45538,83,751,1,2020-10-19,27.9276559,-82.32013172
Florida,Holmes,836,1,11,0,2020-10-19,30.86747479,-85.81319222
Florida,Indian River,3551,9,122,0,2020-10-19,27.69308961,-80.60556721
Florida,Jackson,3047,5,83,0,2020-10-19,30.7954597,-85.21500423
Florida,Jefferson,626,1,9,0,2020-10-19,30.43669112,-83.89442308
Florida,Lafayette,1262,1,15,0,2020-10-19,29.98484137,-83.18166636
Florida,Lake,8195,27,218,0,2020-10-19,28.76202069,-81.7125123
Florida,Lee,22023,61,494,2,2020-10-19,26.58410348,-81.88399313
Florida,Leon,11646,7,99,1,2020-10-19,30.45955727,-84.27491114
Florida,Levy,1101,0,11,0,2020-10-19,29.31829741,-82.74007147
Florida,Liberty,525,1,10,0,2020-10-19,30.23766008,-84.8829258
Florida,Madison,1059,0,24,0,2020-10-19,30.44396917,-83.47398594
Florida,Manatee,12584,46,320,0,2020-10-19,27.47196942,-82.31831044
Florida,Marion,10458,14,335,0,2020-10-19,29.21227113,-82.05803627
Florida,Martin,5181,8,158,3,2020-10-19,27.0772071,-80.43109784
Florida,Miami-Dade,178726,372,3547,7,2020-10-19,25.6112362,-80.55170587
Florida,Monroe,2080,31,25,0,2020-10-19,25.20904673,-81.07812416
Florida,Nassau,2343,1,50,0,2020-10-19,30.61037141,-81.80297522
Florida,Okaloosa,5820,27,129,1,2020-10-19,30.69143028,-86.59267105
Florida,Okeechobee,1666,1,37,0,2020-10-19,27.386336199999995,-80.88944347
Florida,Orange,43621,168,534,4,2020-10-19,28.51367621,-81.31799498
Florida,Osceola,13501,27,182,1,2020-10-19,28.06312234,-81.14882926
Florida,Palm Beach,49068,57,1497,7,2020-10-19,26.64676272,-80.46536002
Florida,Pasco,10238,22,224,-1,2020-10-19,28.30810945,-82.40227529
Florida,Pinellas,24169,70,801,1,2020-10-19,27.93130349,-82.72239666
Florida,Polk,21837,57,589,3,2020-10-19,27.95027105,-81.69732947
Florida,Putnam,2272,3,48,0,2020-10-19,29.60779729,-81.74230285
Florida,St. Johns,5990,11,78,0,2020-10-19,29.90096506,-81.43589967
Florida,St. Lucie,8616,17,318,1,2020-10-19,27.37763908,-80.47106649
Florida,Santa Rosa,5725,3,85,0,2020-10-19,30.693414500000006,-87.02458128
Florida,Sarasota,9057,37,311,0,2020-10-19,27.18546175,-82.33174248
Florida,Seminole,9737,26,235,0,2020-10-19,28.7158582,-81.24060348
Florida,Sumter,2754,-2,80,1,2020-10-19,28.70181754,-82.0794267
Florida,Suwannee,2922,3,77,0,2020-10-19,30.19746066,-82.99099670000003
Florida,Taylor,1424,2,15,0,2020-10-19,30.04848048,-83.60445406
Florida,Union,1082,1,28,1,2020-10-19,30.04412971,-82.37497443
Florida,Volusia,11976,33,307,1,2020-10-19,29.05858895,-81.18263252
Florida,Wakulla,1252,6,10,0,2020-10-19,30.16548905,-84.39895211
Florida,Walton,2227,10,29,0,2020-10-19,30.64204028,-86.16935664
Florida,Washington,1176,5,24,0,2020-10-19,30.61359259,-85.66002461
Georgia,Appling,1134,4,35,0,2020-10-19,31.74847232,-82.28909114
Georgia,Atkinson,472,1,5,0,2020-10-19,31.29633502,-82.87545866
Georgia,Bacon,623,0,14,0,2020-10-19,31.55456473,-82.45936528
Georgia,Baker,87,0,6,0,2020-10-19,31.32669878,-84.44218806
Georgia,Baldwin,2250,5,63,0,2020-10-19,33.06882326,-83.24701748
Georgia,Banks,541,1,8,0,2020-10-19,34.35607081,-83.49644388
Georgia,Barrow,2487,8,50,0,2020-10-19,33.99148694,-83.71436292
Georgia,Bartow,3367,17,92,0,2020-10-19,34.23732119,-84.83887523
Georgia,Ben Hill,846,0,32,0,2020-10-19,31.76095874,-83.22145359
Georgia,Berrien,478,0,12,0,2020-10-19,31.27590016,-83.22529920000002
Georgia,Bibb,6474,16,188,0,2020-10-19,32.80904227,-83.70489165
Georgia,Bleckley,501,2,21,0,2020-10-19,32.43829035,-83.33035166
Georgia,Brantley,408,4,12,0,2020-10-19,31.19576557,-81.97743999
Georgia,Brooks,544,0,26,0,2020-10-19,30.83922642,-83.58303423
Georgia,Bryan,1264,4,14,0,2020-10-19,32.00979311,-81.44002948
Georgia,Bulloch,3019,4,33,0,2020-10-19,32.39577406,-81.74811421
Georgia,Burke,869,0,11,0,2020-10-19,33.05917989,-81.99928721
Georgia,Butts,724,1,43,0,2020-10-19,33.283094500000004,-83.95435040000002
Georgia,Calhoun,261,0,9,0,2020-10-19,31.53169785,-84.62725131
Georgia,Camden,1385,1,17,0,2020-10-19,30.92951916,-81.66601818
Georgia,Candler,522,2,24,0,2020-10-19,32.40209349,-82.07702563
Georgia,Carroll,3184,14,75,1,2020-10-19,33.58138199,-85.07976677
Georgia,Catoosa,1345,4,20,0,2020-10-19,34.89872298,-85.13757014
Georgia,Charlton,643,0,10,0,2020-10-19,30.78371028,-82.13951596
Georgia,Chatham,9125,24,182,1,2020-10-19,32.00043026,-81.12489526
Georgia,Chattahoochee,1718,0,1,0,2020-10-19,32.34341231,-84.78809239
Georgia,Chattooga,875,1,27,0,2020-10-19,34.47197698,-85.34535662
Georgia,Cherokee,6756,10,100,0,2020-10-19,34.24393976,-84.47431861
Georgia,Clarke,5551,0,46,0,2020-10-19,33.95436462,-83.37124007
Georgia,Clay,122,0,3,0,2020-10-19,31.62221166,-84.97713865
Georgia,Clayton,7859,17,174,0,2020-10-19,33.54187245,-84.35594188
Georgia,Clinch,424,2,12,0,2020-10-19,30.91395822,-82.70432472
Georgia,Cobb,21196,38,448,1,2020-10-19,33.94243204,-84.5761255
Georgia,Coffee,2187,1,59,0,2020-10-19,31.54892966,-82.85492059999999
Georgia,Colquitt,2072,2,39,0,2020-10-19,31.18810588,-83.7677946
Georgia,Columbia,4180,16,64,0,2020-10-19,33.54534185,-82.263524
Georgia,Cook,571,0,16,1,2020-10-19,31.16068491,-83.42947229
Georgia,Coweta,2861,10,60,0,2020-10-19,33.35334302,-84.76129976
Georgia,Crawford,189,0,6,0,2020-10-19,32.71391813,-83.98061238
Georgia,Crisp,631,0,23,0,2020-10-19,31.92289565,-83.76811843
Georgia,Dade,325,1,5,0,2020-10-19,34.854916700000004,-85.50490424
Georgia,Dawson,886,0,10,0,2020-10-19,34.44244079,-84.16964071
Georgia,Decatur,1260,1,34,0,2020-10-19,30.87967778,-84.57619536
Georgia,DeKalb,20306,31,390,0,2020-10-19,33.76944049,-84.22396017
Georgia,Dodge,526,5,14,0,2020-10-19,32.17265114,-83.16948926
Georgia,Dooly,360,1,16,0,2020-10-19,32.15630737,-83.79746561
Georgia,Dougherty,3267,5,190,0,2020-10-19,31.53328528,-84.21722377
Georgia,Douglas,3948,3,71,0,2020-10-19,33.70291126,-84.77026156
Georgia,Early,530,1,34,0,2020-10-19,31.32155345,-84.90255207
Georgia,Echols,244,0,2,0,2020-10-19,30.71101099,-82.89687287
Georgia,Effingham,1707,18,28,0,2020-10-19,32.36616021,-81.34280942
Georgia,Elbert,749,5,8,0,2020-10-19,34.11302332,-82.83936148
Georgia,Emanuel,1165,2,36,0,2020-10-19,32.59221302,-82.30239915
Georgia,Evans,464,3,6,0,2020-10-19,32.15328841,-81.8870105
Georgia,Fannin,780,0,28,0,2020-10-19,34.86430205,-84.316964
Georgia,Fayette,2049,9,53,1,2020-10-19,33.41357794,-84.49089434
Georgia,Floyd,3626,16,55,0,2020-10-19,34.26268279,-85.21577392
Georgia,Forsyth,4560,10,52,1,2020-10-19,34.22604035,-84.12315129999998
Georgia,Franklin,843,9,17,0,2020-10-19,34.37525597,-83.23159927
Georgia,Fulton,29885,66,607,1,2020-10-19,33.79216944,-84.46319413
Georgia,Gilmer,982,3,19,0,2020-10-19,34.69316688,-84.45802506
Georgia,Glascock,43,0,2,0,2020-10-19,33.22879932,-82.61297636
Georgia,Glynn,3628,5,101,0,2020-10-19,31.23279254,-81.53811412
Georgia,Gordon,2158,4,42,0,2020-10-19,34.50487351,-84.87296253
Georgia,Grady,843,0,25,0,2020-10-19,30.87454847,-84.23418364
Georgia,Greene,556,1,25,0,2020-10-19,33.5769205,-83.17139104
Georgia,Gwinnett,29748,59,434,1,2020-10-19,33.96044201,-84.02137802
Georgia,Habersham,1829,1,75,1,2020-10-19,34.63331566,-83.53094677
Georgia,Hall,10345,14,168,0,2020-10-19,34.32207823,-83.81896936
Georgia,Hancock,412,0,44,0,2020-10-19,33.2721566,-82.99766919
Georgia,Haralson,600,2,10,0,2020-10-19,33.79602175,-85.21005667
Georgia,Harris,837,2,25,0,2020-10-19,32.73709786,-84.90538572
Georgia,Hart,559,3,16,0,2020-10-19,34.34626973,-82.96567682
Georgia,Heard,212,2,6,0,2020-10-19,33.29686567,-85.12886832
Georgia,Henry,5936,31,111,1,2020-10-19,33.4533428,-84.14814659999998
Georgia,Houston,3449,15,89,0,2020-10-19,32.45802497,-83.66879087
Georgia,Irwin,347,0,6,0,2020-10-19,31.60213036,-83.27501387
Georgia,Jackson,2259,6,40,0,2020-10-19,34.13794553,-83.56814788
Georgia,Jasper,242,1,4,0,2020-10-19,33.31535543,-83.68844964
Georgia,Jeff Davis,773,-1,22,0,2020-10-19,31.80405727,-82.63724870000001
Georgia,Jefferson,835,4,32,0,2020-10-19,33.05867328,-82.41609057
Georgia,Jenkins,462,0,32,0,2020-10-19,32.79248718,-81.96040187
Georgia,Johnson,438,0,22,0,2020-10-19,32.70211082,-82.66166794
Georgia,Jones,628,1,14,0,2020-10-19,33.02512137,-83.56019163
Georgia,Lamar,402,0,19,0,2020-10-19,33.07841647,-84.14263877
Georgia,Lanier,314,0,7,0,2020-10-19,31.038285700000007,-83.06472457
Georgia,Laurens,1904,8,86,0,2020-10-19,32.46325233,-82.92221316
Georgia,Lee,739,2,27,0,2020-10-19,31.779330600000005,-84.14324253
Georgia,Liberty,1201,5,24,0,2020-10-19,31.82588896,-81.49251135
Georgia,Lincoln,222,1,7,0,2020-10-19,33.79201475,-82.45024131
Georgia,Long,271,2,4,0,2020-10-19,31.75218791,-81.74952375
Georgia,Lowndes,4310,10,85,0,2020-10-19,30.83568832,-83.27056716
Georgia,Lumpkin,1012,0,14,0,2020-10-19,34.57286511,-84.00425681
Georgia,McDuffie,664,2,15,0,2020-10-19,33.47851918,-82.48252774
Georgia,McIntosh,300,0,7,0,2020-10-19,31.49683595,-81.40163426
Georgia,Macon,242,0,10,0,2020-10-19,32.35207048,-84.04234127
Georgia,Madison,755,1,11,0,2020-10-19,34.12920917,-83.21218732
Georgia,Marion,195,0,9,0,2020-10-19,32.3483402,-84.52733571
Georgia,Meriwether,576,2,16,0,2020-10-19,33.04163534,-84.68859732
Georgia,Miller,297,0,2,0,2020-10-19,31.16568912,-84.73151117
Georgia,Mitchell,844,0,45,0,2020-10-19,31.22483255,-84.19381821
Georgia,Monroe,744,1,54,0,2020-10-19,33.014289,-83.92097166
Georgia,Montgomery,357,1,9,0,2020-10-19,32.17201038,-82.53527476
Georgia,Morgan,515,0,5,0,2020-10-19,33.59232073,-83.49129491
Georgia,Murray,962,8,8,0,2020-10-19,34.78897608,-84.74993177
Georgia,Muscogee,6268,8,173,0,2020-10-19,32.50931999,-84.87142262
Georgia,Newton,2788,5,94,0,2020-10-19,33.55514538,-83.84547140000002
Georgia,Oconee,832,4,27,0,2020-10-19,33.83749973,-83.43679568
Georgia,Oglethorpe,391,0,11,0,2020-10-19,33.878629600000004,-83.08278123
Georgia,Paulding,3027,5,60,0,2020-10-19,33.91969522,-84.86848792
Georgia,Peach,737,3,24,0,2020-10-19,32.56934316,-83.82937
Georgia,Pickens,700,7,9,0,2020-10-19,34.46589159,-84.46406611
Georgia,Pierce,647,-1,24,0,2020-10-19,31.35928155,-82.21598442
Georgia,Pike,375,1,12,1,2020-10-19,33.09310242,-84.38790389
Georgia,Polk,1627,8,25,0,2020-10-19,34.00267074,-85.18677781
Georgia,Pulaski,326,1,23,0,2020-10-19,32.23334561,-83.47549959999998
Georgia,Putnam,772,1,27,0,2020-10-19,33.32056115,-83.37552891
Georgia,Quitman,38,0,1,0,2020-10-19,31.86728114,-85.01773177
Georgia,Rabun,413,1,11,0,2020-10-19,34.88389445,-83.40304637
Georgia,Randolph,338,0,29,0,2020-10-19,31.76622818,-84.75732369
Georgia,Richmond,7728,20,174,0,2020-10-19,33.35777107,-82.07026432
Georgia,Rockdale,2032,7,40,0,2020-10-19,33.65145002,-84.02202167
Georgia,Schley,109,1,2,0,2020-10-19,32.2654021,-84.31258912
Georgia,Screven,445,1,11,0,2020-10-19,32.74976524,-81.60779441
Georgia,Seminole,382,2,11,0,2020-10-19,30.93464824,-84.86823924
Georgia,Spalding,1485,8,62,0,2020-10-19,33.26310031,-84.28013991
Georgia,Stephens,1242,3,41,0,2020-10-19,34.55151201,-83.29405315
Georgia,Stewart,527,1,16,0,2020-10-19,32.07996777,-84.83208037
Georgia,Sumter,958,3,69,1,2020-10-19,32.03650571,-84.19821492
Georgia,Talbot,169,1,7,0,2020-10-19,32.69642758,-84.53351366
Georgia,Taliaferro,25,0,0,0,2020-10-19,33.56543317,-82.88136816
Georgia,Tattnall,908,7,13,0,2020-10-19,32.04785085,-82.05539188
Georgia,Taylor,225,0,12,0,2020-10-19,32.55792548,-84.25077141
Georgia,Telfair,428,0,23,0,2020-10-19,31.92829517,-82.93491155
Georgia,Terrell,338,0,32,0,2020-10-19,31.77527543,-84.44069698
Georgia,Thomas,1573,2,69,0,2020-10-19,30.86392347,-83.91847289
Georgia,Tift,1907,2,61,0,2020-10-19,31.45743864,-83.5236119
Georgia,Toombs,1449,4,56,0,2020-10-19,32.12059861,-82.32957247
Georgia,Towns,405,3,12,0,2020-10-19,34.91369188,-83.74107459999998
Georgia,Treutlen,292,2,11,0,2020-10-19,32.40422134,-82.56904553
Georgia,Troup,2971,5,106,2,2020-10-19,33.03349196,-85.02812115
Georgia,Turner,331,1,24,0,2020-10-19,31.71612656,-83.62069378
Georgia,Twiggs,210,0,9,0,2020-10-19,32.67435595,-83.43078662
Georgia,Union,859,2,25,0,2020-10-19,34.82995757,-83.98967069
Georgia,Upson,826,0,69,0,2020-10-19,32.87920671,-84.30024826
Georgia,Walker,1772,5,43,0,2020-10-19,34.73376362,-85.30165174
Georgia,Walton,2064,19,66,1,2020-10-19,33.78017694,-83.73552314
Georgia,Ware,1714,5,62,0,2020-10-19,31.05449097,-82.42224148
Georgia,Warren,163,0,5,0,2020-10-19,33.41146451,-82.67795848
Georgia,Washington,725,0,13,2,2020-10-19,32.96711864,-82.79357039
Georgia,Wayne,1201,1,30,0,2020-10-19,31.5521809,-81.91894878
Georgia,Webster,44,0,2,0,2020-10-19,32.04066113,-84.54742852
Georgia,Wheeler,353,1,17,1,2020-10-19,32.12009104,-82.72574721
Georgia,White,982,0,23,1,2020-10-19,34.64624278,-83.74905525
Georgia,Whitfield,5097,1,63,0,2020-10-19,34.80987459,-84.96093476
Georgia,Wilcox,252,0,25,0,2020-10-19,31.97496928,-83.43438555
Georgia,Wilkes,281,2,6,0,2020-10-19,33.78290391,-82.74286107
Georgia,Wilkinson,360,0,17,0,2020-10-19,32.80291082,-83.17140684
Georgia,Worth,591,5,32,0,2020-10-19,31.55162306,-83.85090513
Idaho,Ada,15188,56,157,0,2020-10-19,43.4526575,-116.24155159999998
Idaho,Adams,32,0,2,0,2020-10-19,44.89333571,-116.4545247
Idaho,Bannock,1928,42,11,2,2020-10-19,42.67002716,-112.2233311
Idaho,Bear Lake,61,0,1,0,2020-10-19,42.28269683,-111.32892379999998
Idaho,Benewah,165,0,3,0,2020-10-19,47.21754179,-116.6586851
Idaho,Bingham,1397,38,13,1,2020-10-19,43.21672879999999,-112.3978437
Idaho,Blaine,813,4,6,0,2020-10-19,43.4085812,-113.9752658
Idaho,Boise,75,0,2,0,2020-10-19,43.98829931,-115.7309284
Idaho,Bonner,438,5,1,0,2020-10-19,48.29996017,-116.6017932
Idaho,Bonneville,3901,85,22,0,2020-10-19,43.38713372,-111.6161537
Idaho,Boundary,97,2,1,0,2020-10-19,48.76684761,-116.4630179
Idaho,Butte,79,2,0,0,2020-10-19,43.72592209,-113.1735463
Idaho,Camas,39,1,0,0,2020-10-19,43.46665742,-114.8065892
Idaho,Canyon,9240,65,106,0,2020-10-19,43.61970148,-116.7095499
Idaho,Caribou,212,8,4,0,2020-10-19,42.77149116,-111.5597683
Idaho,Cassia,1176,24,8,0,2020-10-19,42.28347888,-113.6012409
Idaho,Clark,40,0,0,0,2020-10-19,44.28496071,-112.3505704
Idaho,Clearwater,124,4,0,0,2020-10-19,46.67459924,-115.6622393
Idaho,Custer,93,0,1,0,2020-10-19,44.24186819,-114.2855494
Idaho,Elmore,457,2,4,0,2020-10-19,43.3507101,-115.4701578
Idaho,Franklin,284,7,1,0,2020-10-19,42.18332217,-111.8149666
Idaho,Fremont,362,6,3,0,2020-10-19,44.22800938,-111.4809943
Idaho,Gem,393,5,4,0,2020-10-19,44.06482372,-116.398376
Idaho,Gooding,449,9,2,0,2020-10-19,42.96927962,-114.8108306
Idaho,Idaho,292,4,0,0,2020-10-19,45.84721541,-115.4634436
Idaho,Jefferson,857,14,3,0,2020-10-19,43.82078483,-112.3131749
Idaho,Jerome,974,14,7,0,2020-10-19,42.68891267,-114.2655033
Idaho,Kootenai,3418,43,46,0,2020-10-19,47.67282258,-116.7020872
Idaho,Latah,826,19,0,0,2020-10-19,46.81587887,-116.7113698
Idaho,Lemhi,181,8,0,0,2020-10-19,44.9438088,-113.9309747
Idaho,Lewis,71,6,2,0,2020-10-19,46.23315327,-116.434146
Idaho,Lincoln,135,4,0,0,2020-10-19,43.0012336,-114.1358773
Idaho,Madison,2088,108,2,0,2020-10-19,43.78141028,-111.65384740000002
Idaho,Minidoka,1075,14,8,0,2020-10-19,42.85518524,-113.6357257
Idaho,Nez Perce,634,18,24,0,2020-10-19,46.32638236,-116.7500975
Idaho,Oneida,34,0,0,0,2020-10-19,42.19494279999999,-112.5407838
Idaho,Owyhee,367,1,5,0,2020-10-19,42.58016894,-116.1693871
Idaho,Payette,1075,6,10,0,2020-10-19,44.00545243,-116.7647695
Idaho,Power,338,2,2,0,2020-10-19,42.69254894,-112.83957420000002
Idaho,Shoshone,236,6,19,0,2020-10-19,47.35364087,-115.8916749
Idaho,Teton,257,4,1,0,2020-10-19,43.75303583,-111.2056773
Idaho,Twin Falls,3353,54,42,0,2020-10-19,42.35440512,-114.6685381
Idaho,Valley,107,0,1,0,2020-10-19,44.76728382,-115.5676773
Idaho,Washington,426,6,7,0,2020-10-19,44.45275475,-116.7847688
Illinois,Adams,1633,48,15,0,2020-10-19,39.98815591,-91.18786813
Illinois,Alexander,108,1,1,0,2020-10-19,37.18049267,-89.32910838
Illinois,Bond,466,6,9,0,2020-10-19,38.88829622,-89.43534887
Illinois,Boone,1655,15,24,0,2020-10-19,42.32359279,-88.82345779
Illinois,Brown,96,0,0,0,2020-10-19,39.96209138,-90.75068024
Illinois,Bureau,847,5,17,0,2020-10-19,41.40385234,-89.5283051
Illinois,Calhoun,69,0,0,0,2020-10-19,39.16840183,-90.66330078
Illinois,Carroll,365,9,8,1,2020-10-19,42.06823429,-89.93395545
Illinois,Cass,449,0,11,0,2020-10-19,39.96991073,-90.24734436
Illinois,Champaign,5680,20,28,0,2020-10-19,40.13919438,-88.20046615
Illinois,Christian,771,8,25,0,2020-10-19,39.54581621,-89.27780482
Illinois,Clark,266,13,6,0,2020-10-19,39.33425789,-87.78705622
Illinois,Clay,281,2,11,0,2020-10-19,38.75388572,-88.48914513
Illinois,Clinton,1587,27,24,0,2020-10-19,38.60704876,-89.42385254
Illinois,Coles,1788,14,38,0,2020-10-19,39.51949084,-88.22358557
Illinois,Cook,165198,1286,5364,7,2020-10-19,41.84144849,-87.81658794
Illinois,Crawford,624,9,6,0,2020-10-19,39.0032229,-87.75954624
Illinois,Cumberland,253,4,6,0,2020-10-19,39.27432424,-88.2401158
Illinois,DeKalb,2095,23,42,0,2020-10-19,41.89373302,-88.76958483
Illinois,De Witt,227,2,3,0,2020-10-19,40.17514519,-88.90959682
Illinois,Douglas,545,22,8,0,2020-10-19,39.76768052,-88.21854195
Illinois,DuPage,20947,223,598,2,2020-10-19,41.85116968,-88.08642662
Illinois,Edgar,139,1,8,0,2020-10-19,39.6809186,-87.74759563
Illinois,Edwards,98,0,0,0,2020-10-19,38.41353228,-88.05720863
Illinois,Effingham,1090,20,3,0,2020-10-19,39.05935711,-88.58969584
Illinois,Fayette,630,11,19,2,2020-10-19,39.00072038,-89.02452658
Illinois,Ford,179,0,9,0,2020-10-19,40.59706922,-88.22350769
Illinois,Franklin,840,6,6,0,2020-10-19,37.99189086,-88.92567818
Illinois,Fulton,403,12,0,0,2020-10-19,40.47289135,-90.20862357
Illinois,Gallatin,105,2,2,0,2020-10-19,37.76430935,-88.22953869
Illinois,Greene,269,5,15,0,2020-10-19,39.35907414,-90.388865
Illinois,Grundy,877,18,7,0,2020-10-19,41.28569601,-88.41905692
Illinois,Hamilton,113,4,2,0,2020-10-19,38.08163641,-88.53883373
Illinois,Hancock,284,5,3,0,2020-10-19,40.40423981,-91.16313899
Illinois,Hardin,49,0,0,0,2020-10-19,37.51810645,-88.26873022
Illinois,Henderson,111,3,0,0,2020-10-19,40.81908672,-90.92491462
Illinois,Henry,794,4,5,0,2020-10-19,41.3533994,-90.13296166
Illinois,Iroquois,451,2,19,0,2020-10-19,40.74717633,-87.82466784
Illinois,Jackson,1433,5,25,0,2020-10-19,37.78595185,-89.38232563
Illinois,Jasper,247,7,10,0,2020-10-19,39.01054275,-88.15437049
Illinois,Jefferson,858,6,44,0,2020-10-19,38.29980057,-88.9240025
Illinois,Jersey,456,3,21,0,2020-10-19,39.08869046,-90.35393073
Illinois,Jo Daviess,427,11,5,0,2020-10-19,42.36542373,-90.21094405
Illinois,Johnson,313,2,0,0,2020-10-19,37.45939802,-88.88165419
Illinois,Kane,15422,188,341,0,2020-10-19,41.93842729,-88.42861412
Illinois,Kankakee,3168,25,78,0,2020-10-19,41.13746989,-87.86205334
Illinois,Kendall,2470,29,27,0,2020-10-19,41.59081014,-88.42869583
Illinois,Knox,1096,20,9,0,2020-10-19,40.93148779,-90.21330340000002
Illinois,Lake,19546,108,503,0,2020-10-19,42.3224907,-88.00367925
Illinois,LaSalle,2184,27,60,1,2020-10-19,41.34426129999999,-88.88633881
Illinois,Lawrence,306,0,8,0,2020-10-19,38.71987914,-87.72884035
Illinois,Lee,612,20,1,0,2020-10-19,41.74583951,-89.29977132
Illinois,Livingston,549,11,10,1,2020-10-19,40.89188292,-88.55784752
Illinois,Logan,543,5,4,0,2020-10-19,40.12581572,-89.36638784
Illinois,McDonough,665,11,15,0,2020-10-19,40.45674722,-90.67775541
Illinois,McHenry,5642,59,120,0,2020-10-19,42.32451172,-88.45248227
Illinois,McLean,3867,18,30,0,2020-10-19,40.48996987,-88.84621113
Illinois,Macon,2568,56,48,0,2020-10-19,39.86064913,-88.96342505
Illinois,Macoupin,731,9,9,0,2020-10-19,39.26119767,-89.92424028
Illinois,Madison,6795,47,152,0,2020-10-19,38.83042506,-89.90422563
Illinois,Marion,845,16,12,0,2020-10-19,38.64963204,-88.91899208
Illinois,Marshall,137,2,3,0,2020-10-19,41.0327901,-89.34510444
Illinois,Mason,235,3,1,0,2020-10-19,40.23917274,-89.91824452
Illinois,Massac,141,2,2,0,2020-10-19,37.22078441,-88.71036614
Illinois,Menard,159,0,1,0,2020-10-19,40.02742725,-89.80246001
Illinois,Mercer,219,6,6,0,2020-10-19,41.20596782,-90.74290052
Illinois,Monroe,849,7,28,1,2020-10-19,38.27594376,-90.17761038
Illinois,Montgomery,548,3,15,1,2020-10-19,39.23198845,-89.47809254
Illinois,Morgan,796,4,24,0,2020-10-19,39.71654544,-90.20255104
Illinois,Moultrie,375,15,5,0,2020-10-19,39.64187451,-88.62099969
Illinois,Ogle,1052,22,7,0,2020-10-19,42.04165196,-89.32184679
Illinois,Peoria,4243,36,62,1,2020-10-19,40.78702156,-89.76078901
Illinois,Perry,406,3,16,0,2020-10-19,38.08510853,-89.36856219
Illinois,Piatt,207,2,0,0,2020-10-19,40.01360584,-88.59319339
Illinois,Pike,260,11,4,0,2020-10-19,39.62265059,-90.8877017
Illinois,Pope,36,0,1,0,2020-10-19,37.41391284,-88.56152109
Illinois,Pulaski,226,0,1,0,2020-10-19,37.22631423,-89.13085001
Illinois,Putnam,85,2,0,0,2020-10-19,41.2013541,-89.2869272
Illinois,Randolph,1145,4,14,0,2020-10-19,38.05095369,-89.82512254
Illinois,Richland,317,1,14,0,2020-10-19,38.71240969,-88.08475366
Illinois,Rock Island,3670,29,88,0,2020-10-19,41.46613806,-90.57042164
Illinois,St. Clair,7559,47,213,0,2020-10-19,38.46996033,-89.93063427
Illinois,Saline,503,6,7,0,2020-10-19,37.75332999,-88.54119706
Illinois,Sangamon,3475,31,54,0,2020-10-19,39.75836914,-89.65872023
Illinois,Schuyler,80,1,1,0,2020-10-19,40.1571798,-90.61114163
Illinois,Scott,93,0,0,0,2020-10-19,39.6429169,-90.47814431
Illinois,Shelby,586,6,8,0,2020-10-19,39.39133527,-88.80611122
Illinois,Stark,79,1,2,0,2020-10-19,41.09309773,-89.79745866
Illinois,Stephenson,814,34,7,0,2020-10-19,42.35129217,-89.662598
Illinois,Tazewell,2405,19,47,0,2020-10-19,40.50716185,-89.51404662
Illinois,Union,730,5,25,0,2020-10-19,37.47119609,-89.25548938
Illinois,Vermilion,1541,28,7,0,2020-10-19,40.18417171,-87.73384359
Illinois,Wabash,205,2,5,0,2020-10-19,38.44272901,-87.84922065
Illinois,Warren,451,1,7,0,2020-10-19,40.84925021,-90.6147432
Illinois,Washington,278,3,1,0,2020-10-19,38.35309213,-89.40982703
Illinois,Wayne,434,2,10,1,2020-10-19,38.42955355,-88.42586459
Illinois,White,235,-2,1,0,2020-10-19,38.08706198,-88.17657461
Illinois,Whiteside,1152,18,22,1,2020-10-19,41.75509713,-89.91556058
Illinois,Will,16898,150,419,1,2020-10-19,41.44619267,-87.97862712
Illinois,Williamson,1709,13,58,1,2020-10-19,37.73033511,-88.92994027
Illinois,Winnebago,9114,87,165,0,2020-10-19,42.33641854,-89.16085327
Illinois,Woodford,543,1,11,1,2020-10-19,40.78579374,-89.20973757
Indiana,Adams,464,9,5,0,2020-10-19,40.7457653,-84.93671406
Indiana,Allen,7815,59,221,0,2020-10-19,41.09194313,-85.06800636
Indiana,Bartholomew,1386,11,57,0,2020-10-19,39.20744865,-85.89558181
Indiana,Benton,107,1,0,0,2020-10-19,40.60626947,-87.31093999
Indiana,Blackford,190,6,3,0,2020-10-19,40.47388153,-85.32499702
Indiana,Boone,1186,9,48,0,2020-10-19,40.0509304,-86.46841646
Indiana,Brown,128,0,3,0,2020-10-19,39.19605589,-86.22868909
Indiana,Carroll,308,3,13,0,2020-10-19,40.580783200000006,-86.56198812
Indiana,Cass,2210,9,20,0,2020-10-19,40.76135835,-86.34830753
Indiana,Clark,2821,13,57,0,2020-10-19,38.48015445,-85.70510334
Indiana,Clay,427,1,6,0,2020-10-19,39.39561833,-87.11723506
Indiana,Clinton,813,12,16,0,2020-10-19,40.30319754,-86.47277257
Indiana,Crawford,148,8,1,0,2020-10-19,38.28814402,-86.44518825
Indiana,Daviess,837,10,32,0,2020-10-19,38.70186039,-87.07185406
Indiana,Dearborn,903,8,28,0,2020-10-19,39.14647946,-84.97333539
Indiana,Decatur,494,1,39,0,2020-10-19,39.30712658,-85.50087166
Indiana,DeKalb,686,12,11,0,2020-10-19,41.39804622,-84.99906934
Indiana,Delaware,2796,25,74,0,2020-10-19,40.22787247,-85.39732772
Indiana,Dubois,1337,3,24,1,2020-10-19,38.36597551,-86.87924170000002
Indiana,Elkhart,8371,90,132,2,2020-10-19,41.59761169,-85.85875695
Indiana,Fayette,575,19,15,0,2020-10-19,39.63684962,-85.17797541
Indiana,Floyd,1727,19,66,1,2020-10-19,38.32117957,-85.90385377
Indiana,Fountain,274,1,3,0,2020-10-19,40.12361933,-87.24217689
Indiana,Franklin,363,4,25,0,2020-10-19,39.4142482,-85.06062647
Indiana,Fulton,329,6,2,0,2020-10-19,41.0469907,-86.26252745
Indiana,Gibson,826,4,11,2,2020-10-19,38.30393723,-87.58054938
Indiana,Grant,1180,12,39,0,2020-10-19,40.51587228,-85.65468702
Indiana,Greene,512,7,37,0,2020-10-19,39.03630547,-86.96223202
Indiana,Hamilton,5923,51,113,0,2020-10-19,40.07306535,-86.05244729
Indiana,Hancock,1141,13,44,0,2020-10-19,39.82304555,-85.77566351
Indiana,Harrison,733,4,24,0,2020-10-19,38.19467379,-86.10948271
Indiana,Hendricks,3140,24,130,0,2020-10-19,39.76719009,-86.51037283
Indiana,Henry,1218,11,28,0,2020-10-19,39.93029017,-85.39625719
Indiana,Howard,1574,21,66,0,2020-10-19,40.48527731,-86.11351892
Indiana,Huntington,369,5,5,0,2020-10-19,40.82907273,-85.48822092
Indiana,Jackson,1074,10,12,0,2020-10-19,38.90915820000001,-86.03851889
Indiana,Jasper,546,20,4,0,2020-10-19,41.02078733,-87.11553319
Indiana,Jay,281,6,6,0,2020-10-19,40.43781032,-85.00576229
Indiana,Jefferson,328,1,5,0,2020-10-19,38.78576239,-85.43633383
Indiana,Jennings,359,1,13,0,2020-10-19,38.99588883,-85.62710784
Indiana,Johnson,2972,25,127,0,2020-10-19,39.48994426,-86.10149107
Indiana,Knox,696,10,10,0,2020-10-19,38.68861576,-87.4194665
Indiana,Kosciusko,1731,39,21,0,2020-10-19,41.24521668,-85.86312322
Indiana,LaGrange,766,5,15,1,2020-10-19,41.64232188,-85.42674232
Indiana,Lake,13079,168,350,0,2020-10-19,41.41874274,-87.38277575
Indiana,LaPorte,2130,42,57,4,2020-10-19,41.54366008,-86.74072188
Indiana,Lawrence,778,11,32,0,2020-10-19,38.84112637,-86.48361629
Indiana,Madison,2269,24,91,4,2020-10-19,40.16143691,-85.71964711
Indiana,Marion,24564,154,781,1,2020-10-19,39.78163624,-86.13826325
Indiana,Marshall,1306,8,26,0,2020-10-19,41.32467367,-86.26185087
Indiana,Martin,195,2,0,0,2020-10-19,38.7099921,-86.80373186
Indiana,Miami,576,11,5,0,2020-10-19,40.76940965,-86.04525048
Indiana,Monroe,3194,32,38,0,2020-10-19,39.16130004,-86.52414358
Indiana,Montgomery,564,7,22,0,2020-10-19,40.04034823,-86.89335024
Indiana,Morgan,915,7,40,0,2020-10-19,39.47899078,-86.44573375
Indiana,Newton,211,6,11,0,2020-10-19,40.95610449,-87.39635768
Indiana,Noble,1113,13,33,0,2020-10-19,41.39672484,-85.41966713
Indiana,Ohio,118,2,7,0,2020-10-19,38.955305,-84.96515993
Indiana,Orange,386,5,24,0,2020-10-19,38.54118920000001,-86.49523093
Indiana,Owen,199,0,1,0,2020-10-19,39.31145587,-86.83900724
Indiana,Parke,218,3,2,0,2020-10-19,39.77202286,-87.20375833
Indiana,Perry,289,7,14,0,2020-10-19,38.07809328,-86.63741946
Indiana,Pike,316,1,12,0,2020-10-19,38.40112197,-87.23574907
Indiana,Porter,2932,43,48,0,2020-10-19,41.45986947,-87.06848888
Indiana,Posey,674,5,5,0,2020-10-19,38.02097333,-87.86480429
Indiana,Pulaski,143,3,1,0,2020-10-19,41.04166107,-86.69890683
Indiana,Putnam,695,1,15,0,2020-10-19,39.66437981,-86.84517605
Indiana,Randolph,337,6,8,0,2020-10-19,40.15734772,-85.01139319
Indiana,Ripley,417,4,8,0,2020-10-19,39.10235626,-85.26212744
Indiana,Rush,203,5,4,0,2020-10-19,39.62002287,-85.4655599
Indiana,St. Joseph,8788,137,157,3,2020-10-19,41.61756781,-86.29040834
Indiana,Scott,506,3,13,0,2020-10-19,38.68672078,-85.74627859
Indiana,Shelby,783,14,29,0,2020-10-19,39.52305623,-85.79158570000001
Indiana,Spencer,368,3,6,0,2020-10-19,38.01519732,-87.0079644
Indiana,Starke,384,6,7,0,2020-10-19,41.27890281,-86.64686895
Indiana,Steuben,588,9,8,0,2020-10-19,41.64423868,-85.00101094
Indiana,Sullivan,424,18,12,0,2020-10-19,39.08952258,-87.41414469
Indiana,Switzerland,84,0,0,0,2020-10-19,38.82767338,-85.03022429
Indiana,Tippecanoe,3509,45,14,0,2020-10-19,40.38872739,-86.89413959
Indiana,Tipton,266,5,23,0,2020-10-19,40.31123252,-86.05234925
Indiana,Union,102,1,0,0,2020-10-19,39.62550777,-84.92497066
Indiana,Vanderburgh,5530,53,50,0,2020-10-19,38.02658833,-87.58763124
Indiana,Vermillion,211,8,1,0,2020-10-19,39.8523352,-87.46160542
Indiana,Vigo,2488,33,37,3,2020-10-19,39.42944561,-87.39169027
Indiana,Wabash,385,9,9,0,2020-10-19,40.84704239,-85.79328272
Indiana,Warren,73,1,1,0,2020-10-19,40.34728141,-87.35602659
Indiana,Warrick,1865,12,63,1,2020-10-19,38.08922676,-87.2716085
Indiana,Washington,351,6,2,0,2020-10-19,38.60219804,-86.1049363
Indiana,Wayne,1171,22,23,0,2020-10-19,39.8633444,-85.01044989
Indiana,Wells,412,8,5,0,2020-10-19,40.72934187,-85.22132966
Indiana,White,562,6,15,0,2020-10-19,40.74911165,-86.86492015
Indiana,Whitley,431,7,6,0,2020-10-19,41.13863784,-85.50791236
Iowa,Adair,133,10,1,0,2020-10-19,41.33075609,-94.47105874
Iowa,Adams,67,0,0,0,2020-10-19,41.02903567,-94.69932645
Iowa,Allamakee,327,3,8,0,2020-10-19,43.28383218,-91.37860922
Iowa,Appanoose,201,3,3,0,2020-10-19,40.74324454,-92.86865906
Iowa,Audubon,129,1,1,0,2020-10-19,41.6844628,-94.90581859
Iowa,Benton,503,6,1,0,2020-10-19,42.08011739,-92.06463573
Iowa,Black Hawk,5191,20,96,0,2020-10-19,42.4704581,-92.30524729
Iowa,Boone,677,6,8,0,2020-10-19,42.03657094,-93.9313999
Iowa,Bremer,612,1,8,1,2020-10-19,42.77461496,-92.31795937
Iowa,Buchanan,393,4,3,0,2020-10-19,42.4709188,-91.83510825
Iowa,Buena Vista,2200,5,12,0,2020-10-19,42.73545875,-95.15100162
Iowa,Butler,344,4,2,0,2020-10-19,42.73172833,-92.79015971
Iowa,Calhoun,264,7,4,1,2020-10-19,42.38521079,-94.64046046
Iowa,Carroll,1028,5,8,0,2020-10-19,42.03617207,-94.86032705
Iowa,Cass,305,3,2,0,2020-10-19,41.33149454,-94.92792482
Iowa,Cedar,385,6,5,0,2020-10-19,41.77233777,-91.13246684
Iowa,Cerro Gordo,1249,27,23,0,2020-10-19,43.08177563,-93.2612239
Iowa,Cherokee,365,3,2,0,2020-10-19,42.73538914,-95.62389402
Iowa,Chickasaw,322,3,1,0,2020-10-19,43.06001295,-92.31773347
Iowa,Clarke,312,4,3,0,2020-10-19,41.02868181,-93.78499767
Iowa,Clay,484,3,4,0,2020-10-19,43.08247182,-95.15096481
Iowa,Clayton,350,0,3,0,2020-10-19,42.84443388,-91.34133693
Iowa,Clinton,1355,9,25,0,2020-10-19,41.89981633,-90.53275096
Iowa,Crawford,1309,6,12,0,2020-10-19,42.03718237,-95.3819718
Iowa,Dallas,3291,3,43,0,2020-10-19,41.68560356,-94.04127625
Iowa,Davis,155,1,4,0,2020-10-19,40.74773536,-92.41005468
Iowa,Decatur,129,7,0,0,2020-10-19,40.73742757,-93.78645949
Iowa,Delaware,679,7,8,0,2020-10-19,42.47104597,-91.3664492
Iowa,Des Moines,1213,4,9,0,2020-10-19,40.92012606,-91.18326592
Iowa,Dickinson,684,1,7,0,2020-10-19,43.37787725,-95.1510206
Iowa,Dubuque,4679,41,52,0,2020-10-19,42.46815349,-90.88181925
Iowa,Emmet,399,6,14,0,2020-10-19,43.37782951,-94.67858943
Iowa,Fayette,341,4,2,0,2020-10-19,42.86271799,-91.8441231
Iowa,Floyd,415,3,11,0,2020-10-19,43.06000529999999,-92.78940097
Iowa,Franklin,373,4,18,0,2020-10-19,42.73270384,-93.26256925
Iowa,Fremont,178,0,1,0,2020-10-19,40.74542720000001,-95.60129045
Iowa,Greene,173,2,0,0,2020-10-19,42.03614551,-94.39658081
Iowa,Grundy,280,1,4,0,2020-10-19,42.40183723,-92.78829551
Iowa,Guthrie,369,5,14,0,2020-10-19,41.68378965,-94.50111014
Iowa,Hamilton,443,12,3,0,2020-10-19,42.38382428,-93.70197703
Iowa,Hancock,281,9,4,0,2020-10-19,43.08178477,-93.73454884
Iowa,Hardin,428,7,5,0,2020-10-19,42.38353877,-93.23654611
Iowa,Harrison,576,14,8,0,2020-10-19,41.68330137,-95.81558439
Iowa,Henry,978,5,5,0,2020-10-19,40.98767962,-91.54436349
Iowa,Howard,247,2,9,1,2020-10-19,43.35671042,-92.31702714
Iowa,Humboldt,291,12,3,0,2020-10-19,42.7764426,-94.20722537
Iowa,Ida,177,1,2,0,2020-10-19,42.38696136,-95.51355387
Iowa,Iowa,377,2,6,0,2020-10-19,41.68630265,-92.0643373
Iowa,Jackson,528,3,3,0,2020-10-19,42.17178824,-90.57354837
Iowa,Jasper,1020,1,34,0,2020-10-19,41.68576082,-93.05567785
Iowa,Jefferson,190,2,1,0,2020-10-19,41.03192394,-91.94849466
Iowa,Johnson,5638,15,30,0,2020-10-19,41.67169354,-91.58754744
Iowa,Jones,411,6,3,0,2020-10-19,42.12118609,-91.13139641
Iowa,Keokuk,140,4,1,0,2020-10-19,41.33649833,-92.1785067
Iowa,Kossuth,422,7,0,0,2020-10-19,43.20405458,-94.20691791
Iowa,Lee,871,3,9,0,2020-10-19,40.64181461,-91.48183025
Iowa,Linn,5047,27,126,3,2020-10-19,42.07923082,-91.59809485
Iowa,Louisa,491,1,15,0,2020-10-19,41.21842119,-91.26102611
Iowa,Lucas,186,7,6,0,2020-10-19,41.02958964,-93.32780803
Iowa,Lyon,514,3,7,0,2020-10-19,43.38107862,-96.20926845
Iowa,Madison,343,6,2,0,2020-10-19,41.33081904,-94.01554631
Iowa,Mahaska,614,13,22,0,2020-10-19,41.33521503,-92.64083907
Iowa,Marion,924,4,10,0,2020-10-19,41.33445101,-93.09934783
Iowa,Marshall,1926,4,36,0,2020-10-19,42.03586837,-92.9990819
Iowa,Mills,336,2,1,0,2020-10-19,41.03299766,-95.61920963
Iowa,Mitchell,230,3,0,0,2020-10-19,43.35638371,-92.78887719
Iowa,Monona,228,2,1,0,2020-10-19,42.05220391,-95.95743843
Iowa,Monroe,238,1,11,0,2020-10-19,41.02988815,-92.8690667
Iowa,Montgomery,155,3,5,0,2020-10-19,41.03018714,-95.15642896
Iowa,Muscatine,1339,16,58,1,2020-10-19,41.48370744,-91.1121697
Iowa,O'Brien,579,10,11,1,2020-10-19,43.08310673,-95.62474482
Iowa,Osceola,248,3,0,0,2020-10-19,43.37824276,-95.62422844
Iowa,Page,347,2,0,0,2020-10-19,40.7393172,-95.1497813
Iowa,Palo Alto,286,3,1,0,2020-10-19,43.08193849,-94.67824621
Iowa,Plymouth,1539,6,25,1,2020-10-19,42.737633,-96.21366621
Iowa,Pocahontas,209,6,2,0,2020-10-19,42.73420133,-94.67862564
Iowa,Polk,17984,78,282,1,2020-10-19,41.68679484,-93.57767461
Iowa,Pottawattamie,2956,16,44,0,2020-10-19,41.33640314,-95.53907776
Iowa,Poweshiek,428,0,11,0,2020-10-19,41.68625425,-92.53155731
Iowa,Ringgold,82,2,2,0,2020-10-19,40.73518949,-94.24368535
Iowa,Sac,364,4,3,0,2020-10-19,42.38624071,-95.10547892
Iowa,Scott,4041,17,34,1,2020-10-19,41.63935978,-90.61959493
Iowa,Shelby,344,3,1,0,2020-10-19,41.6850066,-95.31015553
Iowa,Sioux,2297,15,12,1,2020-10-19,43.08221074,-96.1767568
Iowa,Story,3853,21,17,0,2020-10-19,42.03621213,-93.46499005
Iowa,Tama,900,7,37,1,2020-10-19,42.07991767,-92.53266945
Iowa,Taylor,220,0,2,0,2020-10-19,40.73710579,-94.69778563
Iowa,Union,209,1,4,1,2020-10-19,41.0277278,-94.24234847
Iowa,Van Buren,157,1,2,0,2020-10-19,40.75326764,-91.95017958
Iowa,Wapello,1471,1,62,0,2020-10-19,41.03064984,-92.40954728
Iowa,Warren,1149,6,6,0,2020-10-19,41.33559454,-93.56007641
Iowa,Washington,610,4,11,0,2020-10-19,41.33577126,-91.71725711
Iowa,Wayne,112,1,3,0,2020-10-19,40.73969028,-93.32752197
Iowa,Webster,1700,36,14,0,2020-10-19,42.42853483,-94.17987389
Iowa,Winnebago,437,18,16,0,2020-10-19,43.37751174,-93.73407298
Iowa,Winneshiek,433,4,9,0,2020-10-19,43.29094334,-91.84422722
Iowa,Woodbury,6820,33,88,2,2020-10-19,42.38979414,-96.0459439
Iowa,Worth,127,1,0,0,2020-10-19,43.37750768,-93.26087602
Iowa,Wright,687,8,1,0,2020-10-19,42.73305373,-93.73515113
Kansas,Allen,104,0,1,0,2020-10-19,37.88582951,-95.30030847
Kansas,Anderson,137,23,0,0,2020-10-19,38.21413251,-95.29272815
Kansas,Atchison,500,40,5,1,2020-10-19,39.53185661,-95.30870026
Kansas,Barber,27,1,0,0,2020-10-19,37.2288586,-98.68460053
Kansas,Barton,701,25,7,0,2020-10-19,38.47889676,-98.75636726
Kansas,Bourbon,267,0,3,0,2020-10-19,37.85508555,-94.84865997
Kansas,Brown,182,0,5,0,2020-10-19,39.82652589,-95.56421698
Kansas,Butler,778,19,3,0,2020-10-19,37.78134351,-96.83878537
Kansas,Chase,90,0,2,0,2020-10-19,38.30292938,-96.59563862
Kansas,Chautauqua,21,0,0,0,2020-10-19,37.14994405,-96.2454192
Kansas,Cherokee,621,0,7,0,2020-10-19,37.16928494,-94.8462897
Kansas,Cheyenne,95,1,5,0,2020-10-19,39.78580976,-101.7318201
Kansas,Clark,60,1,1,0,2020-10-19,37.23577007,-99.81883015
Kansas,Clay,78,2,2,0,2020-10-19,39.34948772,-97.16518128
Kansas,Cloud,102,5,1,0,2020-10-19,39.48028352,-97.64925343
Kansas,Coffey,148,12,9,0,2020-10-19,38.2365018,-95.73379515
Kansas,Comanche,19,0,0,0,2020-10-19,37.19114520000001,-99.27113247
Kansas,Cowley,480,22,10,1,2020-10-19,37.23781842,-96.83776647
Kansas,Crawford,1226,0,10,0,2020-10-19,37.50675523,-94.85245778
Kansas,Decatur,64,19,1,0,2020-10-19,39.78468441,-100.4594081
Kansas,Dickinson,275,8,3,0,2020-10-19,38.86600962,-97.15532383
Kansas,Doniphan,159,6,0,0,2020-10-19,39.79067154,-95.14056866
Kansas,Douglas,2743,51,15,0,2020-10-19,38.88503636,-95.2925121
Kansas,Edwards,61,1,0,0,2020-10-19,37.88735543,-99.31263309
Kansas,Elk,13,0,0,0,2020-10-19,37.45338105,-96.24369667
Kansas,Ellis,1306,29,16,0,2020-10-19,38.91458712,-99.31751551
Kansas,Ellsworth,167,25,0,0,2020-10-19,38.69677695,-98.20462799
Kansas,Finney,2676,109,16,0,2020-10-19,38.04340344,-100.7381938
Kansas,Ford,3134,26,13,0,2020-10-19,37.69200114,-99.88825298
Kansas,Franklin,495,11,3,0,2020-10-19,38.56443815,-95.28644341
Kansas,Geary,369,12,4,0,2020-10-19,38.99871131,-96.7577178
Kansas,Gove,148,0,9,0,2020-10-19,38.91588178,-100.4829321
Kansas,Graham,56,0,1,0,2020-10-19,39.34987223,-99.88332493
Kansas,Grant,398,6,8,0,2020-10-19,37.56227336,-101.3079758
Kansas,Gray,181,0,0,0,2020-10-19,37.73836671,-100.4369088
Kansas,Greeley,22,0,0,0,2020-10-19,38.4808095,-101.8061079
Kansas,Greenwood,75,4,0,0,2020-10-19,37.8774388,-96.23250453
Kansas,Hamilton,55,4,0,0,2020-10-19,37.99978709,-101.7921066
Kansas,Harper,140,7,2,0,2020-10-19,37.19175361,-98.07578384
Kansas,Harvey,484,18,7,0,2020-10-19,38.04293782,-97.42747573
Kansas,Haskell,103,0,1,0,2020-10-19,37.5620394,-100.8710738
Kansas,Hodgeman,32,2,0,0,2020-10-19,38.08780079,-99.89829881
Kansas,Jackson,285,0,4,0,2020-10-19,39.41673394,-95.79356799
Kansas,Jefferson,256,8,4,0,2020-10-19,39.2347941,-95.38289232
Kansas,Jewell,21,0,1,0,2020-10-19,39.78470589,-98.21820662
Kansas,Johnson,13071,62,173,0,2020-10-19,38.88548175,-94.82250877
Kansas,Kearny,131,3,3,0,2020-10-19,38.00017981,-101.321681
Kansas,Kingman,109,2,3,0,2020-10-19,37.55909527,-98.13638678
Kansas,Kiowa,43,0,0,0,2020-10-19,37.55848695,-99.2856537
Kansas,Labette,340,10,5,0,2020-10-19,37.19113093,-95.29849679
Kansas,Lane,17,0,0,0,2020-10-19,38.48119447,-100.4660754
Kansas,Leavenworth,2471,47,17,0,2020-10-19,39.20183497,-95.03620809
Kansas,Lincoln,17,2,1,0,2020-10-19,39.04549684,-98.20756994
Kansas,Linn,109,0,1,0,2020-10-19,38.21267844,-94.84254089
Kansas,Logan,68,0,0,0,2020-10-19,38.91735806,-101.148475
Kansas,Lyon,1256,13,39,2,2020-10-19,38.45576156,-96.15275715
Kansas,McPherson,338,0,5,0,2020-10-19,38.39184858,-97.64769869
Kansas,Marion,114,11,1,0,2020-10-19,38.35855394,-97.0985251
Kansas,Marshall,64,5,0,0,2020-10-19,39.78359669,-96.52278974
Kansas,Meade,140,0,1,0,2020-10-19,37.23859987,-100.364831
Kansas,Miami,477,3,2,0,2020-10-19,38.56383358,-94.83832189
Kansas,Mitchell,59,2,0,0,2020-10-19,39.39331582,-98.20906732
Kansas,Montgomery,631,19,6,0,2020-10-19,37.19236568,-95.74329258
Kansas,Morris,51,2,0,0,2020-10-19,38.68827511,-96.65128437
Kansas,Morton,39,7,2,0,2020-10-19,37.19141121,-101.79925190000002
Kansas,Nemaha,215,0,1,0,2020-10-19,39.78345387,-96.01392079
Kansas,Neosho,212,6,0,0,2020-10-19,37.55862897,-95.30670046
Kansas,Ness,107,0,8,0,2020-10-19,38.47974157,-99.91547333
Kansas,Norton,336,84,1,0,2020-10-19,39.78443827,-99.90286639
Kansas,Osage,147,5,2,1,2020-10-19,38.65235984,-95.72707998
Kansas,Osborne,21,0,0,0,2020-10-19,39.3503437,-98.76753828
Kansas,Ottawa,108,4,0,0,2020-10-19,39.13237408,-97.65020313
Kansas,Pawnee,413,7,1,0,2020-10-19,38.18108732,-99.23692334
Kansas,Phillips,164,13,9,0,2020-10-19,39.78465501,-99.34668865
Kansas,Pottawatomie,350,0,0,0,2020-10-19,39.37925655,-96.34564657
Kansas,Pratt,104,3,0,0,2020-10-19,37.64780729,-98.73922153
Kansas,Rawlins,75,8,0,0,2020-10-19,39.78525843,-101.0761617
Kansas,Reno,1837,105,11,1,2020-10-19,37.95230263,-98.08607292
Kansas,Republic,74,3,1,0,2020-10-19,39.82799632,-97.65036709
Kansas,Rice,123,6,1,0,2020-10-19,38.34616184,-98.19992118
Kansas,Riley,2057,10,11,0,2020-10-19,39.28935726,-96.73420026
Kansas,Rooks,141,10,7,0,2020-10-19,39.35022773,-99.32484567
Kansas,Rush,98,5,0,0,2020-10-19,38.52275276,-99.30863983
Kansas,Russell,161,3,4,1,2020-10-19,38.91462787,-98.76254297
Kansas,Saline,992,39,13,0,2020-10-19,38.78369175,-97.65185177
Kansas,Scott,164,0,1,0,2020-10-19,38.48222076,-100.9066539
Kansas,Sedgwick,10113,105,121,0,2020-10-19,37.6842718,-97.4608198
Kansas,Seward,1978,0,7,0,2020-10-19,37.19324632,-100.8507201
Kansas,Shawnee,3252,77,73,4,2020-10-19,39.04100763,-95.7557264
Kansas,Sheridan,128,27,0,0,2020-10-19,39.35018161,-100.4418259
Kansas,Sherman,145,15,0,0,2020-10-19,39.35147699,-101.7197624
Kansas,Smith,19,0,0,0,2020-10-19,39.78516566,-98.78566062
Kansas,Stafford,66,1,1,0,2020-10-19,38.03100851,-98.71762001
Kansas,Stanton,48,0,2,0,2020-10-19,37.56304714,-101.7843534
Kansas,Stevens,207,6,1,0,2020-10-19,37.1923008,-101.3118967
Kansas,Sumner,244,12,3,0,2020-10-19,37.23682549,-97.47721621
Kansas,Thomas,278,16,2,0,2020-10-19,39.35107575,-101.0553705
Kansas,Trego,74,0,3,0,2020-10-19,38.91467218,-99.87284448
Kansas,Wabaunsee,81,5,1,0,2020-10-19,38.95471985,-96.20350509
Kansas,Wallace,28,1,0,0,2020-10-19,38.91686134,-101.7638876
Kansas,Washington,29,2,0,0,2020-10-19,39.78420784,-97.0875323
Kansas,Wichita,21,5,0,0,2020-10-19,38.48178252,-101.3471509
Kansas,Wilson,106,2,2,0,2020-10-19,37.55937174,-95.74323255
Kansas,Woodson,26,0,0,0,2020-10-19,37.8865336,-95.74006277
Kansas,Wyandotte,7916,19,145,0,2020-10-19,39.11727348,-94.76378225
Kentucky,Adair,446,4,20,0,2020-10-19,37.10459774,-85.28129668
Kentucky,Allen,474,4,9,0,2020-10-19,36.75197631,-86.19457544
Kentucky,Anderson,224,1,1,0,2020-10-19,38.00671029,-84.99171713
Kentucky,Ballard,68,2,1,0,2020-10-19,37.05842757,-88.99427697
Kentucky,Barren,970,9,13,0,2020-10-19,36.96469836,-85.93338945
Kentucky,Bath,103,0,1,0,2020-10-19,38.14735938,-83.74588932
Kentucky,Bell,606,5,16,0,2020-10-19,36.73355174,-83.67766671
Kentucky,Boone,1906,10,25,0,2020-10-19,38.97065142,-84.72615357
Kentucky,Bourbon,281,5,1,0,2020-10-19,38.2054607,-84.21827874
Kentucky,Boyd,595,6,18,0,2020-10-19,38.36176608,-82.68652187
Kentucky,Boyle,401,7,0,0,2020-10-19,37.62680923,-84.8633779
Kentucky,Bracken,53,2,1,0,2020-10-19,38.69158994,-84.08532444
Kentucky,Breathitt,108,0,0,0,2020-10-19,37.52333168,-83.31959161
Kentucky,Breckinridge,176,1,2,0,2020-10-19,37.77377239,-86.42885017
Kentucky,Bullitt,1224,12,14,0,2020-10-19,37.97162523,-85.68955617
Kentucky,Butler,390,0,16,0,2020-10-19,37.20946153,-86.68748787
Kentucky,Caldwell,237,0,0,0,2020-10-19,37.14749129,-87.86948214
Kentucky,Calloway,849,2,9,0,2020-10-19,36.62093411,-88.2731593
Kentucky,Campbell,1077,7,16,0,2020-10-19,38.94384345,-84.37875208
Kentucky,Carlisle,99,1,1,0,2020-10-19,36.85372876,-88.96692220000001
Kentucky,Carroll,211,0,5,0,2020-10-19,38.66599534,-85.12601074
Kentucky,Carter,298,6,4,0,2020-10-19,38.31690743,-83.05092385
Kentucky,Casey,297,5,15,0,2020-10-19,37.32533118,-84.92726209
Kentucky,Christian,1700,1,26,0,2020-10-19,36.89267803,-87.49055367
Kentucky,Clark,445,4,10,0,2020-10-19,37.9689263,-84.14615986
Kentucky,Clay,434,4,6,0,2020-10-19,37.16451126,-83.712575
Kentucky,Clinton,198,5,2,0,2020-10-19,36.72581156,-85.13377529
Kentucky,Crittenden,150,3,1,0,2020-10-19,37.35839237,-88.08826090000002
Kentucky,Cumberland,125,3,0,0,2020-10-19,36.78926125,-85.39050034
Kentucky,Daviess,1803,8,25,0,2020-10-19,37.73028906,-87.09019479999998
Kentucky,Edmonson,160,0,12,0,2020-10-19,37.21218923,-86.23955613
Kentucky,Elliott,62,0,0,0,2020-10-19,38.11624059,-83.09771563
Kentucky,Estill,247,3,0,0,2020-10-19,37.69241417,-83.95956369
Kentucky,Fayette,9977,90,83,0,2020-10-19,38.0368225,-84.45576892
Kentucky,Fleming,124,2,0,0,2020-10-19,38.36758311,-83.69657514
Kentucky,Floyd,286,7,4,0,2020-10-19,37.56213922,-82.74750924
Kentucky,Franklin,789,0,14,1,2020-10-19,38.2379395,-84.87962551
Kentucky,Fulton,214,0,3,0,2020-10-19,36.55238827,-89.20140068
Kentucky,Gallatin,113,0,8,0,2020-10-19,38.75398691,-84.8558382
Kentucky,Garrard,252,8,3,0,2020-10-19,37.6388668,-84.53289319
Kentucky,Grant,217,2,6,0,2020-10-19,38.64962758,-84.62415957
Kentucky,Graves,847,3,29,0,2020-10-19,36.72292505,-88.65143315
Kentucky,Grayson,462,3,15,0,2020-10-19,37.46231118,-86.34248968
Kentucky,Green,311,0,8,0,2020-10-19,37.26484328,-85.5540745
Kentucky,Greenup,564,5,8,0,2020-10-19,38.54332505,-82.9215658
Kentucky,Hancock,115,0,1,0,2020-10-19,37.83766422,-86.78280584
Kentucky,Hardin,1693,3,12,0,2020-10-19,37.6976111,-85.96319251
Kentucky,Harlan,562,2,13,0,2020-10-19,36.85699301,-83.21899516
Kentucky,Harrison,244,3,1,0,2020-10-19,38.44188174,-84.32869741
Kentucky,Hart,283,16,1,0,2020-10-19,37.29943898,-85.88461055
Kentucky,Henderson,1207,15,18,0,2020-10-19,37.79344553,-87.57392021
Kentucky,Henry,235,2,2,0,2020-10-19,38.44942688,-85.11587507
Kentucky,Hickman,98,1,1,0,2020-10-19,36.67948079999999,-88.97875928
Kentucky,Hopkins,916,6,41,0,2020-10-19,37.30939025,-87.54670406
Kentucky,Jackson,419,1,17,0,2020-10-19,37.41866422,-83.99825483
Kentucky,Jefferson,19528,168,329,1,2020-10-19,38.18664655,-85.65931031
Kentucky,Jessamine,856,14,2,0,2020-10-19,37.87119786,-84.58252003
Kentucky,Johnson,246,9,2,0,2020-10-19,37.85106355,-82.8264322
Kentucky,Kenton,2379,8,49,0,2020-10-19,38.93950319,-84.53241199
Kentucky,Knott,295,4,2,0,2020-10-19,37.35388197,-82.94981134
Kentucky,Knox,731,2,9,0,2020-10-19,36.89225732,-83.85403396
Kentucky,Larue,215,-1,1,0,2020-10-19,37.54567114,-85.70138352
Kentucky,Laurel,1227,1,7,0,2020-10-19,37.10975748,-84.11321779
Kentucky,Lawrence,119,0,0,0,2020-10-19,38.07136018,-82.72882223
Kentucky,Lee,41,2,0,0,2020-10-19,37.59645942,-83.71513901
Kentucky,Leslie,118,2,0,0,2020-10-19,37.09246661,-83.37999606
Kentucky,Letcher,283,0,2,0,2020-10-19,37.12306748,-82.85346474
Kentucky,Lewis,262,1,15,0,2020-10-19,38.53184419,-83.37735618
Kentucky,Lincoln,276,2,18,0,2020-10-19,37.45475628,-84.6565327
Kentucky,Livingston,119,1,1,0,2020-10-19,37.21137452,-88.34797529
Kentucky,Logan,691,4,30,0,2020-10-19,36.85949479,-86.877635
Kentucky,Lyon,96,2,4,0,2020-10-19,37.02080035,-88.07886257
Kentucky,McCracken,976,8,11,0,2020-10-19,37.05350953,-88.70445755
Kentucky,McCreary,240,0,1,0,2020-10-19,36.73874143,-84.48102924
Kentucky,McLean,135,1,3,0,2020-10-19,37.5301951,-87.26803443
Kentucky,Madison,2163,5,11,0,2020-10-19,37.71659336,-84.27220275
Kentucky,Magoffin,132,1,0,0,2020-10-19,37.70820545,-83.0657714
Kentucky,Marion,339,2,9,0,2020-10-19,37.55218078,-85.26898542
Kentucky,Marshall,421,6,5,1,2020-10-19,36.88007070000001,-88.32803576
Kentucky,Martin,129,6,3,0,2020-10-19,37.79990579,-82.51247478
Kentucky,Mason,150,1,2,0,2020-10-19,38.59471935,-83.82151043
Kentucky,Meade,317,4,3,0,2020-10-19,37.96163597,-86.21028219
Kentucky,Menifee,76,0,1,0,2020-10-19,37.94090733,-83.59985712
Kentucky,Mercer,319,0,6,1,2020-10-19,37.81474237,-84.87488475
Kentucky,Metcalfe,166,1,2,0,2020-10-19,36.99459295,-85.63123699
Kentucky,Monroe,251,2,4,0,2020-10-19,36.71225341,-85.71596443
Kentucky,Montgomery,375,1,4,0,2020-10-19,38.03253032,-83.9145241
Kentucky,Morgan,101,1,0,0,2020-10-19,37.92465657,-83.25558245
Kentucky,Muhlenberg,921,5,12,0,2020-10-19,37.21425819,-87.14632053
Kentucky,Nelson,680,1,4,0,2020-10-19,37.80335779,-85.4657193
Kentucky,Nicholas,91,1,1,0,2020-10-19,38.33342292,-84.01889177
Kentucky,Ohio,560,0,9,0,2020-10-19,37.47751843,-86.85368087
Kentucky,Oldham,1336,3,26,0,2020-10-19,38.39791089,-85.448222
Kentucky,Owen,113,0,3,1,2020-10-19,38.51679143,-84.82404619
Kentucky,Owsley,69,0,1,0,2020-10-19,37.42823949,-83.68811419
Kentucky,Pendleton,110,1,0,0,2020-10-19,38.69607718,-84.35599463
Kentucky,Perry,443,9,9,0,2020-10-19,37.25023553,-83.22922731
Kentucky,Pike,678,0,3,0,2020-10-19,37.47088263,-82.39487445
Kentucky,Powell,133,0,0,0,2020-10-19,37.83218794,-83.82553961
Kentucky,Pulaski,957,1,13,0,2020-10-19,37.10466131,-84.57629079
Kentucky,Robertson,13,0,1,0,2020-10-19,38.51923469,-84.05055616
Kentucky,Rockcastle,281,6,1,0,2020-10-19,37.36642393,-84.31176452
Kentucky,Rowan,316,0,1,0,2020-10-19,38.19484205,-83.42088935
Kentucky,Russell,351,4,6,0,2020-10-19,36.99308373,-85.06070117
Kentucky,Scott,996,0,17,0,2020-10-19,38.29622293,-84.5816631
Kentucky,Shelby,1283,6,24,0,2020-10-19,38.21476019,-85.194223
Kentucky,Simpson,317,3,8,0,2020-10-19,36.74058474,-86.58047435
Kentucky,Spencer,263,4,0,0,2020-10-19,38.03223971,-85.32749335
Kentucky,Taylor,426,2,7,0,2020-10-19,37.3677562,-85.3329931
Kentucky,Todd,264,0,10,2,2020-10-19,36.8381152,-87.17878374
Kentucky,Trigg,226,0,0,0,2020-10-19,36.80767017,-87.87333656
Kentucky,Trimble,81,0,0,0,2020-10-19,38.61056487,-85.33775972
Kentucky,Union,481,10,6,0,2020-10-19,37.66166713,-87.94300009
Kentucky,Warren,4913,16,57,0,2020-10-19,36.99903045,-86.42672751
Kentucky,Washington,198,0,1,0,2020-10-19,37.75599461,-85.17407732
Kentucky,Wayne,237,3,1,1,2020-10-19,36.80310688,-84.8251971
Kentucky,Webster,285,4,5,0,2020-10-19,37.52168356,-87.67989953
Kentucky,Whitley,699,12,6,0,2020-10-19,36.75700531,-84.14541217
Kentucky,Wolfe,59,0,0,0,2020-10-19,37.73941626,-83.49303612
Kentucky,Woodford,350,2,0,0,2020-10-19,38.04178222,-84.7417556
Louisiana,Acadia,3062,10,100,0,2020-10-19,30.2950649,-92.41419698
Louisiana,Allen,1806,2,54,0,2020-10-19,30.65385745,-92.82442028
Louisiana,Ascension,3945,-5,98,0,2020-10-19,30.20406249,-90.91328409999998
Louisiana,Assumption,783,-1,24,0,2020-10-19,29.89946234,-91.06461642
Louisiana,Avoyelles,1667,3,62,0,2020-10-19,31.07796211,-92.00079449
Louisiana,Beauregard,1050,5,39,0,2020-10-19,30.64836518,-93.34173616
Louisiana,Bienville,563,-1,33,0,2020-10-19,32.34569994,-93.05398492
Louisiana,Bossier,3909,15,116,1,2020-10-19,32.67932307,-93.60460152
Louisiana,Caddo,9670,21,387,2,2020-10-19,32.57991587,-93.88375652
Louisiana,Calcasieu,8187,2,222,1,2020-10-19,30.22931235,-93.35400434
Louisiana,Caldwell,339,2,3,0,2020-10-19,32.0902519,-92.11752148
Louisiana,Cameron,237,-2,2,0,2020-10-19,29.87592238,-93.19310676
Louisiana,Catahoula,453,-2,14,1,2020-10-19,31.66778967,-91.84526385
Louisiana,Claiborne,586,0,24,0,2020-10-19,32.82308512,-92.99526883
Louisiana,Concordia,562,1,16,0,2020-10-19,31.44817835,-91.63814433
Louisiana,De Soto,991,4,35,0,2020-10-19,32.05457447,-93.74130302
Louisiana,East Baton Rouge,15717,5,456,3,2020-10-19,30.53842039,-91.09777565
Louisiana,East Carroll,568,4,6,0,2020-10-19,32.73926954,-91.23425694
Louisiana,East Feliciana,1790,3,75,0,2020-10-19,30.84425359,-91.04976723
Louisiana,Evangeline,1383,1,38,0,2020-10-19,30.72985248,-92.39915924
Louisiana,Franklin,1272,5,44,0,2020-10-19,32.13675181,-91.67589857
Louisiana,Grant,516,-1,30,0,2020-10-19,31.59882456,-92.56124347
Louisiana,Iberia,3032,-4,93,0,2020-10-19,29.86803617,-91.75871777
Louisiana,Iberville,1444,2,60,1,2020-10-19,30.25734305,-91.3499598
Louisiana,Jackson,809,3,22,0,2020-10-19,32.30251776,-92.55692092
Louisiana,Jefferson,18358,14,580,0,2020-10-19,29.74075478,-90.11115756
Louisiana,Jefferson Davis,1314,-5,43,0,2020-10-19,30.26896765,-92.81210004
Louisiana,Lafayette,9297,8,137,0,2020-10-19,30.2049055,-92.06959876
Louisiana,Lafourche,3842,11,126,1,2020-10-19,29.52470226,-90.40976986
Louisiana,LaSalle,478,0,10,0,2020-10-19,31.67884782,-92.15907765
Louisiana,Lincoln,1602,-2,48,0,2020-10-19,32.6003154,-92.6659741
Louisiana,Livingston,4089,4,79,0,2020-10-19,30.44143993,-90.73061664
Louisiana,Madison,890,0,8,0,2020-10-19,32.36918118,-91.23973355
Louisiana,Morehouse,869,-1,24,0,2020-10-19,32.81686191,-91.80421614
Louisiana,Natchitoches,1381,4,26,0,2020-10-19,31.72321584,-93.09816516
Louisiana,Orleans,13218,11,589,0,2020-10-19,30.06971951,-89.92660315
Louisiana,Ouachita,6785,10,159,1,2020-10-19,32.47645559,-92.15704172
Louisiana,Plaquemines,875,24,19,0,2020-10-19,29.42245447,-89.60322085
Louisiana,Pointe Coupee,1109,9,40,0,2020-10-19,30.71409502,-91.60209535
Louisiana,Rapides,4566,10,153,0,2020-10-19,31.19778499,-92.52997303
Louisiana,Red River,401,-1,24,0,2020-10-19,32.09530039,-93.34213308
Louisiana,Richland,851,3,16,0,2020-10-19,32.41391005,-91.76634876
Louisiana,Sabine,945,2,14,0,2020-10-19,31.56388699,-93.55433981
Louisiana,St. Bernard,1512,-4,32,0,2020-10-19,29.87761636,-89.51887093
Louisiana,St. Charles,1912,3,63,0,2020-10-19,29.90709658,-90.35555967
Louisiana,St. Helena,426,-5,4,0,2020-10-19,30.82210324,-90.71013176
Louisiana,St. James,830,0,40,0,2020-10-19,30.02531716,-90.80212061
Louisiana,St. John the Baptist,1621,2,106,1,2020-10-19,30.12597499,-90.4753503
Louisiana,St. Landry,3529,-3,133,1,2020-10-19,30.59724262,-92.00135806
Louisiana,St. Martin,2162,0,62,0,2020-10-19,30.13112107,-91.61403569
Louisiana,St. Mary,1998,4,84,0,2020-10-19,29.69262097,-91.44702164
Louisiana,St. Tammany,7534,18,269,0,2020-10-19,30.40942847,-89.95642711
Louisiana,Tangipahoa,4895,6,122,0,2020-10-19,30.62888673,-90.40664996
Louisiana,Tensas,185,-1,2,0,2020-10-19,32.00760749,-91.32915234
Louisiana,Terrebonne,3803,1,123,0,2020-10-19,29.37343766,-90.82626855
Louisiana,Union,1061,0,49,0,2020-10-19,32.83121059,-92.3749373
Louisiana,Vermilion,2084,0,70,1,2020-10-19,29.83517605,-92.30292538
Louisiana,Vernon,1107,1,55,0,2020-10-19,31.10884837,-93.18153838
Louisiana,Washington,1720,0,70,2,2020-10-19,30.85288548,-90.03866652
Louisiana,Webster,1418,1,37,0,2020-10-19,32.70847669,-93.33121835
Louisiana,West Baton Rouge,944,-1,42,0,2020-10-19,30.46058217,-91.30989571
Louisiana,West Carroll,368,2,11,0,2020-10-19,32.78550125,-91.461201
Louisiana,West Feliciana,747,7,25,0,2020-10-19,30.87882871,-91.4148538
Louisiana,Winn,665,-1,19,0,2020-10-19,31.94449367,-92.63789413
Maine,Androscoggin,834,1,10,0,2020-10-19,44.1664747,-70.20380627
Maine,Aroostook,56,0,1,0,2020-10-19,46.65926321,-68.59841248
Maine,Cumberland,2427,2,70,0,2020-10-19,43.8370751,-70.37226999
Maine,Franklin,73,0,1,0,2020-10-19,44.97330019,-70.44381045
Maine,Hancock,56,0,1,0,2020-10-19,44.59816444,-68.38401854
Maine,Kennebec,292,3,11,0,2020-10-19,44.40759555,-69.76738544
Maine,Knox,59,0,1,0,2020-10-19,44.11486325,-69.10529169
Maine,Lincoln,54,1,1,0,2020-10-19,44.05996956,-69.54227124
Maine,Oxford,157,0,2,0,2020-10-19,44.49952995,-70.75682123
Maine,Penobscot,274,1,6,0,2020-10-19,45.40194593,-68.65020455
Maine,Piscataquis,10,0,0,0,2020-10-19,45.83839062,-69.2860223
Maine,Sagadahoc,77,0,0,0,2020-10-19,43.95415864,-69.85074999
Maine,Somerset,126,-1,8,0,2020-10-19,45.51229767,-69.95995554
Maine,Waldo,124,12,14,0,2020-10-19,44.4858305,-69.12061935
Maine,Washington,21,1,0,0,2020-10-19,45.01607142,-67.62813524
Maine,York,1321,4,20,0,2020-10-19,43.47808377,-70.71052375
Maryland,Allegany,569,8,23,0,2020-10-19,39.62357628,-78.69280486
Maryland,Anne Arundel,11336,71,263,0,2020-10-19,39.00670238,-76.60329337
Maryland,Baltimore,19646,81,653,0,2020-10-19,39.45784712,-76.62911955
Maryland,Calvert,1120,3,29,1,2020-10-19,38.53961642,-76.56820632
Maryland,Caroline,704,0,8,0,2020-10-19,38.87172293,-75.82904158
Maryland,Carroll,2141,4,128,0,2020-10-19,39.56453592,-77.02373735
Maryland,Cecil,1275,6,36,0,2020-10-19,39.56647682,-75.94627411
Maryland,Charles,3029,11,101,0,2020-10-19,38.51092331,-76.98580666
Maryland,Dorchester,695,8,10,0,2020-10-19,38.45413522,-76.02752426
Maryland,Frederick,4534,15,137,0,2020-10-19,39.47296601,-77.39999394
Maryland,Garrett,105,5,1,0,2020-10-19,39.52786077,-79.27355126
Maryland,Harford,3417,22,78,0,2020-10-19,39.55010644,-76.30775940000002
Maryland,Howard,5605,25,124,1,2020-10-19,39.25305293,-76.93126208
Maryland,Kent,332,3,24,0,2020-10-19,39.24976208,-76.04741541
Maryland,Montgomery,24466,71,860,0,2020-10-19,39.13676329,-77.20358245
Maryland,Prince George's,31497,55,846,1,2020-10-19,38.83070039,-76.8496441
Maryland,Queen Anne's,736,2,26,0,2020-10-19,39.06198912,-76.03530977
Maryland,St. Mary's,1400,5,59,0,2020-10-19,38.30058422,-76.60629279999998
Maryland,Somerset,387,4,5,0,2020-10-19,38.1163542,-75.75118623
Maryland,Talbot,621,2,6,0,2020-10-19,38.76618159,-76.10882561
Maryland,Washington,2108,9,42,0,2020-10-19,39.60835778,-77.82002295
Maryland,Wicomico,2357,20,49,0,2020-10-19,38.37301947,-75.62705831
Maryland,Worcester,1168,3,30,0,2020-10-19,38.21274277,-75.33200012
Maryland,Baltimore,19646,81,653,0,2020-10-19,39.45784712,-76.62911955
Massachusetts,Barnstable,1898,2,181,0,2020-10-19,41.72980578,-70.28854339
Massachusetts,Berkshire,740,4,51,0,2020-10-19,42.37428441,-73.20524838
Massachusetts,Bristol,11046,61,732,1,2020-10-19,41.79228404,-71.10872211
Massachusetts,Essex,22192,157,1330,4,2020-10-19,42.6687626,-70.94687179
Massachusetts,Franklin,438,1,72,0,2020-10-19,42.58119713,-72.58602547
Massachusetts,Hampden,9125,51,799,1,2020-10-19,42.13440424,-72.63235561
Massachusetts,Hampshire,1401,1,153,0,2020-10-19,42.33997957,-72.65898478
Massachusetts,Middlesex,30182,196,2226,3,2020-10-19,42.48607732,-71.39049229
Massachusetts,Norfolk,11176,48,1093,2,2020-10-19,42.16073095,-71.20530408
Massachusetts,Plymouth,10693,74,804,0,2020-10-19,41.94070556,-70.80802823
Massachusetts,Suffolk,26546,163,1160,4,2020-10-19,42.3279514,-71.07850442
Massachusetts,Worcester,15544,69,1145,1,2020-10-19,42.35026951,-71.90493363
Michigan,Alcona,51,0,2,0,2020-10-19,44.6846864,-83.59507875
Michigan,Alger,96,8,1,1,2020-10-19,46.41292944,-86.60260122
Michigan,Allegan,1061,21,7,0,2020-10-19,42.59147037,-85.89102866
Michigan,Alpena,153,1,14,0,2020-10-19,45.03477666,-83.62212411
Michigan,Antrim,97,5,0,0,2020-10-19,44.99690221,-85.15503082
Michigan,Arenac,88,1,3,0,2020-10-19,44.0636262,-83.89277559
Michigan,Baraga,71,5,4,0,2020-10-19,46.6720582,-88.36363591
Michigan,Barry,540,25,5,0,2020-10-19,42.59513984,-85.30834519
Michigan,Bay,1246,25,55,0,2020-10-19,43.70639106,-83.98731479
Michigan,Benzie,108,4,2,0,2020-10-19,44.63899297,-86.01608482
Michigan,Berrien,2378,70,77,0,2020-10-19,41.95447397,-86.41313079999998
Michigan,Branch,786,19,10,0,2020-10-19,41.91600556,-85.05929476
Michigan,Calhoun,2267,75,53,1,2020-10-19,42.24633834,-85.00493569
Michigan,Cass,841,36,23,0,2020-10-19,41.91522292,-85.99405727
Michigan,Charlevoix,135,2,4,0,2020-10-19,45.37790017,-85.19614053
Michigan,Cheboygan,119,7,2,0,2020-10-19,45.44787015,-84.50122149
Michigan,Chippewa,107,3,0,0,2020-10-19,46.29552653,-84.54353449
Michigan,Clare,215,6,8,1,2020-10-19,43.98794227,-84.84819859999998
Michigan,Clinton,906,32,14,0,2020-10-19,42.94400871,-84.60145248
Michigan,Crawford,137,1,5,0,2020-10-19,44.68255561,-84.61006219
Michigan,Delta,1005,47,18,1,2020-10-19,45.90484910000001,-86.9080745
Michigan,Dickinson,454,10,8,0,2020-10-19,46.00999672,-87.86961634
Michigan,Eaton,970,44,10,0,2020-10-19,42.59599185,-84.83740035
Michigan,Emmet,190,7,4,0,2020-10-19,45.52625509,-84.89083249
Michigan,Genesee,6025,115,324,2,2020-10-19,43.02244215,-83.70589709
Michigan,Gladwin,167,11,2,0,2020-10-19,43.98901072,-84.38774817
Michigan,Gogebic,277,13,2,0,2020-10-19,46.40862701,-89.69377193
Michigan,Grand Traverse,654,23,13,0,2020-10-19,44.69565625,-85.55585247
Michigan,Gratiot,409,13,16,0,2020-10-19,43.29265605,-84.60505416
Michigan,Hillsdale,456,5,27,0,2020-10-19,41.88753639,-84.59312019
Michigan,Houghton,853,7,7,1,2020-10-19,46.89988536,-88.68495385
Michigan,Huron,258,1,5,0,2020-10-19,43.83353985,-83.04078453
Michigan,Ingham,4324,87,58,0,2020-10-19,42.59716886,-84.37472069
Michigan,Ionia,584,24,7,0,2020-10-19,42.94502238,-85.07413319
Michigan,Iosco,270,14,15,1,2020-10-19,44.35486835,-83.63484895
Michigan,Iron,364,28,18,0,2020-10-19,46.20974132,-88.53136251
Michigan,Isabella,933,19,15,0,2020-10-19,43.64060976,-84.84664923
Michigan,Jackson,1551,35,62,1,2020-10-19,42.24807035,-84.42258681
Michigan,Kalamazoo,4199,66,100,1,2020-10-19,42.24542231,-85.53038622
Michigan,Kalkaska,116,2,4,0,2020-10-19,44.68512729,-85.09085699
Michigan,Kent,12667,324,178,0,2020-10-19,43.03197711,-85.54934642
Michigan,Keweenaw,18,1,0,0,2020-10-19,47.63197653,-88.41434263
Michigan,Lake,52,9,0,0,2020-10-19,43.99050893,-85.802173
Michigan,Lapeer,807,19,38,0,2020-10-19,43.09052506,-83.22153148
Michigan,Leelanau,134,4,1,0,2020-10-19,44.94430054,-85.80150326
Michigan,Lenawee,1019,12,18,0,2020-10-19,41.89475156,-84.06603727
Michigan,Livingston,1779,39,32,0,2020-10-19,42.60302282,-83.91297209
Michigan,Luce,40,3,0,0,2020-10-19,46.47227431,-85.54471223
Michigan,Mackinac,140,3,0,0,2020-10-19,46.07028979,-85.04980537
Michigan,Macomb,17076,206,1065,4,2020-10-19,42.69158356,-82.92752801
Michigan,Manistee,113,4,3,0,2020-10-19,44.33352407,-86.05626916
Michigan,Marquette,802,-154,12,0,2020-10-19,46.4338914,-87.64043701
Michigan,Mason,187,14,1,0,2020-10-19,43.99509218,-86.24988902
Michigan,Mecosta,392,36,4,0,2020-10-19,43.64064262,-85.32463223
Michigan,Menominee,607,14,3,0,2020-10-19,45.58038692,-87.55370409
Michigan,Midland,829,29,13,0,2020-10-19,43.64330771,-84.38804374
Michigan,Missaukee,80,2,1,0,2020-10-19,44.33772443,-85.09256478
Michigan,Monroe,1819,24,31,1,2020-10-19,41.92734151,-83.53749864
Michigan,Montcalm,517,37,8,0,2020-10-19,43.31082541,-85.15252824
Michigan,Montmorency,21,1,0,0,2020-10-19,45.0275929,-84.12696227
Michigan,Muskegon,1816,22,76,0,2020-10-19,43.29123859,-86.15176712
Michigan,Newaygo,533,22,3,1,2020-10-19,43.554374,-85.80070107
Michigan,Oakland,23165,234,1227,1,2020-10-19,42.66090111,-83.38595416
Michigan,Oceana,572,5,6,0,2020-10-19,43.64124435,-86.26726673
Michigan,Ogemaw,90,6,5,0,2020-10-19,44.33481032,-84.12725175
Michigan,Ontonagon,72,3,0,0,2020-10-19,46.665226200000006,-89.31390481
Michigan,Osceola,124,4,0,0,2020-10-19,43.98992088,-85.32566756
Michigan,Oscoda,52,0,1,0,2020-10-19,44.68192279,-84.12939244
Michigan,Otsego,210,4,11,0,2020-10-19,45.02085831,-84.59898295
Michigan,Ottawa,4433,134,72,0,2020-10-19,42.95996803,-85.9969107
Michigan,Presque Isle,35,0,1,0,2020-10-19,45.34018577,-83.91498656
Michigan,Roscommon,138,5,5,1,2020-10-19,44.33473082,-84.61067651
Michigan,Saginaw,3450,72,149,1,2020-10-19,43.33433923,-84.05131209999998
Michigan,St. Clair,1308,29,63,0,2020-10-19,42.92655373,-82.67937954
Michigan,St. Joseph,1062,25,12,0,2020-10-19,41.91441767,-85.52797979
Michigan,Sanilac,169,4,7,0,2020-10-19,43.42406072,-82.82055898
Michigan,Schoolcraft,54,0,0,0,2020-10-19,46.19235734,-86.19972234
Michigan,Shiawassee,635,24,33,0,2020-10-19,42.95392800000001,-84.14585902
Michigan,Tuscola,590,13,34,0,2020-10-19,43.46606813,-83.41897025
Michigan,Van Buren,958,29,18,0,2020-10-19,42.25190229,-86.01939087
Michigan,Washtenaw,4772,111,117,1,2020-10-19,42.253105,-83.83853204
Michigan,Wayne,38435,289,3025,3,2020-10-19,42.28098405,-83.281255
Michigan,Wexford,149,3,4,0,2020-10-19,44.33853602,-85.57712739
Minnesota,Aitkin,154,3,2,1,2020-10-19,46.60962049,-93.4116826
Minnesota,Anoka,8093,138,148,0,2020-10-19,45.27476015,-93.24604565
Minnesota,Becker,489,6,3,0,2020-10-19,46.93479392,-95.67158144
Minnesota,Beltrami,768,15,7,0,2020-10-19,47.97373527,-94.93732139
Minnesota,Benton,841,15,5,0,2020-10-19,45.69804958,-93.99514135
Minnesota,Big Stone,127,0,0,0,2020-10-19,45.42712824,-96.41403739
Minnesota,Blue Earth,1970,12,7,0,2020-10-19,44.03554215,-94.06699781
Minnesota,Brown,298,8,3,0,2020-10-19,44.24205652,-94.72562874
Minnesota,Carlton,378,6,1,0,2020-10-19,46.59180601,-92.67601019
Minnesota,Carver,1695,9,7,0,2020-10-19,44.82017001,-93.8009918
Minnesota,Cass,311,7,5,0,2020-10-19,46.95043611,-94.32603968
Minnesota,Chippewa,379,6,3,0,2020-10-19,45.02343421,-95.56403693
Minnesota,Chisago,855,24,2,0,2020-10-19,45.5021011,-92.90861945
Minnesota,Clay,2032,24,43,0,2020-10-19,46.89289518,-96.48761922
Minnesota,Clearwater,76,2,0,0,2020-10-19,47.57992111,-95.37790562
Minnesota,Cook,11,0,0,0,2020-10-19,47.90504893,-90.52629546
Minnesota,Cottonwood,262,1,0,0,2020-10-19,44.00715262,-95.18138802
Minnesota,Crow Wing,879,11,21,0,2020-10-19,46.48096553,-94.06755609
Minnesota,Dakota,9251,105,133,0,2020-10-19,44.67172617,-93.06299363
Minnesota,Dodge,362,2,0,0,2020-10-19,44.02238415,-92.86244324
Minnesota,Douglas,604,12,3,0,2020-10-19,45.93348491,-95.45335469
Minnesota,Faribault,209,1,0,0,2020-10-19,43.67381499,-93.94787458
Minnesota,Fillmore,238,3,0,0,2020-10-19,43.67394126,-92.08980382
Minnesota,Freeborn,632,1,4,0,2020-10-19,43.67385583,-93.34884422
Minnesota,Goodhue,511,14,11,0,2020-10-19,44.40849741,-92.7234195
Minnesota,Grant,89,3,4,0,2020-10-19,45.93424769,-96.01139609
Minnesota,Hennepin,32336,286,965,0,2020-10-19,45.00761521,-93.47694895
Minnesota,Houston,181,1,1,0,2020-10-19,43.67129565,-91.49143057
Minnesota,Hubbard,309,8,2,0,2020-10-19,47.10778564,-94.91693868
Minnesota,Isanti,487,7,3,0,2020-10-19,45.56181234,-93.29487636
Minnesota,Itasca,676,5,17,0,2020-10-19,47.51009045,-93.63092229
Minnesota,Jackson,195,6,1,0,2020-10-19,43.67423373,-95.15398258
Minnesota,Kanabec,186,-1,10,0,2020-10-19,45.9459309,-93.29275192
Minnesota,Kandiyohi,1549,30,4,0,2020-10-19,45.1526059,-95.00586446
Minnesota,Kittson,27,0,0,0,2020-10-19,48.77754106,-96.78317184
Minnesota,Koochiching,162,2,4,0,2020-10-19,48.24539665,-93.78352843
Minnesota,Lac qui Parle,123,1,2,0,2020-10-19,44.9973857,-96.17488219
Minnesota,Lake,103,3,0,0,2020-10-19,47.64270764,-91.44557998
Minnesota,Lake of the Woods,42,2,1,0,2020-10-19,48.77217001,-94.90274472
Minnesota,Le Sueur,585,3,5,0,2020-10-19,44.37136597,-93.72844721
Minnesota,Lincoln,165,1,0,0,2020-10-19,44.41311883,-96.26688165
Minnesota,Lyon,925,11,6,0,2020-10-19,44.41327865,-95.83806103
Minnesota,McLeod,570,4,3,0,2020-10-19,44.82367677,-94.27287017
Minnesota,Mahnomen,94,3,1,0,2020-10-19,47.32557075,-95.80921485
Minnesota,Marshall,87,1,1,0,2020-10-19,48.35825983,-96.37017407
Minnesota,Martin,586,2,16,0,2020-10-19,43.67429718,-94.55099908
Minnesota,Meeker,307,3,3,0,2020-10-19,45.12328869,-94.52839455
Minnesota,Mille Lacs,352,6,8,1,2020-10-19,45.93705297,-93.63236823
Minnesota,Morrison,607,30,6,0,2020-10-19,46.01265363,-94.27341528
Minnesota,Mower,1489,0,12,0,2020-10-19,43.67142874,-92.75234549
Minnesota,Murray,248,4,3,0,2020-10-19,44.02216709,-95.76328482
Minnesota,Nicollet,673,9,17,0,2020-10-19,44.35291112,-94.24710352
Minnesota,Nobles,2140,23,16,0,2020-10-19,43.67434621,-95.75329576
Minnesota,Norman,94,1,0,0,2020-10-19,47.32628443,-96.45620947
Minnesota,Olmsted,3070,20,29,0,2020-10-19,44.00374114,-92.40209944
Minnesota,Otter Tail,743,23,6,0,2020-10-19,46.40846929,-95.70835255
Minnesota,Pennington,163,1,1,0,2020-10-19,48.06642577,-96.0370814
Minnesota,Pine,509,5,0,0,2020-10-19,46.12105238,-92.74070188
Minnesota,Pipestone,326,2,16,0,2020-10-19,44.02301619,-96.25841142
Minnesota,Polk,492,3,4,0,2020-10-19,47.77372465,-96.40134647
Minnesota,Pope,148,6,0,0,2020-10-19,45.58606667,-95.44451209
Minnesota,Ramsey,13342,157,347,1,2020-10-19,45.01625271,-93.09872295
Minnesota,Red Lake,60,4,2,0,2020-10-19,47.87197525,-96.09561104
Minnesota,Redwood,250,2,11,1,2020-10-19,44.40555844,-95.25207021
Minnesota,Renville,229,4,11,0,2020-10-19,44.72836381,-94.94553734
Minnesota,Rice,1578,16,9,0,2020-10-19,44.3543376,-93.29658715
Minnesota,Rock,297,11,1,0,2020-10-19,43.67482683,-96.25296832
Minnesota,Roseau,193,4,0,0,2020-10-19,48.77501878,-95.81079919
Minnesota,St. Louis,2647,62,63,0,2020-10-19,47.6048407,-92.46879855
Minnesota,Scott,3185,29,34,0,2020-10-19,44.6490231,-93.53340251
Minnesota,Sherburne,1562,30,21,0,2020-10-19,45.44447208,-93.77617511
Minnesota,Sibley,238,3,3,0,2020-10-19,44.5796592,-94.23164924
Minnesota,Stearns,5370,115,35,1,2020-10-19,45.55192576,-94.61078221
Minnesota,Steele,721,5,2,0,2020-10-19,44.02240351,-93.22627088
Minnesota,Stevens,168,5,1,0,2020-10-19,45.58613007,-96.00163705
Minnesota,Swift,192,1,1,0,2020-10-19,45.2829032,-95.68264092
Minnesota,Todd,723,31,2,0,2020-10-19,46.06996226,-94.89785296
Minnesota,Traverse,53,4,0,0,2020-10-19,45.77298854,-96.47062949
Minnesota,Wabasha,323,3,0,0,2020-10-19,44.28424356,-92.23121312
Minnesota,Wadena,188,9,0,0,2020-10-19,46.58589171,-94.96968506
Minnesota,Waseca,912,4,9,0,2020-10-19,44.02211116,-93.58720034
Minnesota,Washington,5259,87,67,0,2020-10-19,45.03864533,-92.88429635
Minnesota,Watonwan,567,4,4,0,2020-10-19,43.97823903,-94.61413846
Minnesota,Wilkin,124,2,4,0,2020-10-19,46.35721532,-96.4684375
Minnesota,Winona,1189,22,18,0,2020-10-19,43.98772283,-91.78081305
Minnesota,Wright,2276,29,14,0,2020-10-19,45.17297924,-93.96234781
Minnesota,Yellow Medicine,265,0,5,0,2020-10-19,44.71710183,-95.86842453
Mississippi,Adams,1043,3,42,0,2020-10-19,31.47669768,-91.35326037
Mississippi,Alcorn,955,11,12,0,2020-10-19,34.88084463,-88.57996173
Mississippi,Amite,415,0,13,0,2020-10-19,31.17467303,-90.80501621
Mississippi,Attala,765,2,25,0,2020-10-19,33.08658803,-89.57838564
Mississippi,Benton,305,5,4,0,2020-10-19,34.81681228,-89.18945516
Mississippi,Bolivar,1980,3,75,0,2020-10-19,33.79696941,-90.87372121
Mississippi,Calhoun,609,0,12,0,2020-10-19,33.93683395,-89.33686647
Mississippi,Carroll,460,2,12,0,2020-10-19,33.44834567,-89.91994479
Mississippi,Chickasaw,820,3,24,0,2020-10-19,33.91983202,-88.9481545
Mississippi,Choctaw,203,0,6,0,2020-10-19,33.34598242,-89.24809382
Mississippi,Claiborne,532,2,16,0,2020-10-19,31.97061673,-90.90702196
Mississippi,Clarke,714,5,48,0,2020-10-19,32.04158545,-88.68896219999998
Mississippi,Clay,672,6,21,0,2020-10-19,33.65358105,-88.77784255
Mississippi,Coahoma,1231,3,36,0,2020-10-19,34.22772299,-90.60415045
Mississippi,Copiah,1346,13,36,0,2020-10-19,31.86977774,-90.44565118
Mississippi,Covington,916,8,25,0,2020-10-19,31.63225413,-89.55389939
Mississippi,DeSoto,6636,85,77,0,2020-10-19,34.87625235,-89.99091418
Mississippi,Forrest,2951,24,77,0,2020-10-19,31.18961454,-89.25832496
Mississippi,Franklin,230,2,3,0,2020-10-19,31.47786634,-90.89672989
Mississippi,George,935,3,17,0,2020-10-19,30.86259065,-88.64436789
Mississippi,Greene,453,6,17,0,2020-10-19,31.21444233,-88.63922281
Mississippi,Grenada,1201,5,37,0,2020-10-19,33.77036166,-89.80245083
Mississippi,Hancock,769,4,27,0,2020-10-19,30.41830223,-89.48851033
Mississippi,Harrison,4811,27,81,0,2020-10-19,30.51359752,-89.12467576
Mississippi,Hinds,7751,20,171,0,2020-10-19,32.2656285,-90.44435448
Mississippi,Holmes,1132,2,60,0,2020-10-19,33.12345854,-90.08923538
Mississippi,Humphreys,399,0,16,0,2020-10-19,33.12825718,-90.52252707
Mississippi,Issaquena,106,0,3,0,2020-10-19,32.72531359,-90.97392828
Mississippi,Itawamba,1090,3,24,0,2020-10-19,34.27993475,-88.3606733
Mississippi,Jackson,4319,28,78,0,2020-10-19,30.54020656,-88.64184064
Mississippi,Jasper,666,6,16,0,2020-10-19,32.01922104,-89.11786866
Mississippi,Jefferson,263,1,10,0,2020-10-19,31.73397872,-91.03764977
Mississippi,Jefferson Davis,394,1,11,0,2020-10-19,31.56884708,-89.82670990000003
Mississippi,Jones,2831,15,82,0,2020-10-19,31.62257767,-89.16896899999998
Mississippi,Kemper,318,2,15,0,2020-10-19,32.75462946,-88.64105766
Mississippi,Lafayette,2417,4,42,0,2020-10-19,34.35687874,-89.48490961
Mississippi,Lamar,2149,29,38,0,2020-10-19,31.20572971,-89.5077704
Mississippi,Lauderdale,2344,15,130,0,2020-10-19,32.40419769,-88.66229662
Mississippi,Lawrence,495,6,14,0,2020-10-19,31.55147224,-90.10841127
Mississippi,Leake,1122,4,39,0,2020-10-19,32.7536828,-89.52402044
Mississippi,Lee,3413,21,79,0,2020-10-19,34.291877500000005,-88.68149954
Mississippi,Leflore,1600,13,86,0,2020-10-19,33.55545125,-90.29900733
Mississippi,Lincoln,1348,9,54,0,2020-10-19,31.53288662,-90.45391915
Mississippi,Lowndes,1739,3,62,0,2020-10-19,33.47386518,-88.44191529999998
Mississippi,Madison,3717,7,92,0,2020-10-19,32.63389156,-90.03513564
Mississippi,Marion,932,6,42,0,2020-10-19,31.23132643,-89.8209217
Mississippi,Marshall,1326,26,26,0,2020-10-19,34.76216286,-89.50299462
Mississippi,Monroe,1448,12,72,0,2020-10-19,33.89236763,-88.4808438
Mississippi,Montgomery,527,0,23,0,2020-10-19,33.49419589,-89.61729103
Mississippi,Neshoba,1806,11,111,0,2020-10-19,32.75339664,-89.11726492
Mississippi,Newton,842,0,27,0,2020-10-19,32.40021118,-89.11843336
Mississippi,Noxubee,595,0,16,0,2020-10-19,33.11009499,-88.56949061
Mississippi,Oktibbeha,1946,5,54,0,2020-10-19,33.42491685,-88.87905132
Mississippi,Panola,1651,4,36,0,2020-10-19,34.36398677,-89.95064249
Mississippi,Pearl River,1082,8,56,0,2020-10-19,30.77090935,-89.58677275
Mississippi,Perry,480,5,22,0,2020-10-19,31.17161885,-88.99281835
Mississippi,Pike,1364,9,55,0,2020-10-19,31.17507789,-90.40392572
Mississippi,Pontotoc,1435,5,19,0,2020-10-19,34.226046000000004,-89.03636807
Mississippi,Prentiss,1016,7,19,0,2020-10-19,34.61810501,-88.51986294
Mississippi,Quitman,413,4,6,0,2020-10-19,34.25157572,-90.28908
Mississippi,Rankin,3808,8,86,0,2020-10-19,32.26469147,-89.94537876
Mississippi,Scott,1232,5,29,0,2020-10-19,32.406704100000006,-89.53789439
Mississippi,Sharkey,277,0,14,0,2020-10-19,32.88149103,-90.8159538
Mississippi,Simpson,1181,5,48,0,2020-10-19,31.91282117,-89.91716179
Mississippi,Smith,581,4,16,0,2020-10-19,32.01744532,-89.50644846
Mississippi,Stone,450,4,14,0,2020-10-19,30.79187949,-89.11547539
Mississippi,Sunflower,1574,7,49,0,2020-10-19,33.60192578,-90.58882684
Mississippi,Tallahatchie,818,1,25,0,2020-10-19,33.95339918,-90.1729398
Mississippi,Tate,1127,4,39,0,2020-10-19,34.65133709,-89.94485778
Mississippi,Tippah,851,3,20,0,2020-10-19,34.76872156,-88.90988194
Mississippi,Tishomingo,790,4,40,0,2020-10-19,34.74023475,-88.23917219
Mississippi,Tunica,518,0,17,0,2020-10-19,34.64967704,-90.37481167
Mississippi,Union,1139,1,25,0,2020-10-19,34.49162015,-89.00776006
Mississippi,Walthall,633,-1,27,0,2020-10-19,31.14971548,-90.10446654
Mississippi,Warren,1521,3,54,0,2020-10-19,32.35810271,-90.83352619
Mississippi,Washington,2514,8,97,0,2020-10-19,33.28392041,-90.94196237
Mississippi,Wayne,985,6,21,0,2020-10-19,31.64135687,-88.69573913
Mississippi,Webster,365,2,13,0,2020-10-19,33.61300486,-89.28392912
Mississippi,Wilkinson,329,0,20,0,2020-10-19,31.16078225,-91.31018819
Mississippi,Winston,815,1,21,0,2020-10-19,33.08747908,-89.03391385
Mississippi,Yalobusha,484,5,14,0,2020-10-19,34.02824175,-89.70762049999998
Mississippi,Yazoo,1172,3,33,0,2020-10-19,32.77890365,-90.39656148
Missouri,Adair,463,3,0,0,2020-10-19,40.19058551,-92.60078167
Missouri,Andrew,397,9,4,0,2020-10-19,39.98492163,-94.80163024
Missouri,Atchison,71,0,1,0,2020-10-19,40.43238737,-95.42970639
Missouri,Audrain,533,6,7,0,2020-10-19,39.215877,-91.84242683
Missouri,Barry,724,17,7,0,2020-10-19,36.70978521,-93.82919888
Missouri,Barton,395,0,2,0,2020-10-19,37.50207671,-94.34757022
Missouri,Bates,224,0,5,0,2020-10-19,38.25271289,-94.34113157
Missouri,Benton,454,2,5,0,2020-10-19,38.29503305,-93.28756116
Missouri,Bollinger,435,3,2,0,2020-10-19,37.32449052,-90.02725304
Missouri,Boone,5625,13,14,0,2020-10-19,38.99186229,-92.30723575
Missouri,Buchanan,2754,18,35,1,2020-10-19,39.65816401,-94.80138942
Missouri,Butler,1036,19,8,0,2020-10-19,36.71462476,-90.40421163
Missouri,Caldwell,158,5,1,0,2020-10-19,39.65620858,-93.98308093
Missouri,Callaway,1020,12,5,0,2020-10-19,38.83674754,-91.92186505
Missouri,Camden,1451,3,26,0,2020-10-19,38.02199522,-92.76083747
Missouri,Cape Girardeau,2447,10,45,0,2020-10-19,37.38489388,-89.6843587
Missouri,Carroll,172,1,2,0,2020-10-19,39.42762566,-93.50626255
Missouri,Carter,153,0,3,0,2020-10-19,36.94160441,-90.96051322
Missouri,Cass,1883,11,28,0,2020-10-19,38.64789422,-94.353399
Missouri,Cedar,210,2,2,0,2020-10-19,37.72391475,-93.85445441
Missouri,Chariton,55,0,1,0,2020-10-19,39.51499357,-92.9629191
Missouri,Christian,2093,13,10,0,2020-10-19,36.9711783,-93.18537118
Missouri,Clark,104,5,0,0,2020-10-19,40.41040752,-91.73661677
Missouri,Clay,2300,0,45,-1,2020-10-19,39.31132056,-94.41850862
Missouri,Clinton,427,7,10,2,2020-10-19,39.6013098,-94.40465394
Missouri,Cole,2520,43,18,0,2020-10-19,38.50455671,-92.27860244
Missouri,Cooper,573,3,2,0,2020-10-19,38.844478,-92.80896081
Missouri,Crawford,554,9,7,0,2020-10-19,37.97663738,-91.30528104
Missouri,Dade,127,2,0,0,2020-10-19,37.431814,-93.8503345
Missouri,Dallas,284,6,1,0,2020-10-19,37.6811355,-93.02127031
Missouri,Daviess,202,3,3,0,2020-10-19,39.96145298,-93.98519678
Missouri,DeKalb,252,11,2,0,2020-10-19,39.89201062,-94.40476508
Missouri,Dent,230,0,3,0,2020-10-19,37.60663134,-91.50790473
Missouri,Douglas,272,4,6,0,2020-10-19,36.9325593,-92.49905109
Missouri,Dunklin,997,15,12,0,2020-10-19,36.27167174,-90.09122243
Missouri,Franklin,2349,28,40,0,2020-10-19,38.41127108,-91.07522826
Missouri,Gasconade,221,4,24,0,2020-10-19,38.43947277,-91.50847147
Missouri,Gentry,172,1,10,0,2020-10-19,40.21097916,-94.40944419
Missouri,Greene,8352,53,105,1,2020-10-19,37.2575872,-93.34230916
Missouri,Grundy,242,3,9,0,2020-10-19,40.11406587,-93.56509276
Missouri,Harrison,175,4,1,0,2020-10-19,40.35570088,-93.99222144
Missouri,Henry,345,2,5,0,2020-10-19,38.38482826,-93.79293734
Missouri,Hickory,178,1,3,0,2020-10-19,37.94163617,-93.3203037
Missouri,Holt,110,4,1,0,2020-10-19,40.09799248,-95.2163888
Missouri,Howard,226,0,2,0,2020-10-19,39.1435761,-92.69756691
Missouri,Howell,1015,20,6,0,2020-10-19,36.77383887,-91.88683935
Missouri,Iron,91,0,0,0,2020-10-19,37.55487945,-90.7735296
Missouri,Jackson,9196,22,117,0,2020-10-19,39.01002188,-94.34724536
Missouri,Jasper,4812,6,67,0,2020-10-19,37.20351921,-94.34050458
Missouri,Jefferson,5174,42,77,0,2020-10-19,38.25926778,-90.53870896
Missouri,Johnson,1402,3,11,0,2020-10-19,38.74719601,-93.80691168
Missouri,Knox,59,0,1,0,2020-10-19,40.12699751,-92.14780832
Missouri,Laclede,1077,10,18,0,2020-10-19,37.65896829,-92.5888493
Missouri,Lafayette,738,0,24,0,2020-10-19,39.06986886,-93.78076396
Missouri,Lawrence,974,17,14,0,2020-10-19,37.10626634,-93.83293097
Missouri,Lewis,171,2,2,0,2020-10-19,40.09673161,-91.72070156
Missouri,Lincoln,1064,15,5,0,2020-10-19,39.05345619,-90.95588181
Missouri,Linn,152,0,2,0,2020-10-19,39.87001769,-93.10704106
Missouri,Livingston,542,0,6,0,2020-10-19,39.78110272,-93.54645978
Missouri,McDonald,1189,6,11,0,2020-10-19,36.62869595,-94.34867205
Missouri,Macon,197,3,1,0,2020-10-19,39.83049768,-92.56453089
Missouri,Madison,433,5,2,0,2020-10-19,37.47865134,-90.3467143
Missouri,Maries,140,1,0,0,2020-10-19,38.16193985,-91.92249662
Missouri,Marion,822,9,14,0,2020-10-19,39.80601912,-91.62203062
Missouri,Mercer,31,0,0,0,2020-10-19,40.42212303,-93.5682959
Missouri,Miller,777,28,5,0,2020-10-19,38.21450288,-92.42610898
Missouri,Mississippi,390,9,5,0,2020-10-19,36.82516239,-89.29505753
Missouri,Moniteau,492,6,7,0,2020-10-19,38.63571781,-92.57976951
Missouri,Monroe,132,7,1,0,2020-10-19,39.49593978,-92.00043978
Missouri,Montgomery,110,1,1,0,2020-10-19,38.94022054,-91.47000721
Missouri,Morgan,584,13,6,0,2020-10-19,38.4181765,-92.88791859
Missouri,New Madrid,703,8,20,0,2020-10-19,36.59666326,-89.66070007
Missouri,Newton,1890,3,17,0,2020-10-19,36.90519407,-94.3394104
Missouri,Nodaway,1017,0,10,0,2020-10-19,40.36079813,-94.88133008
Missouri,Oregon,212,3,0,0,2020-10-19,36.68710164,-91.4033755
Missouri,Osage,413,16,3,0,2020-10-19,38.46036182,-91.8613635
Missouri,Ozark,175,0,1,0,2020-10-19,36.64916339,-92.44459066
Missouri,Pemiscot,674,7,12,0,2020-10-19,36.2130572,-89.78742322
Missouri,Perry,755,7,7,0,2020-10-19,37.70660776,-89.82741088
Missouri,Pettis,1432,21,14,0,2020-10-19,38.72798918,-93.28471706
Missouri,Phelps,765,6,19,0,2020-10-19,37.87736118,-91.79351727
Missouri,Pike,305,3,8,0,2020-10-19,39.34310674,-91.16980779
Missouri,Platte,909,6,12,0,2020-10-19,39.38154439,-94.77068479
Missouri,Polk,875,9,8,0,2020-10-19,37.6162296,-93.39828174
Missouri,Pulaski,894,3,9,1,2020-10-19,37.82462075,-92.20783203
Missouri,Putnam,48,0,1,0,2020-10-19,40.47942497,-93.02042674
Missouri,Ralls,190,6,0,0,2020-10-19,39.52817427,-91.51838643
Missouri,Randolph,503,10,3,0,2020-10-19,39.44007257,-92.4971374
Missouri,Ray,236,3,2,0,2020-10-19,39.3537468,-93.98905745
Missouri,Reynolds,60,3,0,0,2020-10-19,37.36085952,-90.97009925
Missouri,Ripley,222,7,4,0,2020-10-19,36.65460667,-90.85990261
Missouri,St. Charles,9738,130,141,1,2020-10-19,38.77875681,-90.66662425
Missouri,St. Clair,107,2,1,0,2020-10-19,38.03699437,-93.77631447
Missouri,Ste. Genevieve,303,13,1,0,2020-10-19,37.89090059,-90.1949941
Missouri,St. Francois,2635,17,22,0,2020-10-19,37.81214171,-90.47598685
Missouri,St. Louis,28239,339,857,0,2020-10-19,38.63770039999999,-90.4458375
Missouri,Saline,895,4,9,0,2020-10-19,39.13734288,-93.20259964
Missouri,Schuyler,35,0,0,0,2020-10-19,40.46921489,-92.52311943
Missouri,Scotland,63,2,1,0,2020-10-19,40.45214695,-92.14709064
Missouri,Scott,1266,22,18,0,2020-10-19,37.05588075,-89.56474493
Missouri,Shannon,200,4,3,0,2020-10-19,37.15772072,-91.40190382
Missouri,Shelby,97,1,1,0,2020-10-19,39.79742518,-92.07634971
Missouri,Stoddard,761,7,15,0,2020-10-19,36.85571651,-89.9444155
Missouri,Stone,637,4,7,0,2020-10-19,36.75000327,-93.45256475
Missouri,Sullivan,277,2,1,0,2020-10-19,40.2099105,-93.11150106
Missouri,Taney,1567,11,33,0,2020-10-19,36.65465345,-93.04075153
