State,County,Total Cases,New Cases,Total Deaths,New Deaths,Date,Latitude,Longitude
Alabama,Autauga,2818,38,42,0,2020-12-01,32.53952745,-86.64408227
Alabama,Baldwin,9051,161,137,39,2020-12-01,30.72774991,-87.72207058
Alabama,Barbour,1189,11,11,0,2020-12-01,31.868263,-85.3871286
Alabama,Bibb,1204,8,18,1,2020-12-01,32.99642064,-87.12511459999997
Alabama,Blount,3061,64,40,0,2020-12-01,33.98210918,-86.56790593
Alabama,Bullock,701,-1,19,0,2020-12-01,32.10030533,-85.71265535
Alabama,Butler,1186,8,42,0,2020-12-01,31.75300095,-86.68057478
Alabama,Calhoun,6598,168,121,0,2020-12-01,33.77483727,-85.82630386
Alabama,Chambers,1827,48,50,0,2020-12-01,32.91360079,-85.39072749
Alabama,Cherokee,1051,17,24,0,2020-12-01,34.17805983,-85.60638968
Alabama,Chilton,2289,15,39,1,2020-12-01,32.85044126,-86.7173256
Alabama,Choctaw,431,4,14,1,2020-12-01,32.02227341,-88.26564429999998
Alabama,Clarke,1610,12,19,0,2020-12-01,31.68099859,-87.83548597
Alabama,Clay,928,8,24,0,2020-12-01,33.26984193,-85.85836077
Alabama,Cleburne,788,10,14,0,2020-12-01,33.67679204,-85.52005899
Alabama,Coffee,2500,17,15,0,2020-12-01,31.39932826,-85.98901039
Alabama,Colbert,3320,24,42,0,2020-12-01,34.69847452,-87.80168544
Alabama,Conecuh,700,12,14,0,2020-12-01,31.43401703,-86.99320044
Alabama,Coosa,366,12,4,0,2020-12-01,32.93690146,-86.24847739
Alabama,Covington,2250,46,34,0,2020-12-01,31.2477854,-86.45050893
Alabama,Crenshaw,722,2,30,0,2020-12-01,31.72941803,-86.31593104
Alabama,Cullman,4624,109,43,1,2020-12-01,34.13020303,-86.86888037
Alabama,Dale,2390,28,54,0,2020-12-01,31.43037123,-85.61095742
Alabama,Dallas,2315,47,32,0,2020-12-01,32.32688101,-87.10866709999998
Alabama,DeKalb,4981,59,37,1,2020-12-01,34.45946862,-85.80782906
Alabama,Elmore,4211,82,64,0,2020-12-01,32.59785413,-86.14415284
Alabama,Escambia,2023,34,31,0,2020-12-01,31.1256789,-87.15918694
Alabama,Etowah,6561,122,67,1,2020-12-01,34.04567266,-86.04051873
Alabama,Fayette,946,21,16,0,2020-12-01,33.72076938,-87.73886638
Alabama,Franklin,2574,10,34,0,2020-12-01,34.44235334,-87.84289505
Alabama,Geneva,1250,7,8,0,2020-12-01,31.09389027,-85.83572839
Alabama,Greene,435,7,18,0,2020-12-01,32.85504247,-87.95684022
Alabama,Hale,981,3,31,0,2020-12-01,32.76039258,-87.63284988
Alabama,Henry,889,14,6,0,2020-12-01,31.51148016,-85.24267944
Alabama,Houston,5410,33,38,0,2020-12-01,31.15197924,-85.29939599
Alabama,Jackson,3404,106,23,0,2020-12-01,34.78144169,-85.99750489
Alabama,Jefferson,33526,462,501,1,2020-12-01,33.55554728,-86.89506300000002
Alabama,Lamar,701,12,8,0,2020-12-01,33.77995024,-88.09668032
Alabama,Lauderdale,4267,44,54,0,2020-12-01,34.90171875,-87.65624729
Alabama,Lawrence,1334,18,36,0,2020-12-01,34.52041498,-87.31069453
Alabama,Lee,7872,58,66,0,2020-12-01,32.60154883,-85.35132246
Alabama,Limestone,4404,71,45,0,2020-12-01,34.81185586,-86.98310072
Alabama,Lowndes,809,7,29,0,2020-12-01,32.1597283,-86.65158371
Alabama,Macon,755,10,22,0,2020-12-01,32.38759944,-85.69267724
Alabama,Madison,13723,127,151,3,2020-12-01,34.76327133,-86.55069633
Alabama,Marengo,1234,3,24,0,2020-12-01,32.24767634,-87.78796182
Alabama,Marion,1447,11,36,0,2020-12-01,34.13697363,-87.88704173
Alabama,Marshall,6473,120,57,2,2020-12-01,34.36975964,-86.30486727
Alabama,Mobile,20103,152,365,3,2020-12-01,30.78472347,-88.20842409
Alabama,Monroe,830,40,11,0,2020-12-01,31.56729412,-87.36995001
Alabama,Montgomery,12552,117,236,0,2020-12-01,32.2206831,-86.20969272
Alabama,Morgan,6964,103,51,1,2020-12-01,34.45500589,-86.85475946
Alabama,Perry,691,1,6,0,2020-12-01,32.64048341,-87.29770589
Alabama,Pickens,1265,8,18,0,2020-12-01,33.28094866,-88.08818103
Alabama,Pike,1615,16,14,0,2020-12-01,31.80396383,-85.9408295
Alabama,Randolph,1055,6,22,1,2020-12-01,33.29526734,-85.45708831
Alabama,Russell,2266,28,3,0,2020-12-01,32.28725256,-85.18415324
Alabama,St. Clair,4419,94,56,1,2020-12-01,33.71902176,-86.31029372
Alabama,Shelby,10796,180,77,0,2020-12-01,33.26879845,-86.66232561
Alabama,Sumter,586,0,22,0,2020-12-01,32.59117397,-88.19916205
Alabama,Talladega,3701,108,57,3,2020-12-01,33.37823223,-86.16886178
Alabama,Tallapoosa,1872,29,91,0,2020-12-01,32.86698258,-85.79833053
Alabama,Tuscaloosa,13366,120,154,0,2020-12-01,33.28726072,-87.52556818
Alabama,Walker,3735,25,111,0,2020-12-01,33.80270512,-87.30027177
Alabama,Washington,932,10,19,0,2020-12-01,31.4092794,-88.20689944
Alabama,Wilcox,648,6,18,0,2020-12-01,31.98773215,-87.30891118
Alabama,Winston,1375,24,23,0,2020-12-01,34.15030532,-87.37325922
Alaska,Aleutians East,38,0,0,0,2020-12-01,55.32222414,-161.9722021
Alaska,Bristol Bay,0,0,0,0,2020-12-01,58.74513976,-156.701064
Alaska,Denali,43,0,0,0,2020-12-01,63.67264044,-150.0076108
Alaska,Fairbanks North Star,3492,12,17,0,2020-12-01,64.80726247,-146.5692662
Alaska,Haines,17,1,0,0,2020-12-01,59.09893571,-135.4679843
Alaska,Kenai Peninsula,2658,59,9,0,2020-12-01,60.24429722,-151.53888840000005
Alaska,Ketchikan Gateway,198,1,0,0,2020-12-01,55.57445008,-130.975561
Alaska,Kodiak Island,296,12,0,0,2020-12-01,57.65529415,-153.7493579
Alaska,Matanuska-Susitna,3770,203,6,0,2020-12-01,62.31305045,-149.5741743
Alaska,North Slope,475,7,0,0,2020-12-01,69.31479216,-153.4836093
Alaska,Northwest Arctic,361,2,0,0,2020-12-01,67.04919196,-159.7503946
Arizona,Apache,5492,100,196,0,2020-12-01,35.39465006,-109.4892383
Arizona,Cochise,3781,142,79,0,2020-12-01,31.87934684,-109.7516088
Arizona,Coconino,7575,55,173,2,2020-12-01,35.83883429,-111.7707178
Arizona,Gila,3076,73,93,1,2020-12-01,33.80190085,-110.8132779
Arizona,Graham,2242,27,36,1,2020-12-01,32.93166885,-109.8882178
Arizona,Greenlee,239,11,3,1,2020-12-01,33.21498827,-109.2405279
Arizona,La Paz,883,16,20,0,2020-12-01,33.72854224,-113.9810029
Arizona,Maricopa,213121,7463,4010,28,2020-12-01,33.34835867,-112.4918154
Arizona,Mohave,6477,278,262,2,2020-12-01,35.70471703,-113.7577902
Arizona,Navajo,8283,120,272,1,2020-12-01,35.3997715,-110.3218983
Arizona,Pima,40803,944,695,4,2020-12-01,32.0971334,-111.7890033
Arizona,Pinal,17124,425,263,4,2020-12-01,32.90525627,-111.3449483
Arizona,Santa Cruz,4025,51,70,1,2020-12-01,31.52508998,-110.8479088
Arizona,Yavapai,5666,136,123,3,2020-12-01,34.59933926,-112.5538588
Arizona,Yuma,18352,481,392,0,2020-12-01,32.76895712,-113.90666740000002
Arkansas,Arkansas,973,13,21,0,2020-12-01,34.29145151,-91.37277296
Arkansas,Ashley,871,11,15,0,2020-12-01,33.19153461,-91.7698471
Arkansas,Baxter,1435,19,29,0,2020-12-01,36.28784385,-92.33782872
Arkansas,Benton,12288,197,160,0,2020-12-01,36.33644656,-94.25680817
Arkansas,Boone,1831,38,44,0,2020-12-01,36.3084504,-93.09374925
Arkansas,Bradley,516,12,7,0,2020-12-01,33.46755808,-92.15980837
Arkansas,Calhoun,153,3,1,0,2020-12-01,33.55598792,-92.49974403
Arkansas,Carroll,1463,30,23,0,2020-12-01,36.34038560000001,-93.54270261
Arkansas,Chicot,1195,4,28,1,2020-12-01,33.26458973,-91.29539209
Arkansas,Clark,841,3,11,0,2020-12-01,34.04613432,-93.17484713
Arkansas,Clay,914,24,21,0,2020-12-01,36.36826212,-90.4148172
Arkansas,Cleburne,752,18,24,1,2020-12-01,35.53864922,-92.02640019
Arkansas,Cleveland,379,17,15,0,2020-12-01,33.89723187,-92.18537045
Arkansas,Columbia,1127,27,24,0,2020-12-01,33.21230701,-93.22642793
Arkansas,Conway,695,13,8,0,2020-12-01,35.26205537,-92.70506566
Arkansas,Craighead,7235,63,82,1,2020-12-01,35.83018283,-90.63235729
Arkansas,Crawford,3126,45,38,0,2020-12-01,35.58928601,-94.2446814
Arkansas,Crittenden,3288,17,57,0,2020-12-01,35.21247318,-90.30839406
Arkansas,Cross,881,17,26,0,2020-12-01,35.29631396,-90.77185818
Arkansas,Dallas,303,1,6,0,2020-12-01,33.97042763,-92.65167437
Arkansas,Desha,574,10,8,0,2020-12-01,33.83011025,-91.25500948
Arkansas,Drew,763,20,8,1,2020-12-01,33.59035001,-91.71777921
Arkansas,Faulkner,4907,75,56,0,2020-12-01,35.14719007,-92.33717519
Arkansas,Franklin,803,4,13,0,2020-12-01,35.51202821,-93.89299569
Arkansas,Fulton,561,12,12,0,2020-12-01,36.38177105,-91.81729127
Arkansas,Garland,3910,38,105,0,2020-12-01,34.57692074,-93.14921604
Arkansas,Grant,624,15,6,0,2020-12-01,34.29017991,-92.42320562
Arkansas,Greene,3044,91,27,0,2020-12-01,36.11735460000001,-90.55832668
Arkansas,Hempstead,882,16,8,0,2020-12-01,33.73325583,-93.66935133
Arkansas,Hot Spring,2954,6,42,0,2020-12-01,34.31709259,-92.95396325
Arkansas,Howard,836,22,15,0,2020-12-01,34.09007427,-93.9934871
Arkansas,Independence,2125,37,71,0,2020-12-01,35.74242707,-91.57001641
Arkansas,Izard,1007,9,6,0,2020-12-01,36.09604046,-91.90847954
Arkansas,Jackson,1820,13,8,0,2020-12-01,35.59802983,-91.21494602
Arkansas,Jefferson,5238,31,111,0,2020-12-01,34.26767081,-91.92619839
Arkansas,Johnson,1278,4,12,1,2020-12-01,35.56759135,-93.46036368
Arkansas,Lafayette,267,1,3,0,2020-12-01,33.24116713,-93.60677071
Arkansas,Lawrence,1181,10,29,0,2020-12-01,36.04188196,-91.10867198
Arkansas,Lee,1197,3,18,0,2020-12-01,34.78498904,-90.78383866
Arkansas,Lincoln,2477,13,18,0,2020-12-01,33.95317155,-91.74002806
Arkansas,Little River,651,6,37,0,2020-12-01,33.70375665,-94.23468591
Arkansas,Logan,975,15,6,0,2020-12-01,35.21413234,-93.71951016
Arkansas,Lonoke,2778,43,56,1,2020-12-01,34.75392199,-91.88742357
Arkansas,Madison,640,11,8,0,2020-12-01,36.01038185,-93.72524943
Arkansas,Marion,448,6,6,0,2020-12-01,36.26844485,-92.68451899
Arkansas,Miller,2178,20,22,0,2020-12-01,33.31403423,-93.89285258
Arkansas,Mississippi,3265,40,81,0,2020-12-01,35.76271485,-90.05194370000002
Arkansas,Monroe,310,1,4,0,2020-12-01,34.6815935,-91.20540287
Arkansas,Montgomery,314,4,10,0,2020-12-01,34.53704874,-93.65824478
Arkansas,Nevada,468,4,14,0,2020-12-01,33.66340119,-93.30632432
Arkansas,Newton,450,6,22,0,2020-12-01,35.91947491,-93.21612969
Arkansas,Ouachita,794,18,14,2,2020-12-01,33.58839816,-92.87795984
Arkansas,Perry,263,3,4,0,2020-12-01,34.9459153,-92.94372564
Arkansas,Phillips,960,3,17,0,2020-12-01,34.43268455,-90.84800154
Arkansas,Pike,390,3,3,0,2020-12-01,34.16250414,-93.65789349
Arkansas,Poinsett,1689,16,43,0,2020-12-01,35.57433534,-90.66268713
Arkansas,Polk,830,14,11,1,2020-12-01,34.48254879,-94.22728802
Arkansas,Pope,3761,31,43,0,2020-12-01,35.44871474,-93.03212219
Arkansas,Prairie,361,1,8,0,2020-12-01,34.83624419,-91.55162157
Arkansas,Pulaski,17100,195,276,0,2020-12-01,34.77054088,-92.31355101
Arkansas,Randolph,1007,18,31,0,2020-12-01,36.3415714,-91.02455531
Arkansas,St. Francis,2067,9,15,0,2020-12-01,35.02201976,-90.74828138
Arkansas,Saline,4996,107,57,0,2020-12-01,34.64916145,-92.67583224
Arkansas,Scott,388,6,3,0,2020-12-01,34.85588887,-94.0632176
Arkansas,Searcy,309,12,1,0,2020-12-01,35.9109364,-92.69936482
Arkansas,Sebastian,7122,77,119,0,2020-12-01,35.19605503,-94.27162713
Arkansas,Sevier,1736,21,18,0,2020-12-01,33.99780401,-94.2424869
Arkansas,Sharp,728,27,15,0,2020-12-01,36.16258158,-91.47819342
Arkansas,Stone,486,6,25,0,2020-12-01,35.86251946,-92.15684085
Arkansas,Union,1585,17,59,0,2020-12-01,33.16887091,-92.59746952
Arkansas,Van Buren,396,10,4,0,2020-12-01,35.58095779,-92.51295036
Arkansas,Washington,15692,144,178,1,2020-12-01,35.976844,-94.21800746
Arkansas,White,3084,34,51,0,2020-12-01,35.25688493,-91.74908296
Arkansas,Woodruff,205,2,1,0,2020-12-01,35.18902527,-91.2439489
Arkansas,Yell,1667,10,34,0,2020-12-01,35.00292371,-93.41171338
California,Alameda,29972,54,514,2,2020-12-01,37.64629437,-121.8929271
California,Alpine,51,1,0,0,2020-12-01,38.59678594,-119.8223594
California,Amador,638,48,16,0,2020-12-01,38.44583082,-120.65696
California,Butte,4148,140,60,1,2020-12-01,39.66727762,-121.6005252
California,Calaveras,478,0,22,0,2020-12-01,38.20537103,-120.552913
California,Colusa,737,14,6,0,2020-12-01,39.17881957,-122.2331726
California,Contra Costa,24475,200,261,0,2020-12-01,37.91923498,-121.9289527
California,Del Norte,339,0,1,0,2020-12-01,41.74228275,-123.8974063
California,El Dorado,2546,99,4,0,2020-12-01,38.77965956,-120.5233166
California,Fresno,38712,144,488,7,2020-12-01,36.75733899,-119.6466953
California,Glenn,954,3,10,2,2020-12-01,39.59875897,-122.3938452
California,Humboldt,919,21,9,0,2020-12-01,40.69923009,-123.876044
California,Imperial,16364,92,356,0,2020-12-01,33.0393082,-115.3669042
California,Inyo,304,14,16,0,2020-12-01,36.51112084,-117.41119779999998
California,Kern,41957,130,448,0,2020-12-01,35.34329425,-118.7277796
California,Kings,11366,96,87,0,2020-12-01,36.07409056,-119.8159973
California,Lake,951,24,20,1,2020-12-01,39.10124298,-122.7536244
California,Lassen,2160,367,3,0,2020-12-01,40.67311306,-120.59350990000002
California,Los Angeles,408396,7477,7700,45,2020-12-01,34.30828379,-118.2282411
California,Madera,6346,56,86,1,2020-12-01,37.21513971,-119.76655890000002
California,Marin,7808,31,129,0,2020-12-01,38.07122463,-122.7210631
California,Mariposa,143,4,3,1,2020-12-01,37.57978556,-119.9073334
California,Mendocino,1594,14,23,0,2020-12-01,39.4381191,-123.3911313
California,Merced,12175,402,181,2,2020-12-01,37.18922369,-120.7209035
California,Modoc,151,8,0,0,2020-12-01,41.58965602,-120.7244817
California,Mono,549,1,3,0,2020-12-01,37.93899289,-118.8872409
California,Monterey,15837,216,122,0,2020-12-01,36.21862405,-121.2413397
California,Napa,3091,1,18,1,2020-12-01,38.50735751,-122.332839
California,Nevada,1348,37,9,0,2020-12-01,39.30394768,-120.7627281
California,Orange,79343,790,1577,0,2020-12-01,33.70147516,-117.76459979999998
California,Placer,6664,42,71,1,2020-12-01,39.06167234,-120.7240569
California,Plumas,220,5,0,0,2020-12-01,40.00355989,-120.8395236
California,Riverside,87722,339,1443,6,2020-12-01,33.74314981,-115.9933578
California,Sacramento,37884,469,581,5,2020-12-01,38.45106826,-121.3425374
California,San Benito,1929,36,17,1,2020-12-01,36.60308176,-121.069975
California,San Bernardino,94106,435,1129,0,2020-12-01,34.84060306,-116.1774685
California,San Diego,83421,1378,1019,22,2020-12-01,33.03484597,-116.7365326
California,San Joaquin,25920,180,509,7,2020-12-01,37.93433732,-121.2730061
California,San Luis Obispo,6311,166,38,2,2020-12-01,35.38822029,-120.4039028
California,San Mateo,14614,156,170,0,2020-12-01,37.4228808,-122.32755459999998
California,Santa Barbara,11602,82,136,1,2020-12-01,34.65329488,-120.0188492
California,Santa Clara,35457,372,482,6,2020-12-01,37.23104908,-121.6970462
California,Santa Cruz,4558,68,28,0,2020-12-01,37.05580291,-122.0066524
California,Shasta,5132,169,50,3,2020-12-01,40.76391419,-122.0396884
California,Sierra,23,4,0,0,2020-12-01,39.57713498,-120.52007009999998
California,Siskiyou,722,98,3,1,2020-12-01,41.59198861,-122.5407434
California,Solano,10731,83,81,0,2020-12-01,38.26827353,-121.9357113
California,Sonoma,12319,0,157,0,2020-12-01,38.52746429,-122.8862506
California,Stanislaus,22399,237,426,0,2020-12-01,37.55862499,-120.9970722
California,Sutter,3565,233,17,1,2020-12-01,39.03417539,-121.6945899
California,Tehama,1724,14,25,0,2020-12-01,40.12570935,-122.2370171
California,Trinity,164,5,0,0,2020-12-01,40.64917670000001,-123.114713
California,Tulare,20913,120,312,4,2020-12-01,36.22026558,-118.8020203
California,Tuolumne,1055,20,8,0,2020-12-01,38.02644018,-119.9525093
California,Ventura,20308,356,183,8,2020-12-01,34.44465746,-119.0910613
California,Yolo,4930,37,77,0,2020-12-01,38.68278902,-121.9018288
California,Yuba,2158,122,10,0,2020-12-01,39.26255932,-121.3535644
Colorado,Adams,30241,576,340,4,2020-12-01,39.87432092,-104.3362578
Colorado,Alamosa,629,17,13,0,2020-12-01,37.57250606,-105.7885451
Colorado,Arapahoe,27727,499,445,2,2020-12-01,39.64977461,-104.3353617
Colorado,Archuleta,243,1,0,0,2020-12-01,37.19474156,-107.0476867
Colorado,Baca,107,1,0,0,2020-12-01,37.31940883,-102.5603223
Colorado,Bent,197,12,1,0,2020-12-01,37.95474293,-103.0720195
Colorado,Boulder,11329,218,121,2,2020-12-01,40.09313619,-105.3546767
Colorado,Chaffee,663,5,21,0,2020-12-01,38.74745778,-106.19265729999998
Colorado,Cheyenne,63,1,0,0,2020-12-01,38.82777431,-102.6032558
Colorado,Clear Creek,193,3,2,0,2020-12-01,39.68864463,-105.6463118
Colorado,Conejos,173,0,3,0,2020-12-01,37.201606,-106.19174879999998
Colorado,Costilla,84,0,2,0,2020-12-01,37.27732493,-105.4276548
Colorado,Crowley,1241,2,3,0,2020-12-01,38.32608609,-103.7844965
Colorado,Custer,76,4,0,0,2020-12-01,38.10883162,-105.3683478
Colorado,Delta,673,26,11,0,2020-12-01,38.86246243,-107.8631342
Colorado,Dolores,22,3,0,0,2020-12-01,37.75208676,-108.5211585
Colorado,Douglas,11037,255,110,8,2020-12-01,39.33133796,-104.930001
Colorado,Eagle,2403,13,11,0,2020-12-01,39.62754308,-106.6933637
Colorado,Elbert,624,16,5,0,2020-12-01,39.28656773,-104.1358721
Colorado,El Paso,27829,632,288,10,2020-12-01,38.83240149,-104.5251411
Colorado,Fremont,2859,32,6,1,2020-12-01,38.47362326,-105.4399667
Colorado,Garfield,2280,34,9,2,2020-12-01,39.59921777,-107.902708
Colorado,Gilpin,87,0,1,1,2020-12-01,39.85646523,-105.5252597
Colorado,Grand,415,17,1,0,2020-12-01,40.10603347,-106.1178042
Colorado,Gunnison,476,3,7,0,2020-12-01,38.66611652,-107.0320729
Colorado,Hinsdale,8,0,0,0,2020-12-01,37.82247444,-107.3004345
Colorado,Huerfano,179,11,7,2,2020-12-01,37.68473101,-104.9612585
Colorado,Jackson,22,1,0,0,2020-12-01,40.66593870000001,-106.3408905
Colorado,Jefferson,21156,446,455,15,2020-12-01,39.58635604,-105.2517692
Colorado,Kiowa,26,2,0,0,2020-12-01,38.43260896,-102.7392145
Colorado,Kit Carson,303,2,8,1,2020-12-01,39.30497777,-102.6022199
Colorado,Lake,281,5,0,0,2020-12-01,39.20278823,-106.3555697
Colorado,La Plata,1388,10,5,1,2020-12-01,37.28632032,-107.8429014
Colorado,Larimer,10427,174,75,0,2020-12-01,40.66671597,-105.4625784
Colorado,Las Animas,266,15,0,0,2020-12-01,37.3153406,-104.0376458
Colorado,Lincoln,153,9,0,0,2020-12-01,38.98749519,-103.5136649
Colorado,Logan,2247,6,33,0,2020-12-01,40.7249637,-103.110817
Colorado,Mesa,6036,113,63,4,2020-12-01,39.01787888,-108.469799
Colorado,Mineral,36,0,0,0,2020-12-01,37.66954283,-106.9281698
Colorado,Moffat,319,14,9,4,2020-12-01,40.61810999,-108.2070876
Colorado,Montezuma,733,13,7,0,2020-12-01,37.33859579,-108.5958857
Colorado,Montrose,1146,31,15,0,2020-12-01,38.40214114,-108.26390220000002
Colorado,Morgan,1681,14,52,0,2020-12-01,40.26279810000001,-103.8093302
Colorado,Otero,709,46,12,1,2020-12-01,37.9014485,-103.7173385
Colorado,Ouray,118,1,2,0,2020-12-01,38.14717457,-107.7675136
Colorado,Park,238,0,4,0,2020-12-01,39.120926,-105.7182065
Colorado,Phillips,189,2,2,0,2020-12-01,40.59414277,-102.3577703
Colorado,Pitkin,513,12,2,0,2020-12-01,39.21720112,-106.9310027
Colorado,Prowers,657,30,12,0,2020-12-01,37.95544985,-102.3926052
Colorado,Pueblo,8856,262,131,10,2020-12-01,38.17359144,-104.5127437
Colorado,Rio Blanco,148,3,1,0,2020-12-01,39.97913541,-108.2179009
Colorado,Rio Grande,243,4,4,0,2020-12-01,37.5836865,-106.3847838
Colorado,Routt,685,23,14,0,2020-12-01,40.48596505,-106.9905548
Colorado,Saguache,222,5,2,0,2020-12-01,38.08054629,-106.282466
Colorado,San Juan,19,-1,0,0,2020-12-01,37.76248981,-107.67632890000002
Colorado,San Miguel,213,2,0,0,2020-12-01,38.00450883,-108.4020725
Colorado,Sedgwick,112,3,2,0,2020-12-01,40.87595412,-102.3519227
Colorado,Summit,1553,36,4,0,2020-12-01,39.63803232,-106.1150762
Colorado,Teller,653,7,4,0,2020-12-01,38.88133511,-105.1614893
Colorado,Washington,251,16,9,2,2020-12-01,39.97015535,-103.202587
Colorado,Weld,14297,271,196,0,2020-12-01,40.55499405,-104.3929621
Colorado,Yuma,338,6,2,0,2020-12-01,40.00346839,-102.4258673
Connecticut,Fairfield,38756,451,1516,9,2020-12-01,41.26809896,-73.3881171
Connecticut,Hartford,29049,154,1609,5,2020-12-01,41.80283011,-72.73103891
Connecticut,Litchfield,4547,44,167,1,2020-12-01,41.7937534,-73.2451475
Connecticut,Middlesex,3753,36,207,1,2020-12-01,41.45949668,-72.53714864
Connecticut,New Haven,30143,688,1259,3,2020-12-01,41.4080325,-72.93620426
Connecticut,New London,6148,97,176,1,2020-12-01,41.48896435,-72.10430976
Connecticut,Tolland,3068,14,76,0,2020-12-01,41.85853803,-72.3308481
Connecticut,Windham,2636,23,29,1,2020-12-01,41.82972709,-71.98182316
Delaware,Kent,5190,87,132,3,2020-12-01,39.08646628,-75.56884914
Delaware,New Castle,20501,497,382,1,2020-12-01,39.57992638,-75.64054974
Delaware,Sussex,10558,122,263,1,2020-12-01,38.66143781,-75.39031349
Florida,Alachua,12911,47,102,0,2020-12-01,29.67866525,-82.35928158
Florida,Baker,2046,16,32,0,2020-12-01,30.33060121,-82.28467476
Florida,Bay,8543,72,157,0,2020-12-01,30.26548745,-85.62122584
Florida,Bradford,1417,5,19,0,2020-12-01,29.95079741,-82.16611613
Florida,Brevard,15744,188,444,0,2020-12-01,28.29409504,-80.73091022
Florida,Broward,108325,801,1664,0,2020-12-01,26.15184651,-80.48725556
Florida,Calhoun,875,5,22,0,2020-12-01,30.40666734,-85.19394153
Florida,Charlotte,5150,63,197,0,2020-12-01,26.90131002,-81.92949121
Florida,Citrus,4790,37,171,0,2020-12-01,28.84804315,-82.47614748
Florida,Clay,8107,88,148,0,2020-12-01,29.98319144,-81.85609986
Florida,Collier,17911,154,281,1,2020-12-01,26.11091986,-81.34687065
Florida,Columbia,4821,32,94,0,2020-12-01,30.22509788,-82.62160164
Florida,DeSoto,2417,6,34,0,2020-12-01,27.18677893,-81.80941373
Florida,Dixie,965,2,11,0,2020-12-01,29.60631086,-83.15724673
Florida,Duval,44450,472,626,22,2020-12-01,30.33225875,-81.66976468
Florida,Escambia,16872,143,306,1,2020-12-01,30.67652764,-87.37284571
Florida,Flagler,2764,18,42,0,2020-12-01,29.45933576,-81.31508595
Florida,Franklin,830,0,4,0,2020-12-01,29.83791238,-84.82731662
Florida,Gadsden,3334,22,57,0,2020-12-01,30.57796289,-84.61915825
Florida,Gilchrist,766,3,20,0,2020-12-01,29.72856978,-82.79880657
Florida,Glades,675,3,10,0,2020-12-01,26.95635849,-81.18996211
Florida,Gulf,1068,7,19,0,2020-12-01,29.93543004,-85.24270990000002
Florida,Hamilton,982,4,11,0,2020-12-01,30.49673973,-82.94998918
Florida,Hardee,1773,8,18,0,2020-12-01,27.49293939,-81.80956574
Florida,Hendry,2508,11,45,0,2020-12-01,26.55386945,-81.16469006
Florida,Hernando,5052,47,221,5,2020-12-01,28.55364461,-82.42700204
Florida,Highlands,3802,22,148,2,2020-12-01,27.34254618,-81.34071957
Florida,Hillsborough,58749,456,933,1,2020-12-01,27.9276559,-82.32013172
Florida,Holmes,1169,3,15,0,2020-12-01,30.86747479,-85.81319222
Florida,Indian River,5041,25,138,1,2020-12-01,27.69308961,-80.60556721
Florida,Jackson,3903,20,94,4,2020-12-01,30.7954597,-85.21500423
Florida,Jefferson,785,11,11,0,2020-12-01,30.43669112,-83.89442308
Florida,Lafayette,1329,6,20,0,2020-12-01,29.98484137,-83.18166636
Florida,Lake,10743,72,255,0,2020-12-01,28.76202069,-81.7125123
Florida,Lee,30457,344,587,3,2020-12-01,26.58410348,-81.88399313
Florida,Leon,15253,259,141,0,2020-12-01,30.45955727,-84.27491114
Florida,Levy,1422,11,14,0,2020-12-01,29.31829741,-82.74007147
Florida,Liberty,603,8,14,0,2020-12-01,30.23766008,-84.8829258
Florida,Madison,1271,4,27,0,2020-12-01,30.44396917,-83.47398594
Florida,Manatee,17006,146,375,1,2020-12-01,27.47196942,-82.31831044
Florida,Marion,13176,132,379,0,2020-12-01,29.21227113,-82.05803627
Florida,Martin,6288,26,174,1,2020-12-01,27.0772071,-80.43109784
Florida,Miami-Dade,231761,2143,3839,4,2020-12-01,25.6112362,-80.55170587
Florida,Monroe,3392,11,28,1,2020-12-01,25.20904673,-81.07812416
Florida,Nassau,3221,25,57,0,2020-12-01,30.61037141,-81.80297522
Florida,Okaloosa,8993,108,160,0,2020-12-01,30.69143028,-86.59267105
Florida,Okeechobee,2050,14,43,0,2020-12-01,27.386336199999995,-80.88944347
Florida,Orange,58862,537,646,1,2020-12-01,28.51367621,-81.31799498
Florida,Osceola,18598,244,245,2,2020-12-01,28.06312234,-81.14882926
Florida,Palm Beach,65936,564,1697,3,2020-12-01,26.64676272,-80.46536002
Florida,Pasco,15041,142,276,0,2020-12-01,28.30810945,-82.40227529
Florida,Pinellas,33246,188,911,9,2020-12-01,27.93130349,-82.72239666
Florida,Polk,27822,211,688,10,2020-12-01,27.95027105,-81.69732947
Florida,Putnam,2783,35,58,0,2020-12-01,29.60779729,-81.74230285
Florida,St. Johns,8931,99,96,0,2020-12-01,29.90096506,-81.43589967
Florida,St. Lucie,10875,80,371,3,2020-12-01,27.37763908,-80.47106649
Florida,Santa Rosa,7550,67,102,0,2020-12-01,30.693414500000006,-87.02458128
Florida,Sarasota,13917,154,393,4,2020-12-01,27.18546175,-82.33174248
Florida,Seminole,13072,132,276,0,2020-12-01,28.7158582,-81.24060348
Florida,Sumter,3503,36,98,3,2020-12-01,28.70181754,-82.0794267
Florida,Suwannee,3294,13,86,0,2020-12-01,30.19746066,-82.99099670000003
Florida,Taylor,1650,5,21,0,2020-12-01,30.04848048,-83.60445406
Florida,Union,1238,9,61,0,2020-12-01,30.04412971,-82.37497443
Florida,Volusia,16633,127,370,0,2020-12-01,29.05858895,-81.18263252
Florida,Wakulla,1657,39,14,0,2020-12-01,30.16548905,-84.39895211
Florida,Walton,3715,25,37,0,2020-12-01,30.64204028,-86.16935664
Florida,Washington,1536,11,26,0,2020-12-01,30.61359259,-85.66002461
Georgia,Appling,1334,3,40,1,2020-12-01,31.74847232,-82.28909114
Georgia,Atkinson,599,1,9,0,2020-12-01,31.29633502,-82.87545866
Georgia,Bacon,750,0,24,0,2020-12-01,31.55456473,-82.45936528
Georgia,Baker,126,1,6,0,2020-12-01,31.32669878,-84.44218806
Georgia,Baldwin,2678,7,71,0,2020-12-01,33.06882326,-83.24701748
Georgia,Banks,804,12,13,0,2020-12-01,34.35607081,-83.49644388
Georgia,Barrow,3532,50,57,0,2020-12-01,33.99148694,-83.71436292
Georgia,Bartow,5282,71,108,1,2020-12-01,34.23732119,-84.83887523
Georgia,Ben Hill,1014,4,39,0,2020-12-01,31.76095874,-83.22145359
Georgia,Berrien,744,15,28,0,2020-12-01,31.27590016,-83.22529920000002
Georgia,Bibb,7738,60,236,1,2020-12-01,32.80904227,-83.70489165
Georgia,Bleckley,716,4,33,0,2020-12-01,32.43829035,-83.33035166
Georgia,Brantley,798,4,19,0,2020-12-01,31.19576557,-81.97743999
Georgia,Brooks,685,7,30,0,2020-12-01,30.83922642,-83.58303423
Georgia,Bryan,1518,11,18,0,2020-12-01,32.00979311,-81.44002948
Georgia,Bulloch,3768,5,55,1,2020-12-01,32.39577406,-81.74811421
Georgia,Burke,1254,11,15,0,2020-12-01,33.05917989,-81.99928721
Georgia,Butts,1102,12,46,0,2020-12-01,33.283094500000004,-83.95435040000002
Georgia,Calhoun,299,5,11,0,2020-12-01,31.53169785,-84.62725131
Georgia,Camden,1857,0,20,0,2020-12-01,30.92951916,-81.66601818
Georgia,Candler,616,0,35,1,2020-12-01,32.40209349,-82.07702563
Georgia,Carroll,5692,47,96,3,2020-12-01,33.58138199,-85.07976677
Georgia,Catoosa,2142,26,30,0,2020-12-01,34.89872298,-85.13757014
Georgia,Charlton,805,5,18,0,2020-12-01,30.78371028,-82.13951596
Georgia,Chatham,10981,54,210,0,2020-12-01,32.00043026,-81.12489526
Georgia,Chattahoochee,2028,6,3,0,2020-12-01,32.34341231,-84.78809239
Georgia,Chattooga,1266,12,33,0,2020-12-01,34.47197698,-85.34535662
Georgia,Cherokee,10837,157,117,0,2020-12-01,34.24393976,-84.47431861
Georgia,Clarke,8032,53,55,-1,2020-12-01,33.95436462,-83.37124007
Georgia,Clay,150,0,3,0,2020-12-01,31.62221166,-84.97713865
Georgia,Clayton,10585,70,203,0,2020-12-01,33.54187245,-84.35594188
Georgia,Clinch,535,0,13,0,2020-12-01,30.91395822,-82.70432472
Georgia,Cobb,30411,336,511,5,2020-12-01,33.94243204,-84.5761255
Georgia,Coffee,2991,25,81,1,2020-12-01,31.54892966,-82.85492059999999
Georgia,Colquitt,2588,16,47,0,2020-12-01,31.18810588,-83.7677946
Georgia,Columbia,6599,73,77,0,2020-12-01,33.54534185,-82.263524
Georgia,Cook,910,20,20,2,2020-12-01,31.16068491,-83.42947229
Georgia,Coweta,5496,75,72,0,2020-12-01,33.35334302,-84.76129976
Georgia,Crawford,259,2,7,0,2020-12-01,32.71391813,-83.98061238
Georgia,Crisp,940,5,35,2,2020-12-01,31.92289565,-83.76811843
Georgia,Dade,523,1,7,0,2020-12-01,34.854916700000004,-85.50490424
Georgia,Dawson,1178,10,11,0,2020-12-01,34.44244079,-84.16964071
Georgia,Decatur,1605,21,46,-1,2020-12-01,30.87967778,-84.57619536
Georgia,DeKalb,27876,231,459,3,2020-12-01,33.76944049,-84.22396017
Georgia,Dodge,1073,3,51,1,2020-12-01,32.17265114,-83.16948926
Georgia,Dooly,492,4,19,0,2020-12-01,32.15630737,-83.79746561
Georgia,Dougherty,3773,60,204,0,2020-12-01,31.53328528,-84.21722377
Georgia,Douglas,5816,94,89,1,2020-12-01,33.70291126,-84.77026156
Georgia,Early,698,7,36,0,2020-12-01,31.32155345,-84.90255207
Georgia,Echols,284,5,3,0,2020-12-01,30.71101099,-82.89687287
Georgia,Effingham,2219,7,33,0,2020-12-01,32.36616021,-81.34280942
Georgia,Elbert,1212,19,27,2,2020-12-01,34.11302332,-82.83936148
Georgia,Emanuel,1434,4,47,0,2020-12-01,32.59221302,-82.30239915
Georgia,Evans,556,-1,13,0,2020-12-01,32.15328841,-81.8870105
Georgia,Fannin,1039,6,36,0,2020-12-01,34.86430205,-84.316964
Georgia,Fayette,3359,62,62,0,2020-12-01,33.41357794,-84.49089434
Georgia,Floyd,5644,26,85,2,2020-12-01,34.26268279,-85.21577392
Georgia,Forsyth,7031,101,63,1,2020-12-01,34.22604035,-84.12315129999998
Georgia,Franklin,1258,11,23,0,2020-12-01,34.37525597,-83.23159927
Georgia,Fulton,41231,437,704,0,2020-12-01,33.79216944,-84.46319413
Georgia,Gilmer,1299,11,33,0,2020-12-01,34.69316688,-84.45802506
Georgia,Glascock,80,0,2,0,2020-12-01,33.22879932,-82.61297636
Georgia,Glynn,4333,9,121,0,2020-12-01,31.23279254,-81.53811412
Georgia,Gordon,3532,31,60,0,2020-12-01,34.50487351,-84.87296253
Georgia,Grady,1028,15,31,0,2020-12-01,30.87454847,-84.23418364
Georgia,Greene,736,4,29,1,2020-12-01,33.5769205,-83.17139104
Georgia,Gwinnett,40332,426,528,2,2020-12-01,33.96044201,-84.02137802
Georgia,Habersham,2398,45,82,0,2020-12-01,34.63331566,-83.53094677
Georgia,Hall,12907,148,203,2,2020-12-01,34.32207823,-83.81896936
Georgia,Hancock,530,36,46,0,2020-12-01,33.2721566,-82.99766919
Georgia,Haralson,1355,8,26,3,2020-12-01,33.79602175,-85.21005667
Georgia,Harris,1052,9,28,0,2020-12-01,32.73709786,-84.90538572
Georgia,Hart,862,20,29,0,2020-12-01,34.34626973,-82.96567682
Georgia,Heard,395,5,7,0,2020-12-01,33.29686567,-85.12886832
Georgia,Henry,8887,129,139,2,2020-12-01,33.4533428,-84.14814659999998
Georgia,Houston,4919,44,107,0,2020-12-01,32.45802497,-83.66879087
Georgia,Irwin,447,3,13,0,2020-12-01,31.60213036,-83.27501387
Georgia,Jackson,3478,52,57,0,2020-12-01,34.13794553,-83.56814788
Georgia,Jasper,496,15,7,0,2020-12-01,33.31535543,-83.68844964
Georgia,Jeff Davis,972,3,33,0,2020-12-01,31.80405727,-82.63724870000001
Georgia,Jefferson,1004,4,39,0,2020-12-01,33.05867328,-82.41609057
Georgia,Jenkins,500,1,34,0,2020-12-01,32.79248718,-81.96040187
Georgia,Johnson,530,1,31,0,2020-12-01,32.70211082,-82.66166794
Georgia,Jones,804,6,20,0,2020-12-01,33.02512137,-83.56019163
Georgia,Lamar,724,9,26,0,2020-12-01,33.07841647,-84.14263877
Georgia,Lanier,403,2,10,0,2020-12-01,31.038285700000007,-83.06472457
Georgia,Laurens,2653,25,116,1,2020-12-01,32.46325233,-82.92221316
Georgia,Lee,985,26,33,0,2020-12-01,31.779330600000005,-84.14324253
Georgia,Liberty,1573,9,29,0,2020-12-01,31.82588896,-81.49251135
Georgia,Lincoln,327,2,10,0,2020-12-01,33.79201475,-82.45024131
Georgia,Long,340,5,5,0,2020-12-01,31.75218791,-81.74952375
Georgia,Lowndes,6451,64,126,0,2020-12-01,30.83568832,-83.27056716
Georgia,Lumpkin,1309,17,20,0,2020-12-01,34.57286511,-84.00425681
Georgia,McDuffie,940,6,21,0,2020-12-01,33.47851918,-82.48252774
Georgia,McIntosh,388,1,9,0,2020-12-01,31.49683595,-81.40163426
Georgia,Macon,342,3,16,1,2020-12-01,32.35207048,-84.04234127
Georgia,Madison,1175,18,19,0,2020-12-01,34.12920917,-83.21218732
Georgia,Marion,249,1,10,0,2020-12-01,32.3483402,-84.52733571
Georgia,Meriwether,800,7,19,0,2020-12-01,33.04163534,-84.68859732
Georgia,Miller,416,6,3,0,2020-12-01,31.16568912,-84.73151117
Georgia,Mitchell,1003,21,51,1,2020-12-01,31.22483255,-84.19381821
Georgia,Monroe,1065,10,61,0,2020-12-01,33.014289,-83.92097166
Georgia,Montgomery,427,0,10,0,2020-12-01,32.17201038,-82.53527476
Georgia,Morgan,837,16,8,0,2020-12-01,33.59232073,-83.49129491
Georgia,Murray,1889,25,24,0,2020-12-01,34.78897608,-84.74993177
Georgia,Muscogee,7407,52,192,0,2020-12-01,32.50931999,-84.87142262
Georgia,Newton,3927,39,108,0,2020-12-01,33.55514538,-83.84547140000002
Georgia,Oconee,1421,18,35,0,2020-12-01,33.83749973,-83.43679568
Georgia,Oglethorpe,570,6,14,0,2020-12-01,33.878629600000004,-83.08278123
Georgia,Paulding,5266,112,83,3,2020-12-01,33.91969522,-84.86848792
Georgia,Peach,1089,10,28,0,2020-12-01,32.56934316,-83.82937
Georgia,Pickens,1152,17,17,1,2020-12-01,34.46589159,-84.46406611
Georgia,Pierce,1216,11,29,0,2020-12-01,31.35928155,-82.21598442
Georgia,Pike,824,12,17,0,2020-12-01,33.09310242,-84.38790389
Georgia,Polk,2494,18,34,0,2020-12-01,34.00267074,-85.18677781
Georgia,Pulaski,455,4,27,0,2020-12-01,32.23334561,-83.47549959999998
Georgia,Putnam,996,5,30,0,2020-12-01,33.32056115,-83.37552891
Georgia,Quitman,80,0,1,0,2020-12-01,31.86728114,-85.01773177
Georgia,Rabun,600,12,11,0,2020-12-01,34.88389445,-83.40304637
Georgia,Randolph,370,1,30,-1,2020-12-01,31.76622818,-84.75732369
Georgia,Richmond,10451,73,220,0,2020-12-01,33.35777107,-82.07026432
Georgia,Rockdale,2806,21,58,0,2020-12-01,33.65145002,-84.02202167
Georgia,Schley,167,4,2,0,2020-12-01,32.2654021,-84.31258912
Georgia,Screven,500,0,14,0,2020-12-01,32.74976524,-81.60779441
Georgia,Seminole,545,5,12,0,2020-12-01,30.93464824,-84.86823924
Georgia,Spalding,2471,39,79,0,2020-12-01,33.26310031,-84.28013991
Georgia,Stephens,1566,31,47,0,2020-12-01,34.55151201,-83.29405315
Georgia,Stewart,625,1,17,0,2020-12-01,32.07996777,-84.83208037
Georgia,Sumter,1265,22,71,0,2020-12-01,32.03650571,-84.19821492
Georgia,Talbot,230,0,8,0,2020-12-01,32.69642758,-84.53351366
Georgia,Taliaferro,42,1,0,0,2020-12-01,33.56543317,-82.88136816
Georgia,Tattnall,1147,1,26,0,2020-12-01,32.04785085,-82.05539188
Georgia,Taylor,387,26,13,0,2020-12-01,32.55792548,-84.25077141
Georgia,Telfair,651,2,28,0,2020-12-01,31.92829517,-82.93491155
Georgia,Terrell,401,5,33,0,2020-12-01,31.77527543,-84.44069698
Georgia,Thomas,1958,13,81,0,2020-12-01,30.86392347,-83.91847289
Georgia,Tift,2596,50,75,0,2020-12-01,31.45743864,-83.5236119
Georgia,Toombs,1717,8,68,1,2020-12-01,32.12059861,-82.32957247
Georgia,Towns,583,8,29,0,2020-12-01,34.91369188,-83.74107459999998
Georgia,Treutlen,385,0,14,0,2020-12-01,32.40422134,-82.56904553
Georgia,Troup,3970,28,120,0,2020-12-01,33.03349196,-85.02812115
Georgia,Turner,455,7,25,0,2020-12-01,31.71612656,-83.62069378
Georgia,Twiggs,262,2,18,0,2020-12-01,32.67435595,-83.43078662
Georgia,Union,1104,14,36,0,2020-12-01,34.82995757,-83.98967069
Georgia,Upson,1536,15,79,1,2020-12-01,32.87920671,-84.30024826
Georgia,Walker,2703,12,52,0,2020-12-01,34.73376362,-85.30165174
Georgia,Walton,3378,41,80,0,2020-12-01,33.78017694,-83.73552314
Georgia,Ware,2624,11,81,2,2020-12-01,31.05449097,-82.42224148
Georgia,Warren,216,1,8,0,2020-12-01,33.41146451,-82.67795848
Georgia,Washington,1121,8,34,3,2020-12-01,32.96711864,-82.79357039
Georgia,Wayne,1675,8,48,0,2020-12-01,31.5521809,-81.91894878
Georgia,Webster,62,0,2,0,2020-12-01,32.04066113,-84.54742852
Georgia,Wheeler,423,0,19,0,2020-12-01,32.12009104,-82.72574721
Georgia,White,1339,14,28,1,2020-12-01,34.64624278,-83.74905525
Georgia,Whitfield,7948,77,84,1,2020-12-01,34.80987459,-84.96093476
Georgia,Wilcox,385,9,28,1,2020-12-01,31.97496928,-83.43438555
Georgia,Wilkes,464,3,9,2,2020-12-01,33.78290391,-82.74286107
Georgia,Wilkinson,440,1,18,0,2020-12-01,32.80291082,-83.17140684
Georgia,Worth,751,12,38,0,2020-12-01,31.55162306,-83.85090513
Idaho,Ada,26141,440,245,4,2020-12-01,43.4526575,-116.24155159999998
Idaho,Adams,113,4,2,0,2020-12-01,44.89333571,-116.4545247
Idaho,Bannock,4561,75,33,3,2020-12-01,42.67002716,-112.2233311
Idaho,Bear Lake,194,4,1,0,2020-12-01,42.28269683,-111.32892379999998
Idaho,Benewah,286,11,3,0,2020-12-01,47.21754179,-116.6586851
Idaho,Bingham,2808,40,29,2,2020-12-01,43.21672879999999,-112.3978437
Idaho,Blaine,1297,12,7,0,2020-12-01,43.4085812,-113.9752658
Idaho,Boise,143,2,2,0,2020-12-01,43.98829931,-115.7309284
Idaho,Bonner,1002,24,4,0,2020-12-01,48.29996017,-116.6017932
Idaho,Bonneville,7783,121,66,2,2020-12-01,43.38713372,-111.6161537
Idaho,Boundary,355,2,4,1,2020-12-01,48.76684761,-116.4630179
Idaho,Butte,124,0,0,0,2020-12-01,43.72592209,-113.1735463
Idaho,Camas,54,1,0,0,2020-12-01,43.46665742,-114.8065892
Idaho,Canyon,15724,245,142,0,2020-12-01,43.61970148,-116.7095499
Idaho,Caribou,446,4,10,0,2020-12-01,42.77149116,-111.5597683
Idaho,Cassia,2170,4,18,0,2020-12-01,42.28347888,-113.6012409
Idaho,Clark,49,1,0,0,2020-12-01,44.28496071,-112.3505704
Idaho,Clearwater,560,21,0,0,2020-12-01,46.67459924,-115.6622393
Idaho,Custer,150,4,1,0,2020-12-01,44.24186819,-114.2855494
Idaho,Elmore,916,13,7,1,2020-12-01,43.3507101,-115.4701578
Idaho,Franklin,708,18,6,1,2020-12-01,42.18332217,-111.8149666
Idaho,Fremont,731,6,10,0,2020-12-01,44.22800938,-111.4809943
Idaho,Gem,1011,31,5,0,2020-12-01,44.06482372,-116.398376
Idaho,Gooding,961,11,10,1,2020-12-01,42.96927962,-114.8108306
Idaho,Idaho,771,19,9,3,2020-12-01,45.84721541,-115.4634436
Idaho,Jefferson,1580,30,11,0,2020-12-01,43.82078483,-112.3131749
Idaho,Jerome,1905,12,14,2,2020-12-01,42.68891267,-114.2655033
Idaho,Kootenai,7660,177,83,3,2020-12-01,47.67282258,-116.7020872
Idaho,Latah,1730,33,3,0,2020-12-01,46.81587887,-116.7113698
Idaho,Lemhi,433,1,7,0,2020-12-01,44.9438088,-113.9309747
Idaho,Lewis,210,5,4,0,2020-12-01,46.23315327,-116.434146
Idaho,Lincoln,357,2,8,0,2020-12-01,43.0012336,-114.1358773
Idaho,Madison,4276,38,8,0,2020-12-01,43.78141028,-111.65384740000002
Idaho,Minidoka,1766,4,18,0,2020-12-01,42.85518524,-113.6357257
Idaho,Nez Perce,2342,76,35,3,2020-12-01,46.32638236,-116.7500975
Idaho,Oneida,147,7,0,0,2020-12-01,42.19494279999999,-112.5407838
Idaho,Owyhee,705,8,5,0,2020-12-01,42.58016894,-116.1693871
Idaho,Payette,1657,22,15,0,2020-12-01,44.00545243,-116.7647695
Idaho,Power,467,5,4,0,2020-12-01,42.69254894,-112.83957420000002
Idaho,Shoshone,521,14,22,0,2020-12-01,47.35364087,-115.8916749
Idaho,Teton,565,3,2,0,2020-12-01,43.75303583,-111.2056773
Idaho,Twin Falls,6891,43,94,4,2020-12-01,42.35440512,-114.6685381
Idaho,Valley,253,6,1,0,2020-12-01,44.76728382,-115.5676773
Idaho,Washington,781,12,12,1,2020-12-01,44.45275475,-116.7847688
Illinois,Adams,4838,63,50,2,2020-12-01,39.98815591,-91.18786813
Illinois,Alexander,265,4,2,0,2020-12-01,37.18049267,-89.32910838
Illinois,Bond,1086,36,10,0,2020-12-01,38.88829622,-89.43534887
Illinois,Boone,3998,36,33,0,2020-12-01,42.32359279,-88.82345779
Illinois,Brown,330,8,5,1,2020-12-01,39.96209138,-90.75068024
Illinois,Bureau,2163,18,44,1,2020-12-01,41.40385234,-89.5283051
Illinois,Calhoun,262,11,0,0,2020-12-01,39.16840183,-90.66330078
Illinois,Carroll,1084,11,25,1,2020-12-01,42.06823429,-89.93395545
Illinois,Cass,992,26,23,0,2020-12-01,39.96991073,-90.24734436
Illinois,Champaign,11030,124,60,2,2020-12-01,40.13919438,-88.20046615
Illinois,Christian,1914,11,43,0,2020-12-01,39.54581621,-89.27780482
Illinois,Clark,815,10,20,0,2020-12-01,39.33425789,-87.78705622
Illinois,Clay,873,29,21,1,2020-12-01,38.75388572,-88.48914513
Illinois,Clinton,3380,43,61,0,2020-12-01,38.60704876,-89.42385254
Illinois,Coles,3369,42,59,0,2020-12-01,39.51949084,-88.22358557
Illinois,Cook,310722,4353,6695,26,2020-12-01,41.84144849,-87.81658794
Illinois,Crawford,1150,28,13,0,2020-12-01,39.0032229,-87.75954624
Illinois,Cumberland,631,10,16,0,2020-12-01,39.27432424,-88.2401158
Illinois,DeKalb,5160,132,48,0,2020-12-01,41.89373302,-88.76958483
Illinois,De Witt,637,9,18,0,2020-12-01,40.17514519,-88.90959682
Illinois,Douglas,1385,16,16,0,2020-12-01,39.76768052,-88.21854195
Illinois,DuPage,47179,1733,797,7,2020-12-01,41.85116968,-88.08642662
Illinois,Edgar,843,23,15,0,2020-12-01,39.6809186,-87.74759563
Illinois,Edwards,228,1,3,0,2020-12-01,38.41353228,-88.05720863
Illinois,Effingham,2860,59,22,1,2020-12-01,39.05935711,-88.58969584
Illinois,Fayette,1812,90,31,0,2020-12-01,39.00072038,-89.02452658
Illinois,Ford,781,21,24,2,2020-12-01,40.59706922,-88.22350769
Illinois,Franklin,2109,32,26,1,2020-12-01,37.99189086,-88.92567818
Illinois,Fulton,1510,25,13,1,2020-12-01,40.47289135,-90.20862357
Illinois,Gallatin,196,3,3,0,2020-12-01,37.76430935,-88.22953869
Illinois,Greene,850,21,31,0,2020-12-01,39.35907414,-90.388865
Illinois,Grundy,2882,69,21,3,2020-12-01,41.28569601,-88.41905692
Illinois,Hamilton,399,12,3,0,2020-12-01,38.08163641,-88.53883373
Illinois,Hancock,981,17,14,2,2020-12-01,40.40423981,-91.16313899
Illinois,Hardin,160,4,1,0,2020-12-01,37.51810645,-88.26873022
Illinois,Henderson,299,9,1,0,2020-12-01,40.81908672,-90.92491462
Illinois,Henry,2746,18,15,0,2020-12-01,41.3533994,-90.13296166
Illinois,Iroquois,1744,25,27,1,2020-12-01,40.74717633,-87.82466784
Illinois,Jackson,2752,41,36,0,2020-12-01,37.78595185,-89.38232563
Illinois,Jasper,675,23,11,0,2020-12-01,39.01054275,-88.15437049
Illinois,Jefferson,1941,33,59,0,2020-12-01,38.29980057,-88.9240025
Illinois,Jersey,1320,22,24,0,2020-12-01,39.08869046,-90.35393073
Illinois,Jo Daviess,1094,11,18,1,2020-12-01,42.36542373,-90.21094405
Illinois,Johnson,737,13,6,0,2020-12-01,37.45939802,-88.88165419
Illinois,Kane,32533,578,472,3,2020-12-01,41.93842729,-88.42861412
Illinois,Kankakee,8836,147,104,1,2020-12-01,41.13746989,-87.86205334
Illinois,Kendall,6495,177,49,2,2020-12-01,41.59081014,-88.42869583
Illinois,Knox,2890,50,68,2,2020-12-01,40.93148779,-90.21330340000002
Illinois,Lake,38073,477,641,7,2020-12-01,42.3224907,-88.00367925
Illinois,LaSalle,6274,113,139,3,2020-12-01,41.34426129999999,-88.88633881
Illinois,Lawrence,1118,36,12,1,2020-12-01,38.71987914,-87.72884035
Illinois,Lee,2046,27,36,1,2020-12-01,41.74583951,-89.29977132
Illinois,Livingston,2312,44,29,1,2020-12-01,40.89188292,-88.55784752
Illinois,Logan,1784,48,16,3,2020-12-01,40.12581572,-89.36638784
Illinois,McDonough,1609,2,42,0,2020-12-01,40.45674722,-90.67775541
Illinois,McHenry,14655,305,159,3,2020-12-01,42.32451172,-88.45248227
Illinois,McLean,8711,108,59,5,2020-12-01,40.48996987,-88.84621113
Illinois,Macon,6669,67,135,3,2020-12-01,39.86064913,-88.96342505
Illinois,Macoupin,2321,45,20,2,2020-12-01,39.26119767,-89.92424028
Illinois,Madison,14832,225,262,3,2020-12-01,38.83042506,-89.90422563
Illinois,Marion,2558,35,54,3,2020-12-01,38.64963204,-88.91899208
Illinois,Marshall,421,7,6,0,2020-12-01,41.0327901,-89.34510444
Illinois,Mason,749,16,22,0,2020-12-01,40.23917274,-89.91824452
Illinois,Massac,610,7,3,0,2020-12-01,37.22078441,-88.71036614
Illinois,Menard,486,13,1,0,2020-12-01,40.02742725,-89.80246001
Illinois,Mercer,773,7,11,1,2020-12-01,41.20596782,-90.74290052
Illinois,Monroe,2126,39,47,1,2020-12-01,38.27594376,-90.17761038
Illinois,Montgomery,1189,30,19,0,2020-12-01,39.23198845,-89.47809254
Illinois,Morgan,2243,18,39,3,2020-12-01,39.71654544,-90.20255104
Illinois,Moultrie,929,21,10,0,2020-12-01,39.64187451,-88.62099969
Illinois,Ogle,2923,42,41,3,2020-12-01,42.04165196,-89.32184679
Illinois,Peoria,9446,173,135,1,2020-12-01,40.78702156,-89.76078901
Illinois,Perry,1128,16,28,5,2020-12-01,38.08510853,-89.36856219
Illinois,Piatt,808,17,5,0,2020-12-01,40.01360584,-88.59319339
Illinois,Pike,1041,20,27,0,2020-12-01,39.62265059,-90.8877017
Illinois,Pope,105,4,1,0,2020-12-01,37.41391284,-88.56152109
Illinois,Pulaski,438,12,2,0,2020-12-01,37.22631423,-89.13085001
Illinois,Putnam,250,4,0,0,2020-12-01,41.2013541,-89.2869272
Illinois,Randolph,2305,29,26,0,2020-12-01,38.05095369,-89.82512254
Illinois,Richland,818,17,19,0,2020-12-01,38.71240969,-88.08475366
Illinois,Rock Island,8750,65,140,5,2020-12-01,41.46613806,-90.57042164
Illinois,St. Clair,13762,183,262,3,2020-12-01,38.46996033,-89.93063427
Illinois,Saline,1133,10,27,2,2020-12-01,37.75332999,-88.54119706
Illinois,Sangamon,10383,130,103,4,2020-12-01,39.75836914,-89.65872023
Illinois,Schuyler,290,12,1,0,2020-12-01,40.1571798,-90.61114163
Illinois,Scott,244,11,0,0,2020-12-01,39.6429169,-90.47814431
Illinois,Shelby,1407,19,26,0,2020-12-01,39.39133527,-88.80611122
Illinois,Stark,274,5,4,1,2020-12-01,41.09309773,-89.79745866
Illinois,Stephenson,2509,20,36,1,2020-12-01,42.35129217,-89.662598
Illinois,Tazewell,7094,147,109,3,2020-12-01,40.50716185,-89.51404662
Illinois,Union,1209,14,28,0,2020-12-01,37.47119609,-89.25548938
Illinois,Vermilion,4057,83,54,3,2020-12-01,40.18417171,-87.73384359
Illinois,Wabash,608,28,8,0,2020-12-01,38.44272901,-87.84922065
Illinois,Warren,1120,19,22,2,2020-12-01,40.84925021,-90.6147432
Illinois,Washington,726,14,2,0,2020-12-01,38.35309213,-89.40982703
Illinois,Wayne,925,14,33,0,2020-12-01,38.42955355,-88.42586459
Illinois,White,639,20,10,2,2020-12-01,38.08706198,-88.17657461
Illinois,Whiteside,3808,41,121,4,2020-12-01,41.75509713,-89.91556058
Illinois,Will,40092,1072,567,2,2020-12-01,41.44619267,-87.97862712
Illinois,Williamson,3717,58,83,0,2020-12-01,37.73033511,-88.92994027
Illinois,Winnebago,19376,226,264,2,2020-12-01,42.33641854,-89.16085327
Illinois,Woodford,1839,47,29,2,2020-12-01,40.78579374,-89.20973757
Indiana,Adams,1845,45,24,1,2020-12-01,40.7457653,-84.93671406
Indiana,Allen,19836,264,332,25,2020-12-01,41.09194313,-85.06800636
Indiana,Bartholomew,3616,65,65,0,2020-12-01,39.20744865,-85.89558181
Indiana,Benton,411,17,3,0,2020-12-01,40.60626947,-87.31093999
Indiana,Blackford,601,5,14,1,2020-12-01,40.47388153,-85.32499702
Indiana,Boone,2703,27,56,1,2020-12-01,40.0509304,-86.46841646
Indiana,Brown,394,13,5,0,2020-12-01,39.19605589,-86.22868909
Indiana,Carroll,769,16,13,0,2020-12-01,40.580783200000006,-86.56198812
Indiana,Cass,3158,43,32,1,2020-12-01,40.76135835,-86.34830753
Indiana,Clark,5548,72,81,3,2020-12-01,38.48015445,-85.70510334
Indiana,Clay,1366,15,26,1,2020-12-01,39.39561833,-87.11723506
Indiana,Clinton,1977,48,23,1,2020-12-01,40.30319754,-86.47277257
Indiana,Crawford,330,5,1,0,2020-12-01,38.28814402,-86.44518825
Indiana,Daviess,1703,28,45,0,2020-12-01,38.70186039,-87.07185406
Indiana,Dearborn,2442,31,32,1,2020-12-01,39.14647946,-84.97333539
Indiana,Decatur,1407,7,45,1,2020-12-01,39.30712658,-85.50087166
Indiana,DeKalb,1976,42,38,3,2020-12-01,41.39804622,-84.99906934
Indiana,Delaware,5299,47,107,3,2020-12-01,40.22787247,-85.39732772
Indiana,Dubois,2574,37,32,0,2020-12-01,38.36597551,-86.87924170000002
Indiana,Elkhart,18265,191,242,6,2020-12-01,41.59761169,-85.85875695
Indiana,Fayette,1617,19,35,1,2020-12-01,39.63684962,-85.17797541
Indiana,Floyd,3419,39,78,0,2020-12-01,38.32117957,-85.90385377
Indiana,Fountain,897,20,8,0,2020-12-01,40.12361933,-87.24217689
Indiana,Franklin,784,14,27,0,2020-12-01,39.4142482,-85.06062647
Indiana,Fulton,920,19,19,0,2020-12-01,41.0469907,-86.26252745
Indiana,Gibson,2111,38,30,1,2020-12-01,38.30393723,-87.58054938
Indiana,Grant,3090,65,52,2,2020-12-01,40.51587228,-85.65468702
Indiana,Greene,1145,23,53,0,2020-12-01,39.03630547,-86.96223202
Indiana,Hamilton,14617,253,175,3,2020-12-01,40.07306535,-86.05244729
Indiana,Hancock,2976,33,62,5,2020-12-01,39.82304555,-85.77566351
Indiana,Harrison,1596,38,24,0,2020-12-01,38.19467379,-86.10948271
Indiana,Hendricks,6961,141,162,0,2020-12-01,39.76719009,-86.51037283
Indiana,Henry,2687,26,40,1,2020-12-01,39.93029017,-85.39625719
Indiana,Howard,3905,76,78,0,2020-12-01,40.48527731,-86.11351892
Indiana,Huntington,1428,10,10,0,2020-12-01,40.82907273,-85.48822092
Indiana,Jackson,2478,58,34,0,2020-12-01,38.90915820000001,-86.03851889
Indiana,Jasper,1620,29,13,0,2020-12-01,41.02078733,-87.11553319
Indiana,Jay,1104,40,15,1,2020-12-01,40.43781032,-85.00576229
Indiana,Jefferson,1347,13,16,0,2020-12-01,38.78576239,-85.43633383
Indiana,Jennings,1004,17,15,1,2020-12-01,38.99588883,-85.62710784
Indiana,Johnson,7267,135,175,4,2020-12-01,39.48994426,-86.10149107
Indiana,Knox,1999,19,22,1,2020-12-01,38.68861576,-87.4194665
Indiana,Kosciusko,4917,77,45,3,2020-12-01,41.24521668,-85.86312322
Indiana,LaGrange,1540,18,33,1,2020-12-01,41.64232188,-85.42674232
Indiana,Lake,29643,460,475,6,2020-12-01,41.41874274,-87.38277575
Indiana,LaPorte,5100,81,101,4,2020-12-01,41.54366008,-86.74072188
Indiana,Lawrence,1975,62,49,0,2020-12-01,38.84112637,-86.48361629
Indiana,Madison,5580,74,124,0,2020-12-01,40.16143691,-85.71964711
Indiana,Marion,46886,755,885,15,2020-12-01,39.78163624,-86.13826325
Indiana,Marshall,3233,29,48,2,2020-12-01,41.32467367,-86.26185087
Indiana,Martin,383,-3,6,0,2020-12-01,38.7099921,-86.80373186
Indiana,Miami,1831,17,17,0,2020-12-01,40.76940965,-86.04525048
Indiana,Monroe,5826,102,53,1,2020-12-01,39.16130004,-86.52414358
Indiana,Montgomery,1643,60,29,0,2020-12-01,40.04034823,-86.89335024
Indiana,Morgan,2441,76,44,1,2020-12-01,39.47899078,-86.44573375
Indiana,Newton,608,14,13,1,2020-12-01,40.95610449,-87.39635768
Indiana,Noble,2789,48,49,2,2020-12-01,41.39672484,-85.41966713
Indiana,Ohio,246,1,7,0,2020-12-01,38.955305,-84.96515993
Indiana,Orange,739,8,28,0,2020-12-01,38.54118920000001,-86.49523093
Indiana,Owen,687,18,9,0,2020-12-01,39.31145587,-86.83900724
Indiana,Parke,663,17,6,0,2020-12-01,39.77202286,-87.20375833
Indiana,Perry,877,4,21,0,2020-12-01,38.07809328,-86.63741946
Indiana,Pike,552,3,20,0,2020-12-01,38.40112197,-87.23574907
Indiana,Porter,9034,128,91,1,2020-12-01,41.45986947,-87.06848888
Indiana,Posey,1316,13,18,0,2020-12-01,38.02097333,-87.86480429
Indiana,Pulaski,470,20,18,2,2020-12-01,41.04166107,-86.69890683
Indiana,Putnam,1406,25,29,0,2020-12-01,39.66437981,-86.84517605
Indiana,Randolph,1368,28,23,1,2020-12-01,40.15734772,-85.01139319
Indiana,Ripley,1606,49,21,0,2020-12-01,39.10235626,-85.26212744
Indiana,Rush,619,12,8,0,2020-12-01,39.62002287,-85.4655599
Indiana,St. Joseph,18122,314,242,3,2020-12-01,41.61756781,-86.29040834
Indiana,Scott,1207,13,23,2,2020-12-01,38.68672078,-85.74627859
Indiana,Shelby,2086,45,59,0,2020-12-01,39.52305623,-85.79158570000001
Indiana,Spencer,941,15,8,0,2020-12-01,38.01519732,-87.0079644
Indiana,Starke,991,11,26,1,2020-12-01,41.27890281,-86.64686895
Indiana,Steuben,1608,27,15,-1,2020-12-01,41.64423868,-85.00101094
Indiana,Sullivan,1077,10,18,1,2020-12-01,39.08952258,-87.41414469
Indiana,Switzerland,274,1,5,0,2020-12-01,38.82767338,-85.03022429
Indiana,Tippecanoe,9648,167,33,3,2020-12-01,40.38872739,-86.89413959
Indiana,Tipton,656,16,27,0,2020-12-01,40.31123252,-86.05234925
Indiana,Union,296,-5,2,0,2020-12-01,39.62550777,-84.92497066
Indiana,Vanderburgh,10672,126,129,1,2020-12-01,38.02658833,-87.58763124
Indiana,Vermillion,706,14,9,2,2020-12-01,39.8523352,-87.46160542
Indiana,Vigo,6513,78,103,11,2020-12-01,39.42944561,-87.39169027
Indiana,Wabash,1875,36,23,1,2020-12-01,40.84704239,-85.79328272
Indiana,Warren,268,2,3,0,2020-12-01,40.34728141,-87.35602659
Indiana,Warrick,3536,36,73,0,2020-12-01,38.08922676,-87.2716085
Indiana,Washington,865,17,8,1,2020-12-01,38.60219804,-86.1049363
Indiana,Wayne,3511,53,90,4,2020-12-01,39.8633444,-85.01044989
Indiana,Wells,1392,22,33,3,2020-12-01,40.72934187,-85.22132966
Indiana,White,1436,33,24,1,2020-12-01,40.74911165,-86.86492015
Indiana,Whitley,1523,26,16,1,2020-12-01,41.13863784,-85.50791236
Iowa,Adair,444,3,8,0,2020-12-01,41.33075609,-94.47105874
Iowa,Adams,171,0,2,0,2020-12-01,41.02903567,-94.69932645
Iowa,Allamakee,850,22,11,0,2020-12-01,43.28383218,-91.37860922
Iowa,Appanoose,804,5,12,0,2020-12-01,40.74324454,-92.86865906
Iowa,Audubon,301,1,2,0,2020-12-01,41.6844628,-94.90581859
Iowa,Benton,1728,10,21,0,2020-12-01,42.08011739,-92.06463573
Iowa,Black Hawk,11130,162,137,0,2020-12-01,42.4704581,-92.30524729
Iowa,Boone,1404,21,11,0,2020-12-01,42.03657094,-93.9313999
Iowa,Bremer,1984,17,12,0,2020-12-01,42.77461496,-92.31795937
Iowa,Buchanan,1209,24,10,0,2020-12-01,42.4709188,-91.83510825
Iowa,Buena Vista,3092,19,14,0,2020-12-01,42.73545875,-95.15100162
Iowa,Butler,1046,20,6,0,2020-12-01,42.73172833,-92.79015971
Iowa,Calhoun,1088,13,7,0,2020-12-01,42.38521079,-94.64046046
Iowa,Carroll,2012,13,22,0,2020-12-01,42.03617207,-94.86032705
Iowa,Cass,822,4,24,1,2020-12-01,41.33149454,-94.92792482
Iowa,Cedar,1111,18,13,0,2020-12-01,41.77233777,-91.13246684
Iowa,Cerro Gordo,3625,35,48,2,2020-12-01,43.08177563,-93.2612239
Iowa,Cherokee,918,17,4,0,2020-12-01,42.73538914,-95.62389402
Iowa,Chickasaw,883,17,4,0,2020-12-01,43.06001295,-92.31773347
Iowa,Clarke,494,4,4,0,2020-12-01,41.02868181,-93.78499767
Iowa,Clay,1200,8,4,0,2020-12-01,43.08247182,-95.15096481
Iowa,Clayton,1132,9,8,0,2020-12-01,42.84443388,-91.34133693
Iowa,Clinton,3390,52,44,0,2020-12-01,41.89981633,-90.53275096
Iowa,Crawford,1790,21,16,0,2020-12-01,42.03718237,-95.3819718
Iowa,Dallas,6476,59,57,0,2020-12-01,41.68560356,-94.04127625
Iowa,Davis,477,4,9,0,2020-12-01,40.74773536,-92.41005468
Iowa,Decatur,324,4,0,0,2020-12-01,40.73742757,-93.78645949
Iowa,Delaware,1456,7,21,0,2020-12-01,42.47104597,-91.3664492
Iowa,Des Moines,2920,4,21,1,2020-12-01,40.92012606,-91.18326592
Iowa,Dickinson,1413,10,11,0,2020-12-01,43.37787725,-95.1510206
Iowa,Dubuque,9342,68,93,2,2020-12-01,42.46815349,-90.88181925
Iowa,Emmet,771,3,24,0,2020-12-01,43.37782951,-94.67858943
Iowa,Fayette,1076,20,10,0,2020-12-01,42.86271799,-91.8441231
Iowa,Floyd,1080,18,17,1,2020-12-01,43.06000529999999,-92.78940097
Iowa,Franklin,745,2,21,0,2020-12-01,42.73270384,-93.26256925
Iowa,Fremont,369,3,3,0,2020-12-01,40.74542720000001,-95.60129045
Iowa,Greene,538,7,1,1,2020-12-01,42.03614551,-94.39658081
Iowa,Grundy,879,8,11,0,2020-12-01,42.40183723,-92.78829551
Iowa,Guthrie,768,5,15,0,2020-12-01,41.68378965,-94.50111014
Iowa,Hamilton,1165,23,10,1,2020-12-01,42.38382428,-93.70197703
Iowa,Hancock,882,9,7,0,2020-12-01,43.08178477,-93.73454884
Iowa,Hardin,1186,21,10,0,2020-12-01,42.38353877,-93.23654611
Iowa,Harrison,1101,15,30,0,2020-12-01,41.68330137,-95.81558439
Iowa,Henry,1870,29,7,0,2020-12-01,40.98767962,-91.54436349
Iowa,Howard,565,4,9,0,2020-12-01,43.35671042,-92.31702714
Iowa,Humboldt,795,10,5,0,2020-12-01,42.7764426,-94.20722537
Iowa,Ida,523,23,13,0,2020-12-01,42.38696136,-95.51355387
Iowa,Iowa,988,12,13,1,2020-12-01,41.68630265,-92.0643373
Iowa,Jackson,1474,9,13,0,2020-12-01,42.17178824,-90.57354837
Iowa,Jasper,2267,24,44,0,2020-12-01,41.68576082,-93.05567785
Iowa,Jefferson,734,9,2,0,2020-12-01,41.03192394,-91.94849466
Iowa,Johnson,9713,72,37,0,2020-12-01,41.67169354,-91.58754744
Iowa,Jones,2344,8,17,2,2020-12-01,42.12118609,-91.13139641
Iowa,Keokuk,628,13,7,0,2020-12-01,41.33649833,-92.1785067
Iowa,Kossuth,1102,18,7,0,2020-12-01,43.20405458,-94.20691791
Iowa,Lee,2072,22,17,0,2020-12-01,40.64181461,-91.48183025
Iowa,Linn,14513,173,166,0,2020-12-01,42.07923082,-91.59809485
Iowa,Louisa,883,15,18,0,2020-12-01,41.21842119,-91.26102611
Iowa,Lucas,335,6,6,0,2020-12-01,41.02958964,-93.32780803
Iowa,Lyon,1057,4,8,0,2020-12-01,43.38107862,-96.20926845
Iowa,Madison,708,16,4,0,2020-12-01,41.33081904,-94.01554631
Iowa,Mahaska,1311,32,27,0,2020-12-01,41.33521503,-92.64083907
Iowa,Marion,2083,15,22,1,2020-12-01,41.33445101,-93.09934783
Iowa,Marshall,3541,29,46,0,2020-12-01,42.03586837,-92.9990819
Iowa,Mills,1069,5,7,0,2020-12-01,41.03299766,-95.61920963
Iowa,Mitchell,811,8,5,0,2020-12-01,43.35638371,-92.78887719
Iowa,Monona,444,4,4,2,2020-12-01,42.05220391,-95.95743843
Iowa,Monroe,450,3,13,1,2020-12-01,41.02988815,-92.8690667
Iowa,Montgomery,486,16,11,0,2020-12-01,41.03018714,-95.15642896
Iowa,Muscatine,2962,28,69,0,2020-12-01,41.48370744,-91.1121697
Iowa,O'Brien,1320,16,31,0,2020-12-01,43.08310673,-95.62474482
Iowa,Osceola,538,4,1,0,2020-12-01,43.37824276,-95.62422844
Iowa,Page,1153,1,4,0,2020-12-01,40.7393172,-95.1497813
Iowa,Palo Alto,659,2,4,0,2020-12-01,43.08193849,-94.67824621
Iowa,Plymouth,2787,16,42,0,2020-12-01,42.737633,-96.21366621
Iowa,Pocahontas,584,20,4,0,2020-12-01,42.73420133,-94.67862564
Iowa,Polk,34208,312,339,3,2020-12-01,41.68679484,-93.57767461
Iowa,Pottawattamie,6505,65,71,1,2020-12-01,41.33640314,-95.53907776
Iowa,Poweshiek,1010,13,13,0,2020-12-01,41.68625425,-92.53155731
Iowa,Ringgold,231,11,2,0,2020-12-01,40.73518949,-94.24368535
Iowa,Sac,886,13,8,0,2020-12-01,42.38624071,-95.10547892
Iowa,Scott,11530,205,87,0,2020-12-01,41.63935978,-90.61959493
Iowa,Shelby,781,8,11,0,2020-12-01,41.6850066,-95.31015553
Iowa,Sioux,3751,24,26,1,2020-12-01,43.08221074,-96.1767568
Iowa,Story,6892,47,22,0,2020-12-01,42.03621213,-93.46499005
Iowa,Tama,1562,13,40,0,2020-12-01,42.07991767,-92.53266945
Iowa,Taylor,471,4,3,0,2020-12-01,40.73710579,-94.69778563
Iowa,Union,788,9,6,0,2020-12-01,41.0277278,-94.24234847
Iowa,Van Buren,365,4,5,0,2020-12-01,40.75326764,-91.95017958
Iowa,Wapello,2585,12,72,0,2020-12-01,41.03064984,-92.40954728
Iowa,Warren,2873,41,14,0,2020-12-01,41.33559454,-93.56007641
Iowa,Washington,1468,6,15,0,2020-12-01,41.33577126,-91.71725711
Iowa,Wayne,304,2,7,0,2020-12-01,40.73969028,-93.32752197
Iowa,Webster,3699,60,36,0,2020-12-01,42.42853483,-94.17987389
Iowa,Winnebago,938,7,24,0,2020-12-01,43.37751174,-93.73407298
Iowa,Winneshiek,1010,26,13,0,2020-12-01,43.29094334,-91.84422722
Iowa,Woodbury,10484,56,130,1,2020-12-01,42.38979414,-96.0459439
Iowa,Worth,373,4,0,0,2020-12-01,43.37750768,-93.26087602
Iowa,Wright,1287,17,7,1,2020-12-01,42.73305373,-93.73515113
Kansas,Allen,374,0,1,0,2020-12-01,37.88582951,-95.30030847
Kansas,Anderson,385,0,0,0,2020-12-01,38.21413251,-95.29272815
Kansas,Atchison,873,0,9,0,2020-12-01,39.53185661,-95.30870026
Kansas,Barber,197,0,0,0,2020-12-01,37.2288586,-98.68460053
Kansas,Barton,1706,0,13,0,2020-12-01,38.47889676,-98.75636726
Kansas,Bourbon,564,0,3,0,2020-12-01,37.85508555,-94.84865997
Kansas,Brown,760,0,7,0,2020-12-01,39.82652589,-95.56421698
Kansas,Butler,3468,0,11,0,2020-12-01,37.78134351,-96.83878537
Kansas,Chase,163,0,3,0,2020-12-01,38.30292938,-96.59563862
Kansas,Chautauqua,81,0,1,0,2020-12-01,37.14994405,-96.2454192
Kansas,Cherokee,1151,21,9,0,2020-12-01,37.16928494,-94.8462897
Kansas,Cheyenne,208,0,9,0,2020-12-01,39.78580976,-101.7318201
Kansas,Clark,140,0,4,0,2020-12-01,37.23577007,-99.81883015
Kansas,Clay,453,0,11,0,2020-12-01,39.34948772,-97.16518128
Kansas,Cloud,613,0,11,0,2020-12-01,39.48028352,-97.64925343
Kansas,Coffey,309,0,10,0,2020-12-01,38.2365018,-95.73379515
Kansas,Comanche,82,0,0,0,2020-12-01,37.19114520000001,-99.27113247
Kansas,Cowley,1631,0,10,0,2020-12-01,37.23781842,-96.83776647
Kansas,Crawford,2427,0,18,0,2020-12-01,37.50675523,-94.85245778
Kansas,Decatur,201,0,1,0,2020-12-01,39.78468441,-100.4594081
Kansas,Dickinson,731,0,10,0,2020-12-01,38.86600962,-97.15532383
Kansas,Doniphan,516,0,2,0,2020-12-01,39.79067154,-95.14056866
Kansas,Douglas,4928,48,26,1,2020-12-01,38.88503636,-95.2925121
Kansas,Edwards,178,0,0,0,2020-12-01,37.88735543,-99.31263309
Kansas,Elk,58,0,0,0,2020-12-01,37.45338105,-96.24369667
Kansas,Ellis,2404,0,28,0,2020-12-01,38.91458712,-99.31751551
Kansas,Ellsworth,711,0,4,0,2020-12-01,38.69677695,-98.20462799
Kansas,Finney,4628,2,23,0,2020-12-01,38.04340344,-100.7381938
Kansas,Ford,4650,0,13,0,2020-12-01,37.69200114,-99.88825298
Kansas,Franklin,1113,0,16,0,2020-12-01,38.56443815,-95.28644341
Kansas,Geary,992,0,5,0,2020-12-01,38.99871131,-96.7577178
Kansas,Gove,301,0,20,0,2020-12-01,38.91588178,-100.4829321
Kansas,Graham,163,0,2,0,2020-12-01,39.34987223,-99.88332493
Kansas,Grant,766,27,12,2,2020-12-01,37.56227336,-101.3079758
Kansas,Gray,448,0,4,0,2020-12-01,37.73836671,-100.4369088
Kansas,Greeley,88,0,0,0,2020-12-01,38.4808095,-101.8061079
Kansas,Greenwood,227,30,1,0,2020-12-01,37.8774388,-96.23250453
Kansas,Hamilton,159,0,0,0,2020-12-01,37.99978709,-101.7921066
Kansas,Harper,320,0,12,0,2020-12-01,37.19175361,-98.07578384
Kansas,Harvey,1842,0,16,1,2020-12-01,38.04293782,-97.42747573
Kansas,Haskell,264,0,1,0,2020-12-01,37.5620394,-100.8710738
Kansas,Hodgeman,140,0,4,0,2020-12-01,38.08780079,-99.89829881
Kansas,Jackson,697,0,4,0,2020-12-01,39.41673394,-95.79356799
Kansas,Jefferson,731,0,8,0,2020-12-01,39.2347941,-95.38289232
Kansas,Jewell,85,0,1,0,2020-12-01,39.78470589,-98.21820662
Kansas,Johnson,27420,0,289,4,2020-12-01,38.88548175,-94.82250877
Kansas,Kearny,381,0,8,0,2020-12-01,38.00017981,-101.321681
Kansas,Kingman,388,0,4,0,2020-12-01,37.55909527,-98.13638678
Kansas,Kiowa,108,0,0,0,2020-12-01,37.55848695,-99.2856537
Kansas,Labette,875,0,6,0,2020-12-01,37.19113093,-95.29849679
Kansas,Lane,77,0,0,0,2020-12-01,38.48119447,-100.4660754
Kansas,Leavenworth,3817,0,31,0,2020-12-01,39.20183497,-95.03620809
Kansas,Lincoln,94,0,1,0,2020-12-01,39.04549684,-98.20756994
Kansas,Linn,308,0,1,0,2020-12-01,38.21267844,-94.84254089
Kansas,Logan,238,0,0,0,2020-12-01,38.91735806,-101.148475
Kansas,Lyon,2657,0,47,0,2020-12-01,38.45576156,-96.15275715
Kansas,McPherson,1522,75,10,1,2020-12-01,38.39184858,-97.64769869
Kansas,Marion,430,0,1,0,2020-12-01,38.35855394,-97.0985251
Kansas,Marshall,455,0,0,0,2020-12-01,39.78359669,-96.52278974
Kansas,Meade,308,0,2,0,2020-12-01,37.23859987,-100.364831
Kansas,Miami,1073,0,2,0,2020-12-01,38.56383358,-94.83832189
Kansas,Mitchell,228,0,0,0,2020-12-01,39.39331582,-98.20906732
Kansas,Montgomery,1158,0,6,0,2020-12-01,37.19236568,-95.74329258
Kansas,Morris,173,0,1,0,2020-12-01,38.68827511,-96.65128437
Kansas,Morton,164,0,6,0,2020-12-01,37.19141121,-101.79925190000002
Kansas,Nemaha,1085,39,24,9,2020-12-01,39.78345387,-96.01392079
Kansas,Neosho,690,0,0,0,2020-12-01,37.55862897,-95.30670046
Kansas,Ness,278,0,13,0,2020-12-01,38.47974157,-99.91547333
Kansas,Norton,1092,0,23,0,2020-12-01,39.78443827,-99.90286639
Kansas,Osage,535,0,6,0,2020-12-01,38.65235984,-95.72707998
Kansas,Osborne,91,0,0,0,2020-12-01,39.3503437,-98.76753828
Kansas,Ottawa,250,0,0,0,2020-12-01,39.13237408,-97.65020313
Kansas,Pawnee,675,0,1,0,2020-12-01,38.18108732,-99.23692334
Kansas,Phillips,435,0,10,0,2020-12-01,39.78465501,-99.34668865
Kansas,Pottawatomie,693,0,2,0,2020-12-01,39.37925655,-96.34564657
Kansas,Pratt,500,0,10,0,2020-12-01,37.64780729,-98.73922153
Kansas,Rawlins,239,0,3,0,2020-12-01,39.78525843,-101.0761617
Kansas,Reno,5137,0,51,2,2020-12-01,37.95230263,-98.08607292
Kansas,Republic,349,11,5,2,2020-12-01,39.82799632,-97.65036709
Kansas,Rice,468,0,1,0,2020-12-01,38.34616184,-98.19992118
Kansas,Riley,3709,0,15,0,2020-12-01,39.28935726,-96.73420026
Kansas,Rooks,368,0,8,0,2020-12-01,39.35022773,-99.32484567
Kansas,Rush,264,0,0,0,2020-12-01,38.52275276,-99.30863983
Kansas,Russell,551,0,15,0,2020-12-01,38.91462787,-98.76254297
Kansas,Saline,2503,0,22,0,2020-12-01,38.78369175,-97.65185177
Kansas,Scott,362,0,3,0,2020-12-01,38.48222076,-100.9066539
Kansas,Sedgwick,27966,0,150,0,2020-12-01,37.6842718,-97.4608198
Kansas,Seward,3006,54,13,0,2020-12-01,37.19324632,-100.8507201
Kansas,Shawnee,7855,0,139,5,2020-12-01,39.04100763,-95.7557264
Kansas,Sheridan,320,0,0,0,2020-12-01,39.35018161,-100.4418259
Kansas,Sherman,451,0,7,0,2020-12-01,39.35147699,-101.7197624
Kansas,Smith,144,0,1,0,2020-12-01,39.78516566,-98.78566062
Kansas,Stafford,209,0,3,0,2020-12-01,38.03100851,-98.71762001
Kansas,Stanton,148,0,2,0,2020-12-01,37.56304714,-101.7843534
Kansas,Stevens,444,0,4,0,2020-12-01,37.1923008,-101.3118967
Kansas,Sumner,824,0,6,0,2020-12-01,37.23682549,-97.47721621
Kansas,Thomas,737,10,6,0,2020-12-01,39.35107575,-101.0553705
Kansas,Trego,225,0,3,0,2020-12-01,38.91467218,-99.87284448
Kansas,Wabaunsee,308,0,2,0,2020-12-01,38.95471985,-96.20350509
Kansas,Wallace,138,1,0,0,2020-12-01,38.91686134,-101.7638876
Kansas,Washington,322,0,6,0,2020-12-01,39.78420784,-97.0875323
Kansas,Wichita,152,0,2,0,2020-12-01,38.48178252,-101.3471509
Kansas,Wilson,313,0,4,0,2020-12-01,37.55937174,-95.74323255
Kansas,Woodson,69,0,0,0,2020-12-01,37.8865336,-95.74006277
Kansas,Wyandotte,11528,0,180,2,2020-12-01,39.11727348,-94.76378225
Kentucky,Adair,762,19,23,0,2020-12-01,37.10459774,-85.28129668
Kentucky,Allen,738,9,13,0,2020-12-01,36.75197631,-86.19457544
Kentucky,Anderson,529,23,1,0,2020-12-01,38.00671029,-84.99171713
Kentucky,Ballard,156,9,2,0,2020-12-01,37.05842757,-88.99427697
Kentucky,Barren,2034,49,28,0,2020-12-01,36.96469836,-85.93338945
Kentucky,Bath,283,6,1,0,2020-12-01,38.14735938,-83.74588932
Kentucky,Bell,1275,28,19,0,2020-12-01,36.73355174,-83.67766671
Kentucky,Boone,4802,101,29,0,2020-12-01,38.97065142,-84.72615357
Kentucky,Bourbon,554,5,1,0,2020-12-01,38.2054607,-84.21827874
Kentucky,Boyd,1803,24,25,1,2020-12-01,38.36176608,-82.68652187
Kentucky,Boyle,1027,32,0,0,2020-12-01,37.62680923,-84.8633779
Kentucky,Bracken,161,13,3,0,2020-12-01,38.69158994,-84.08532444
Kentucky,Breathitt,374,2,3,0,2020-12-01,37.52333168,-83.31959161
Kentucky,Breckinridge,448,6,4,0,2020-12-01,37.77377239,-86.42885017
Kentucky,Bullitt,2953,67,22,0,2020-12-01,37.97162523,-85.68955617
Kentucky,Butler,586,11,16,0,2020-12-01,37.20946153,-86.68748787
Kentucky,Caldwell,603,2,5,0,2020-12-01,37.14749129,-87.86948214
Kentucky,Calloway,1776,18,17,1,2020-12-01,36.62093411,-88.2731593
Kentucky,Campbell,2959,72,20,0,2020-12-01,38.94384345,-84.37875208
Kentucky,Carlisle,207,7,1,0,2020-12-01,36.85372876,-88.96692220000001
Kentucky,Carroll,349,3,6,0,2020-12-01,38.66599534,-85.12601074
Kentucky,Carter,797,46,5,0,2020-12-01,38.31690743,-83.05092385
Kentucky,Casey,521,9,16,0,2020-12-01,37.32533118,-84.92726209
Kentucky,Christian,3052,71,40,1,2020-12-01,36.89267803,-87.49055367
Kentucky,Clark,949,27,12,0,2020-12-01,37.9689263,-84.14615986
Kentucky,Clay,1039,50,8,0,2020-12-01,37.16451126,-83.712575
Kentucky,Clinton,407,9,4,0,2020-12-01,36.72581156,-85.13377529
Kentucky,Crittenden,254,1,1,0,2020-12-01,37.35839237,-88.08826090000002
Kentucky,Cumberland,228,8,0,0,2020-12-01,36.78926125,-85.39050034
Kentucky,Daviess,3675,118,48,1,2020-12-01,37.73028906,-87.09019479999998
Kentucky,Edmonson,376,12,13,0,2020-12-01,37.21218923,-86.23955613
Kentucky,Elliott,645,5,0,0,2020-12-01,38.11624059,-83.09771563
Kentucky,Estill,484,4,0,0,2020-12-01,37.69241417,-83.95956369
Kentucky,Fayette,17654,241,108,1,2020-12-01,38.0368225,-84.45576892
Kentucky,Fleming,358,1,0,0,2020-12-01,38.36758311,-83.69657514
Kentucky,Floyd,1292,33,7,0,2020-12-01,37.56213922,-82.74750924
Kentucky,Franklin,1442,23,14,0,2020-12-01,38.2379395,-84.87962551
Kentucky,Fulton,300,2,4,0,2020-12-01,36.55238827,-89.20140068
Kentucky,Gallatin,247,10,9,0,2020-12-01,38.75398691,-84.8558382
Kentucky,Garrard,631,24,4,0,2020-12-01,37.6388668,-84.53289319
Kentucky,Grant,698,17,6,0,2020-12-01,38.64962758,-84.62415957
Kentucky,Graves,1887,47,37,1,2020-12-01,36.72292505,-88.65143315
Kentucky,Grayson,953,15,24,4,2020-12-01,37.46231118,-86.34248968
Kentucky,Green,511,10,10,0,2020-12-01,37.26484328,-85.5540745
Kentucky,Greenup,1470,41,12,0,2020-12-01,38.54332505,-82.9215658
Kentucky,Hancock,312,4,9,0,2020-12-01,37.83766422,-86.78280584
Kentucky,Hardin,4327,119,31,0,2020-12-01,37.6976111,-85.96319251
Kentucky,Harlan,932,24,15,0,2020-12-01,36.85699301,-83.21899516
Kentucky,Harrison,496,13,1,0,2020-12-01,38.44188174,-84.32869741
Kentucky,Hart,830,52,4,0,2020-12-01,37.29943898,-85.88461055
Kentucky,Henderson,2127,29,37,1,2020-12-01,37.79344553,-87.57392021
Kentucky,Henry,518,5,3,0,2020-12-01,38.44942688,-85.11587507
Kentucky,Hickman,164,7,2,0,2020-12-01,36.67948079999999,-88.97875928
Kentucky,Hopkins,1880,67,48,1,2020-12-01,37.30939025,-87.54670406
Kentucky,Jackson,667,15,17,0,2020-12-01,37.41866422,-83.99825483
Kentucky,Jefferson,37901,671,458,13,2020-12-01,38.18664655,-85.65931031
Kentucky,Jessamine,1850,33,31,1,2020-12-01,37.87119786,-84.58252003
Kentucky,Johnson,798,24,4,0,2020-12-01,37.85106355,-82.8264322
Kentucky,Kenton,5587,123,59,1,2020-12-01,38.93950319,-84.53241199
Kentucky,Knott,573,2,9,0,2020-12-01,37.35388197,-82.94981134
Kentucky,Knox,1225,27,10,0,2020-12-01,36.89225732,-83.85403396
Kentucky,Larue,582,20,1,0,2020-12-01,37.54567114,-85.70138352
Kentucky,Laurel,2524,89,11,0,2020-12-01,37.10975748,-84.11321779
Kentucky,Lawrence,418,22,1,0,2020-12-01,38.07136018,-82.72882223
Kentucky,Lee,948,3,15,0,2020-12-01,37.59645942,-83.71513901
Kentucky,Leslie,292,9,1,0,2020-12-01,37.09246661,-83.37999606
Kentucky,Letcher,537,10,2,0,2020-12-01,37.12306748,-82.85346474
Kentucky,Lewis,504,2,20,0,2020-12-01,38.53184419,-83.37735618
Kentucky,Lincoln,744,53,20,0,2020-12-01,37.45475628,-84.6565327
Kentucky,Livingston,310,11,3,0,2020-12-01,37.21137452,-88.34797529
Kentucky,Logan,1251,26,35,0,2020-12-01,36.85949479,-86.877635
Kentucky,Lyon,209,5,5,0,2020-12-01,37.02080035,-88.07886257
Kentucky,McCracken,2987,170,28,2,2020-12-01,37.05350953,-88.70445755
Kentucky,McCreary,423,7,1,0,2020-12-01,36.73874143,-84.48102924
Kentucky,McLean,396,4,16,0,2020-12-01,37.5301951,-87.26803443
Kentucky,Madison,4024,101,18,-1,2020-12-01,37.71659336,-84.27220275
Kentucky,Magoffin,521,39,1,0,2020-12-01,37.70820545,-83.0657714
Kentucky,Marion,1030,62,12,0,2020-12-01,37.55218078,-85.26898542
Kentucky,Marshall,1020,39,14,1,2020-12-01,36.88007070000001,-88.32803576
Kentucky,Martin,440,10,8,0,2020-12-01,37.79990579,-82.51247478
Kentucky,Mason,468,12,3,1,2020-12-01,38.59471935,-83.82151043
Kentucky,Meade,679,8,4,0,2020-12-01,37.96163597,-86.21028219
Kentucky,Menifee,135,0,1,0,2020-12-01,37.94090733,-83.59985712
Kentucky,Mercer,746,24,6,0,2020-12-01,37.81474237,-84.87488475
Kentucky,Metcalfe,397,6,4,0,2020-12-01,36.99459295,-85.63123699
Kentucky,Monroe,723,17,16,2,2020-12-01,36.71225341,-85.71596443
Kentucky,Montgomery,961,50,10,1,2020-12-01,38.03253032,-83.9145241
Kentucky,Morgan,339,7,0,0,2020-12-01,37.92465657,-83.25558245
Kentucky,Muhlenberg,1415,15,19,0,2020-12-01,37.21425819,-87.14632053
Kentucky,Nelson,2176,51,6,0,2020-12-01,37.80335779,-85.4657193
Kentucky,Nicholas,178,3,3,0,2020-12-01,38.33342292,-84.01889177
Kentucky,Ohio,1009,29,17,0,2020-12-01,37.47751843,-86.85368087
Kentucky,Oldham,2558,84,33,0,2020-12-01,38.39791089,-85.448222
Kentucky,Owen,199,9,3,0,2020-12-01,38.51679143,-84.82404619
Kentucky,Owsley,238,5,1,0,2020-12-01,37.42823949,-83.68811419
Kentucky,Pendleton,391,14,1,0,2020-12-01,38.69607718,-84.35599463
Kentucky,Perry,1004,16,11,0,2020-12-01,37.25023553,-83.22922731
Kentucky,Pike,1896,51,22,0,2020-12-01,37.47088263,-82.39487445
Kentucky,Powell,503,4,0,0,2020-12-01,37.83218794,-83.82553961
Kentucky,Pulaski,1668,44,13,0,2020-12-01,37.10466131,-84.57629079
Kentucky,Robertson,85,2,3,1,2020-12-01,38.51923469,-84.05055616
Kentucky,Rockcastle,534,20,7,0,2020-12-01,37.36642393,-84.31176452
Kentucky,Rowan,837,39,2,0,2020-12-01,38.19484205,-83.42088935
Kentucky,Russell,577,5,7,0,2020-12-01,36.99308373,-85.06070117
Kentucky,Scott,1766,22,21,0,2020-12-01,38.29622293,-84.5816631
Kentucky,Shelby,2270,17,27,0,2020-12-01,38.21476019,-85.194223
Kentucky,Simpson,717,17,8,0,2020-12-01,36.74058474,-86.58047435
Kentucky,Spencer,651,8,2,0,2020-12-01,38.03223971,-85.32749335
Kentucky,Taylor,974,23,7,0,2020-12-01,37.3677562,-85.3329931
Kentucky,Todd,434,8,13,0,2020-12-01,36.8381152,-87.17878374
Kentucky,Trigg,421,7,1,0,2020-12-01,36.80767017,-87.87333656
Kentucky,Trimble,184,3,0,0,2020-12-01,38.61056487,-85.33775972
Kentucky,Union,733,10,7,1,2020-12-01,37.66166713,-87.94300009
Kentucky,Warren,7438,143,73,0,2020-12-01,36.99903045,-86.42672751
Kentucky,Washington,560,28,3,0,2020-12-01,37.75599461,-85.17407732
Kentucky,Wayne,571,10,2,0,2020-12-01,36.80310688,-84.8251971
Kentucky,Webster,566,6,7,0,2020-12-01,37.52168356,-87.67989953
Kentucky,Whitley,1564,38,8,0,2020-12-01,36.75700531,-84.14541217
Kentucky,Wolfe,196,5,1,0,2020-12-01,37.73941626,-83.49303612
Kentucky,Woodford,807,36,0,0,2020-12-01,38.04178222,-84.7417556
Louisiana,Acadia,4029,51,118,0,2020-12-01,30.2950649,-92.41419698
Louisiana,Allen,2123,14,68,0,2020-12-01,30.65385745,-92.82442028
Louisiana,Ascension,5837,182,108,0,2020-12-01,30.20406249,-90.91328409999998
Louisiana,Assumption,1029,13,25,0,2020-12-01,29.89946234,-91.06461642
Louisiana,Avoyelles,2142,61,68,0,2020-12-01,31.07796211,-92.00079449
Louisiana,Beauregard,1399,29,50,0,2020-12-01,30.64836518,-93.34173616
Louisiana,Bienville,787,12,37,0,2020-12-01,32.34569994,-93.05398492
Louisiana,Bossier,6410,121,156,3,2020-12-01,32.67932307,-93.60460152
Louisiana,Caddo,13539,285,446,0,2020-12-01,32.57991587,-93.88375652
Louisiana,Calcasieu,10730,270,249,3,2020-12-01,30.22931235,-93.35400434
Louisiana,Caldwell,651,11,10,0,2020-12-01,32.0902519,-92.11752148
Louisiana,Cameron,296,10,3,0,2020-12-01,29.87592238,-93.19310676
Louisiana,Catahoula,644,20,18,0,2020-12-01,31.66778967,-91.84526385
Louisiana,Claiborne,755,16,31,0,2020-12-01,32.82308512,-92.99526883
Louisiana,Concordia,1031,43,28,0,2020-12-01,31.44817835,-91.63814433
Louisiana,De Soto,1283,21,39,0,2020-12-01,32.05457447,-93.74130302
Louisiana,East Baton Rouge,20385,517,518,2,2020-12-01,30.53842039,-91.09777565
Louisiana,East Carroll,761,4,9,0,2020-12-01,32.73926954,-91.23425694
Louisiana,East Feliciana,2161,39,84,0,2020-12-01,30.84425359,-91.04976723
Louisiana,Evangeline,1976,53,45,0,2020-12-01,30.72985248,-92.39915924
Louisiana,Franklin,1742,15,64,0,2020-12-01,32.13675181,-91.67589857
Louisiana,Grant,876,51,32,0,2020-12-01,31.59882456,-92.56124347
Louisiana,Iberia,3772,81,107,0,2020-12-01,29.86803617,-91.75871777
Louisiana,Iberville,2050,72,65,0,2020-12-01,30.25734305,-91.3499598
Louisiana,Jackson,1164,15,31,0,2020-12-01,32.30251776,-92.55692092
Louisiana,Jefferson,23160,551,629,0,2020-12-01,29.74075478,-90.11115756
Louisiana,Jefferson Davis,1774,45,51,0,2020-12-01,30.26896765,-92.81210004
Louisiana,Lafayette,12430,317,152,5,2020-12-01,30.2049055,-92.06959876
Louisiana,Lafourche,4852,98,140,0,2020-12-01,29.52470226,-90.40976986
Louisiana,LaSalle,906,16,20,0,2020-12-01,31.67884782,-92.15907765
Louisiana,Lincoln,2577,51,60,1,2020-12-01,32.6003154,-92.6659741
Louisiana,Livingston,6210,269,94,0,2020-12-01,30.44143993,-90.73061664
Louisiana,Madison,1071,14,15,2,2020-12-01,32.36918118,-91.23973355
Louisiana,Morehouse,1440,38,33,2,2020-12-01,32.81686191,-91.80421614
Louisiana,Natchitoches,2088,17,47,1,2020-12-01,31.72321584,-93.09816516
Louisiana,Orleans,16077,239,648,1,2020-12-01,30.06971951,-89.92660315
Louisiana,Ouachita,10160,132,214,2,2020-12-01,32.47645559,-92.15704172
Louisiana,Plaquemines,1180,33,20,1,2020-12-01,29.42245447,-89.60322085
Louisiana,Pointe Coupee,1393,26,49,0,2020-12-01,30.71409502,-91.60209535
Louisiana,Rapides,6425,151,189,1,2020-12-01,31.19778499,-92.52997303
Louisiana,Red River,569,3,26,0,2020-12-01,32.09530039,-93.34213308
Louisiana,Richland,1413,8,29,1,2020-12-01,32.41391005,-91.76634876
Louisiana,Sabine,1522,63,21,0,2020-12-01,31.56388699,-93.55433981
Louisiana,St. Bernard,1853,46,34,0,2020-12-01,29.87761636,-89.51887093
Louisiana,St. Charles,2669,51,70,0,2020-12-01,29.90709658,-90.35555967
Louisiana,St. Helena,515,3,4,0,2020-12-01,30.82210324,-90.71013176
Louisiana,St. James,1002,14,40,0,2020-12-01,30.02531716,-90.80212061
Louisiana,St. John the Baptist,2022,30,116,1,2020-12-01,30.12597499,-90.4753503
Louisiana,St. Landry,5184,146,156,2,2020-12-01,30.59724262,-92.00135806
Louisiana,St. Martin,2796,75,72,1,2020-12-01,30.13112107,-91.61403569
Louisiana,St. Mary,2389,26,95,0,2020-12-01,29.69262097,-91.44702164
Louisiana,St. Tammany,10678,299,294,2,2020-12-01,30.40942847,-89.95642711
Louisiana,Tangipahoa,6834,196,142,0,2020-12-01,30.62888673,-90.40664996
Louisiana,Tensas,221,6,3,0,2020-12-01,32.00760749,-91.32915234
Louisiana,Terrebonne,4592,74,137,1,2020-12-01,29.37343766,-90.82626855
Louisiana,Union,1432,18,57,0,2020-12-01,32.83121059,-92.3749373
Louisiana,Vermilion,2659,73,75,0,2020-12-01,29.83517605,-92.30292538
Louisiana,Vernon,1454,16,65,2,2020-12-01,31.10884837,-93.18153838
Louisiana,Washington,2313,35,79,1,2020-12-01,30.85288548,-90.03866652
Louisiana,Webster,2044,27,56,0,2020-12-01,32.70847669,-93.33121835
Louisiana,West Baton Rouge,1389,58,43,0,2020-12-01,30.46058217,-91.30989571
Louisiana,West Carroll,681,23,20,0,2020-12-01,32.78550125,-91.461201
Louisiana,West Feliciana,793,3,25,0,2020-12-01,30.87882871,-91.4148538
Louisiana,Winn,995,8,26,0,2020-12-01,31.94449367,-92.63789413
Maine,Androscoggin,1593,33,27,10,2020-12-01,44.1664747,-70.20380627
Maine,Aroostook,146,8,1,0,2020-12-01,46.65926321,-68.59841248
Maine,Cumberland,3869,45,71,0,2020-12-01,43.8370751,-70.37226999
Maine,Franklin,223,8,4,0,2020-12-01,44.97330019,-70.44381045
Maine,Hancock,250,2,1,0,2020-12-01,44.59816444,-68.38401854
Maine,Kennebec,818,22,17,1,2020-12-01,44.40759555,-69.76738544
Maine,Knox,208,3,4,1,2020-12-01,44.11486325,-69.10529169
Maine,Lincoln,156,0,2,0,2020-12-01,44.05996956,-69.54227124
Maine,Oxford,350,10,3,1,2020-12-01,44.49952995,-70.75682123
Maine,Penobscot,909,43,12,3,2020-12-01,45.40194593,-68.65020455
Maine,Piscataquis,46,4,1,1,2020-12-01,45.83839062,-69.2860223
Maine,Sagadahoc,156,3,0,0,2020-12-01,43.95415864,-69.85074999
Maine,Somerset,461,10,20,0,2020-12-01,45.51229767,-69.95995554
Maine,Waldo,231,2,16,0,2020-12-01,44.4858305,-69.12061935
Maine,Washington,193,2,2,1,2020-12-01,45.01607142,-67.62813524
Maine,York,2367,29,33,2,2020-12-01,43.47808377,-70.71052375
Maryland,Allegany,3366,198,74,2,2020-12-01,39.62357628,-78.69280486
Maryland,Anne Arundel,16919,177,297,-1,2020-12-01,39.00670238,-76.60329337
Maryland,Baltimore,29645,330,740,5,2020-12-01,39.45784712,-76.62911955
Maryland,Calvert,1611,13,37,0,2020-12-01,38.53961642,-76.56820632
Maryland,Caroline,983,11,10,0,2020-12-01,38.87172293,-75.82904158
Maryland,Carroll,3366,39,138,2,2020-12-01,39.56453592,-77.02373735
Maryland,Cecil,2156,47,42,0,2020-12-01,39.56647682,-75.94627411
Maryland,Charles,4434,43,104,-1,2020-12-01,38.51092331,-76.98580666
Maryland,Dorchester,1021,10,15,0,2020-12-01,38.45413522,-76.02752426
Maryland,Frederick,6949,78,150,0,2020-12-01,39.47296601,-77.39999394
Maryland,Garrett,788,33,6,1,2020-12-01,39.52786077,-79.27355126
Maryland,Harford,6160,61,103,5,2020-12-01,39.55010644,-76.30775940000002
Maryland,Howard,8252,97,148,2,2020-12-01,39.25305293,-76.93126208
Maryland,Kent,466,18,25,0,2020-12-01,39.24976208,-76.04741541
Maryland,Montgomery,33905,505,960,6,2020-12-01,39.13676329,-77.20358245
Maryland,Prince George's,41857,560,936,5,2020-12-01,38.83070039,-76.8496441
Maryland,Queen Anne's,1108,11,27,0,2020-12-01,39.06198912,-76.03530977
Maryland,St. Mary's,2174,21,62,0,2020-12-01,38.30058422,-76.60629279999998
Maryland,Somerset,1061,143,9,0,2020-12-01,38.1163542,-75.75118623
Maryland,Talbot,824,5,7,0,2020-12-01,38.76618159,-76.10882561
Maryland,Washington,4375,94,73,2,2020-12-01,39.60835778,-77.82002295
Maryland,Wicomico,3462,22,59,0,2020-12-01,38.37301947,-75.62705831
Maryland,Worcester,1491,8,38,0,2020-12-01,38.21274277,-75.33200012
Maryland,Baltimore,29645,330,740,5,2020-12-01,39.45784712,-76.62911955
Massachusetts,Barnstable,3129,82,192,0,2020-12-01,41.72980578,-70.28854339
Massachusetts,Berkshire,1645,43,64,1,2020-12-01,42.37428441,-73.20524838
Massachusetts,Bristol,20021,217,862,6,2020-12-01,41.79228404,-71.10872211
Massachusetts,Essex,35205,370,1460,5,2020-12-01,42.6687626,-70.94687179
Massachusetts,Franklin,658,13,76,0,2020-12-01,42.58119713,-72.58602547
Massachusetts,Hampden,16457,314,913,2,2020-12-01,42.13440424,-72.63235561
Massachusetts,Hampshire,2345,23,163,0,2020-12-01,42.33997957,-72.65898478
Massachusetts,Middlesex,46743,513,2430,5,2020-12-01,42.48607732,-71.39049229
Massachusetts,Norfolk,16359,239,1184,2,2020-12-01,42.16073095,-71.20530408
Massachusetts,Plymouth,14890,204,896,3,2020-12-01,41.94070556,-70.80802823
Massachusetts,Suffolk,37318,359,1250,2,2020-12-01,42.3279514,-71.07850442
Massachusetts,Worcester,25146,394,1280,4,2020-12-01,42.35026951,-71.90493363
Michigan,Alcona,198,6,4,1,2020-12-01,44.6846864,-83.59507875
Michigan,Alger,236,8,2,0,2020-12-01,46.41292944,-86.60260122
Michigan,Allegan,4151,86,34,1,2020-12-01,42.59147037,-85.89102866
Michigan,Alpena,719,39,17,0,2020-12-01,45.03477666,-83.62212411
Michigan,Antrim,446,7,6,0,2020-12-01,44.99690221,-85.15503082
Michigan,Arenac,459,13,16,1,2020-12-01,44.0636262,-83.89277559
Michigan,Baraga,484,11,21,6,2020-12-01,46.6720582,-88.36363591
Michigan,Barry,2249,48,14,0,2020-12-01,42.59513984,-85.30834519
Michigan,Bay,4599,64,98,6,2020-12-01,43.70639106,-83.98731479
Michigan,Benzie,445,11,8,2,2020-12-01,44.63899297,-86.01608482
Michigan,Berrien,6893,67,116,1,2020-12-01,41.95447397,-86.41313079999998
Michigan,Branch,2343,42,36,4,2020-12-01,41.91600556,-85.05929476
Michigan,Calhoun,6105,70,123,2,2020-12-01,42.24633834,-85.00493569
Michigan,Cass,2276,37,30,1,2020-12-01,41.91522292,-85.99405727
Michigan,Charlevoix,611,23,7,-1,2020-12-01,45.37790017,-85.19614053
Michigan,Cheboygan,519,22,20,0,2020-12-01,45.44787015,-84.50122149
Michigan,Chippewa,867,36,6,0,2020-12-01,46.29552653,-84.54353449
Michigan,Clare,789,18,26,1,2020-12-01,43.98794227,-84.84819859999998
Michigan,Clinton,2871,83,23,0,2020-12-01,42.94400871,-84.60145248
Michigan,Crawford,362,9,5,0,2020-12-01,44.68255561,-84.61006219
Michigan,Delta,2504,12,60,1,2020-12-01,45.90484910000001,-86.9080745
Michigan,Dickinson,1754,14,46,0,2020-12-01,46.00999672,-87.86961634
Michigan,Eaton,3254,76,44,2,2020-12-01,42.59599185,-84.83740035
Michigan,Emmet,988,14,28,0,2020-12-01,45.52625509,-84.89083249
Michigan,Genesee,15379,222,437,13,2020-12-01,43.02244215,-83.70589709
Michigan,Gladwin,855,20,12,0,2020-12-01,43.98901072,-84.38774817
Michigan,Gogebic,799,12,23,0,2020-12-01,46.40862701,-89.69377193
Michigan,Grand Traverse,1968,12,20,0,2020-12-01,44.69565625,-85.55585247
Michigan,Gratiot,1674,38,31,0,2020-12-01,43.29265605,-84.60505416
Michigan,Hillsdale,1721,27,38,-1,2020-12-01,41.88753639,-84.59312019
Michigan,Houghton,1558,16,13,0,2020-12-01,46.89988536,-88.68495385
Michigan,Huron,827,26,15,0,2020-12-01,43.83353985,-83.04078453
Michigan,Ingham,9323,215,115,6,2020-12-01,42.59716886,-84.37472069
Michigan,Ionia,2485,64,20,5,2020-12-01,42.94502238,-85.07413319
Michigan,Iosco,798,40,26,0,2020-12-01,44.35486835,-83.63484895
Michigan,Iron,730,3,33,0,2020-12-01,46.20974132,-88.53136251
Michigan,Isabella,2568,84,23,2,2020-12-01,43.64060976,-84.84664923
Michigan,Jackson,5351,101,102,0,2020-12-01,42.24807035,-84.42258681
Michigan,Kalamazoo,9718,150,170,4,2020-12-01,42.24542231,-85.53038622
Michigan,Kalkaska,376,5,5,0,2020-12-01,44.68512729,-85.09085699
Michigan,Kent,33957,561,363,9,2020-12-01,43.03197711,-85.54934642
Michigan,Keweenaw,71,3,2,0,2020-12-01,47.63197653,-88.41434263
Michigan,Lake,205,0,5,1,2020-12-01,43.99050893,-85.802173
Michigan,Lapeer,2648,73,54,1,2020-12-01,43.09052506,-83.22153148
Michigan,Leelanau,386,9,3,0,2020-12-01,44.94430054,-85.80150326
Michigan,Lenawee,2690,36,25,2,2020-12-01,41.89475156,-84.06603727
Michigan,Livingston,5831,140,50,3,2020-12-01,42.60302282,-83.91297209
Michigan,Luce,168,0,0,0,2020-12-01,46.47227431,-85.54471223
Michigan,Mackinac,296,5,1,1,2020-12-01,46.07028979,-85.04980537
Michigan,Macomb,38354,648,1291,13,2020-12-01,42.69158356,-82.92752801
Michigan,Manistee,385,4,6,1,2020-12-01,44.33352407,-86.05626916
Michigan,Marquette,2945,70,31,0,2020-12-01,46.4338914,-87.64043701
Michigan,Mason,617,8,12,1,2020-12-01,43.99509218,-86.24988902
Michigan,Mecosta,1277,16,8,0,2020-12-01,43.64064262,-85.32463223
Michigan,Menominee,1352,24,18,0,2020-12-01,45.58038692,-87.55370409
Michigan,Midland,3097,53,28,1,2020-12-01,43.64330771,-84.38804374
Michigan,Missaukee,296,3,5,0,2020-12-01,44.33772443,-85.09256478
Michigan,Monroe,5530,127,86,5,2020-12-01,41.92734151,-83.53749864
Michigan,Montcalm,2052,34,25,0,2020-12-01,43.31082541,-85.15252824
Michigan,Montmorency,196,12,2,0,2020-12-01,45.0275929,-84.12696227
Michigan,Muskegon,7557,95,184,14,2020-12-01,43.29123859,-86.15176712
Michigan,Newaygo,1649,19,17,0,2020-12-01,43.554374,-85.80070107
Michigan,Oakland,47475,601,1367,3,2020-12-01,42.66090111,-83.38595416
Michigan,Oceana,1219,8,21,5,2020-12-01,43.64124435,-86.26726673
Michigan,Ogemaw,551,18,16,2,2020-12-01,44.33481032,-84.12725175
Michigan,Ontonagon,280,5,14,0,2020-12-01,46.665226200000006,-89.31390481
Michigan,Osceola,559,14,10,2,2020-12-01,43.98992088,-85.32566756
Michigan,Oscoda,190,12,8,4,2020-12-01,44.68192279,-84.12939244
Michigan,Otsego,764,7,18,2,2020-12-01,45.02085831,-84.59898295
Michigan,Ottawa,14114,215,163,5,2020-12-01,42.95996803,-85.9969107
Michigan,Presque Isle,293,9,4,0,2020-12-01,45.34018577,-83.91498656
Michigan,Roscommon,656,15,15,0,2020-12-01,44.33473082,-84.61067651
Michigan,Saginaw,8788,156,245,17,2020-12-01,43.33433923,-84.05131209999998
Michigan,St. Clair,4732,197,100,17,2020-12-01,42.92655373,-82.67937954
Michigan,St. Joseph,2652,35,35,2,2020-12-01,41.91441767,-85.52797979
Michigan,Sanilac,863,47,17,1,2020-12-01,43.42406072,-82.82055898
Michigan,Schoolcraft,175,-1,2,0,2020-12-01,46.19235734,-86.19972234
Michigan,Shiawassee,2053,45,44,2,2020-12-01,42.95392800000001,-84.14585902
Michigan,Tuscola,1796,59,57,3,2020-12-01,43.46606813,-83.41897025
Michigan,Van Buren,2955,71,47,3,2020-12-01,42.25190229,-86.01939087
Michigan,Washtenaw,10474,339,135,1,2020-12-01,42.253105,-83.83853204
Michigan,Wayne,65852,732,3237,15,2020-12-01,42.28098405,-83.281255
Michigan,Wexford,679,16,15,2,2020-12-01,44.33853602,-85.57712739
Minnesota,Aitkin,788,10,30,0,2020-12-01,46.60962049,-93.4116826
Minnesota,Anoka,22841,258,228,0,2020-12-01,45.27476015,-93.24604565
Minnesota,Becker,2116,22,16,0,2020-12-01,46.93479392,-95.67158144
Minnesota,Beltrami,2235,43,18,0,2020-12-01,47.97373527,-94.93732139
Minnesota,Benton,3088,31,51,0,2020-12-01,45.69804958,-93.99514135
Minnesota,Big Stone,328,4,2,0,2020-12-01,45.42712824,-96.41403739
Minnesota,Blue Earth,4213,33,16,0,2020-12-01,44.03554215,-94.06699781
Minnesota,Brown,1472,15,15,0,2020-12-01,44.24205652,-94.72562874
Minnesota,Carlton,1935,22,16,0,2020-12-01,46.59180601,-92.67601019
Minnesota,Carver,4927,65,15,0,2020-12-01,44.82017001,-93.8009918
Minnesota,Cass,1480,20,10,0,2020-12-01,46.95043611,-94.32603968
Minnesota,Chippewa,934,20,7,0,2020-12-01,45.02343421,-95.56403693
Minnesota,Chisago,3204,48,13,1,2020-12-01,45.5021011,-92.90861945
Minnesota,Clay,5141,52,57,0,2020-12-01,46.89289518,-96.48761922
Minnesota,Clearwater,534,8,8,0,2020-12-01,47.57992111,-95.37790562
Minnesota,Cook,78,1,0,0,2020-12-01,47.90504893,-90.52629546
Minnesota,Cottonwood,908,12,4,0,2020-12-01,44.00715262,-95.18138802
Minnesota,Crow Wing,3712,72,34,0,2020-12-01,46.48096553,-94.06755609
Minnesota,Dakota,22657,243,192,2,2020-12-01,44.67172617,-93.06299363
Minnesota,Dodge,888,18,0,0,2020-12-01,44.02238415,-92.86244324
Minnesota,Douglas,2716,48,38,1,2020-12-01,45.93348491,-95.45335469
Minnesota,Faribault,580,7,2,0,2020-12-01,43.67381499,-93.94787458
Minnesota,Fillmore,732,8,0,0,2020-12-01,43.67394126,-92.08980382
Minnesota,Freeborn,1564,10,6,0,2020-12-01,43.67385583,-93.34884422
Minnesota,Goodhue,2123,39,28,0,2020-12-01,44.40849741,-92.7234195
Minnesota,Grant,288,8,6,0,2020-12-01,45.93424769,-96.01139609
Minnesota,Hennepin,67913,577,1121,5,2020-12-01,45.00761521,-93.47694895
Minnesota,Houston,734,21,4,0,2020-12-01,43.67129565,-91.49143057
Minnesota,Hubbard,1171,14,27,2,2020-12-01,47.10778564,-94.91693868
Minnesota,Isanti,1963,21,17,0,2020-12-01,45.56181234,-93.29487636
Minnesota,Itasca,1971,32,23,0,2020-12-01,47.51009045,-93.63092229
Minnesota,Jackson,506,10,1,0,2020-12-01,43.67423373,-95.15398258
Minnesota,Kanabec,658,31,13,0,2020-12-01,45.9459309,-93.29275192
Minnesota,Kandiyohi,4285,80,23,1,2020-12-01,45.1526059,-95.00586446
Minnesota,Kittson,233,4,8,0,2020-12-01,48.77754106,-96.78317184
Minnesota,Koochiching,405,6,6,0,2020-12-01,48.24539665,-93.78352843
Minnesota,Lac qui Parle,396,10,3,0,2020-12-01,44.9973857,-96.17488219
Minnesota,Lake,433,1,6,0,2020-12-01,47.64270764,-91.44557998
Minnesota,Lake of the Woods,102,1,1,0,2020-12-01,48.77217001,-94.90274472
Minnesota,Le Sueur,1501,13,11,0,2020-12-01,44.37136597,-93.72844721
Minnesota,Lincoln,368,3,1,0,2020-12-01,44.41311883,-96.26688165
Minnesota,Lyon,2246,16,11,0,2020-12-01,44.41327865,-95.83806103
Minnesota,McLeod,2213,34,15,1,2020-12-01,44.82367677,-94.27287017
Minnesota,Mahnomen,307,3,4,0,2020-12-01,47.32557075,-95.80921485
Minnesota,Marshall,514,9,9,0,2020-12-01,48.35825983,-96.37017407
Minnesota,Martin,1194,20,20,0,2020-12-01,43.67429718,-94.55099908
Minnesota,Meeker,1356,28,10,1,2020-12-01,45.12328869,-94.52839455
Minnesota,Mille Lacs,1588,18,31,0,2020-12-01,45.93705297,-93.63236823
Minnesota,Morrison,2378,40,29,0,2020-12-01,46.01265363,-94.27341528
Minnesota,Mower,2674,16,23,0,2020-12-01,43.67142874,-92.75234549
Minnesota,Murray,601,6,3,0,2020-12-01,44.02216709,-95.76328482
Minnesota,Nicollet,1655,15,26,0,2020-12-01,44.35291112,-94.24710352
Minnesota,Nobles,3117,18,30,0,2020-12-01,43.67434621,-95.75329576
Minnesota,Norman,357,4,7,0,2020-12-01,47.32628443,-96.45620947
Minnesota,Olmsted,6905,94,34,0,2020-12-01,44.00374114,-92.40209944
Minnesota,Otter Tail,3263,46,23,0,2020-12-01,46.40846929,-95.70835255
Minnesota,Pennington,669,6,8,0,2020-12-01,48.06642577,-96.0370814
Minnesota,Pine,1416,21,8,0,2020-12-01,46.12105238,-92.74070188
Minnesota,Pipestone,743,2,18,0,2020-12-01,44.02301619,-96.25841142
Minnesota,Polk,2635,23,25,1,2020-12-01,47.77372465,-96.40134647
Minnesota,Pope,557,4,1,0,2020-12-01,45.58606667,-95.44451209
Minnesota,Ramsey,28517,261,507,2,2020-12-01,45.01625271,-93.09872295
Minnesota,Red Lake,222,6,3,0,2020-12-01,47.87197525,-96.09561104
Minnesota,Redwood,996,17,19,0,2020-12-01,44.40555844,-95.25207021
Minnesota,Renville,913,18,29,0,2020-12-01,44.72836381,-94.94553734
Minnesota,Rice,4229,37,37,0,2020-12-01,44.3543376,-93.29658715
Minnesota,Rock,793,5,9,0,2020-12-01,43.67482683,-96.25296832
Minnesota,Roseau,1223,4,4,0,2020-12-01,48.77501878,-95.81079919
Minnesota,St. Louis,9086,95,112,0,2020-12-01,47.6048407,-92.46879855
Minnesota,Scott,8667,70,55,0,2020-12-01,44.6490231,-93.53340251
Minnesota,Sherburne,6082,67,43,2,2020-12-01,45.44447208,-93.77617511
Minnesota,Sibley,809,9,4,0,2020-12-01,44.5796592,-94.23164924
Minnesota,Stearns,14131,155,117,0,2020-12-01,45.55192576,-94.61078221
Minnesota,Steele,2022,31,7,0,2020-12-01,44.02240351,-93.22627088
Minnesota,Stevens,530,6,3,0,2020-12-01,45.58613007,-96.00163705
Minnesota,Swift,606,7,8,0,2020-12-01,45.2829032,-95.68264092
Minnesota,Todd,1852,27,14,0,2020-12-01,46.06996226,-94.89785296
Minnesota,Traverse,150,1,1,0,2020-12-01,45.77298854,-96.47062949
Minnesota,Wabasha,1087,9,1,0,2020-12-01,44.28424356,-92.23121312
Minnesota,Wadena,831,16,6,0,2020-12-01,46.58589171,-94.96968506
Minnesota,Waseca,1406,8,11,0,2020-12-01,44.02211116,-93.58720034
Minnesota,Washington,14370,163,117,1,2020-12-01,45.03864533,-92.88429635
Minnesota,Watonwan,871,8,4,0,2020-12-01,43.97823903,-94.61413846
Minnesota,Wilkin,400,8,5,0,2020-12-01,46.35721532,-96.4684375
Minnesota,Winona,2881,33,31,1,2020-12-01,43.98772283,-91.78081305
Minnesota,Wright,8066,111,44,1,2020-12-01,45.17297924,-93.96234781
Minnesota,Yellow Medicine,668,3,12,0,2020-12-01,44.71710183,-95.86842453
Mississippi,Adams,1447,3,52,1,2020-12-01,31.47669768,-91.35326037
Mississippi,Alcorn,1556,8,28,0,2020-12-01,34.88084463,-88.57996173
Mississippi,Amite,566,8,15,1,2020-12-01,31.17467303,-90.80501621
Mississippi,Attala,1193,18,34,0,2020-12-01,33.08658803,-89.57838564
Mississippi,Benton,500,1,18,0,2020-12-01,34.81681228,-89.18945516
Mississippi,Bolivar,2443,14,84,0,2020-12-01,33.79696941,-90.87372121
Mississippi,Calhoun,787,6,13,0,2020-12-01,33.93683395,-89.33686647
Mississippi,Carroll,741,1,15,0,2020-12-01,33.44834567,-89.91994479
Mississippi,Chickasaw,1094,4,32,0,2020-12-01,33.91983202,-88.9481545
Mississippi,Choctaw,361,11,7,0,2020-12-01,33.34598242,-89.24809382
Mississippi,Claiborne,589,0,16,0,2020-12-01,31.97061673,-90.90702196
Mississippi,Clarke,936,6,53,0,2020-12-01,32.04158545,-88.68896219999998
Mississippi,Clay,947,13,27,0,2020-12-01,33.65358105,-88.77784255
Mississippi,Coahoma,1527,8,43,0,2020-12-01,34.22772299,-90.60415045
Mississippi,Copiah,1679,9,40,0,2020-12-01,31.86977774,-90.44565118
Mississippi,Covington,1286,7,39,0,2020-12-01,31.63225413,-89.55389939
Mississippi,DeSoto,10409,77,104,0,2020-12-01,34.87625235,-89.99091418
Mississippi,Forrest,3897,15,86,0,2020-12-01,31.18961454,-89.25832496
Mississippi,Franklin,355,2,5,0,2020-12-01,31.47786634,-90.89672989
Mississippi,George,1283,19,25,0,2020-12-01,30.86259065,-88.64436789
Mississippi,Greene,615,3,22,0,2020-12-01,31.21444233,-88.63922281
Mississippi,Grenada,1433,5,45,0,2020-12-01,33.77036166,-89.80245083
Mississippi,Hancock,1243,7,41,1,2020-12-01,30.41830223,-89.48851033
Mississippi,Harrison,7313,69,112,1,2020-12-01,30.51359752,-89.12467576
Mississippi,Hinds,10279,89,202,3,2020-12-01,32.2656285,-90.44435448
Mississippi,Holmes,1334,11,61,0,2020-12-01,33.12345854,-90.08923538
Mississippi,Humphreys,547,0,19,0,2020-12-01,33.12825718,-90.52252707
Mississippi,Issaquena,120,0,4,0,2020-12-01,32.72531359,-90.97392828
Mississippi,Itawamba,1576,15,35,0,2020-12-01,34.27993475,-88.3606733
Mississippi,Jackson,6566,45,128,4,2020-12-01,30.54020656,-88.64184064
Mississippi,Jasper,852,4,23,1,2020-12-01,32.01922104,-89.11786866
Mississippi,Jefferson,371,7,12,1,2020-12-01,31.73397872,-91.03764977
Mississippi,Jefferson Davis,590,2,17,0,2020-12-01,31.56884708,-89.82670990000003
Mississippi,Jones,3690,13,88,0,2020-12-01,31.62257767,-89.16896899999998
Mississippi,Kemper,450,3,18,0,2020-12-01,32.75462946,-88.64105766
Mississippi,Lafayette,3382,33,53,1,2020-12-01,34.35687874,-89.48490961
Mississippi,Lamar,2978,12,50,0,2020-12-01,31.20572971,-89.5077704
Mississippi,Lauderdale,3594,19,147,0,2020-12-01,32.40419769,-88.66229662
Mississippi,Lawrence,738,4,14,0,2020-12-01,31.55147224,-90.10841127
Mississippi,Leake,1397,3,44,0,2020-12-01,32.7536828,-89.52402044
Mississippi,Lee,5294,58,96,1,2020-12-01,34.291877500000005,-88.68149954
Mississippi,Leflore,2085,8,91,0,2020-12-01,33.55545125,-90.29900733
Mississippi,Lincoln,1973,25,66,1,2020-12-01,31.53288662,-90.45391915
Mississippi,Lowndes,2470,32,64,0,2020-12-01,33.47386518,-88.44191529999998
Mississippi,Madison,5014,50,107,0,2020-12-01,32.63389156,-90.03513564
Mississippi,Marion,1194,8,46,0,2020-12-01,31.23132643,-89.8209217
Mississippi,Marshall,2228,16,51,1,2020-12-01,34.76216286,-89.50299462
Mississippi,Monroe,2067,28,78,0,2020-12-01,33.89236763,-88.4808438
Mississippi,Montgomery,769,11,26,1,2020-12-01,33.49419589,-89.61729103
Mississippi,Neshoba,2249,8,121,3,2020-12-01,32.75339664,-89.11726492
Mississippi,Newton,1082,2,29,0,2020-12-01,32.40021118,-89.11843336
Mississippi,Noxubee,727,2,17,0,2020-12-01,33.11009499,-88.56949061
Mississippi,Oktibbeha,2523,10,62,0,2020-12-01,33.42491685,-88.87905132
Mississippi,Panola,2326,30,53,0,2020-12-01,34.36398677,-89.95064249
Mississippi,Pearl River,1553,12,68,0,2020-12-01,30.77090935,-89.58677275
Mississippi,Perry,683,2,26,0,2020-12-01,31.17161885,-88.99281835
Mississippi,Pike,1653,6,59,1,2020-12-01,31.17507789,-90.40392572
Mississippi,Pontotoc,2042,13,31,2,2020-12-01,34.226046000000004,-89.03636807
Mississippi,Prentiss,1513,18,31,0,2020-12-01,34.61810501,-88.51986294
Mississippi,Quitman,500,3,7,0,2020-12-01,34.25157572,-90.28908
Mississippi,Rankin,5887,82,106,3,2020-12-01,32.26469147,-89.94537876
Mississippi,Scott,1594,15,30,0,2020-12-01,32.406704100000006,-89.53789439
Mississippi,Sharkey,324,1,17,0,2020-12-01,32.88149103,-90.8159538
Mississippi,Simpson,1526,7,53,0,2020-12-01,31.91282117,-89.91716179
Mississippi,Smith,732,4,16,0,2020-12-01,32.01744532,-89.50644846
Mississippi,Stone,806,6,15,0,2020-12-01,30.79187949,-89.11547539
Mississippi,Sunflower,1926,1,55,0,2020-12-01,33.60192578,-90.58882684
Mississippi,Tallahatchie,981,4,27,0,2020-12-01,33.95339918,-90.1729398
Mississippi,Tate,1777,7,51,0,2020-12-01,34.65133709,-89.94485778
Mississippi,Tippah,1284,4,30,0,2020-12-01,34.76872156,-88.90988194
Mississippi,Tishomingo,1124,16,43,1,2020-12-01,34.74023475,-88.23917219
Mississippi,Tunica,626,3,19,0,2020-12-01,34.64967704,-90.37481167
Mississippi,Union,1719,9,26,0,2020-12-01,34.49162015,-89.00776006
Mississippi,Walthall,776,4,29,0,2020-12-01,31.14971548,-90.10446654
Mississippi,Warren,1802,15,58,1,2020-12-01,32.35810271,-90.83352619
Mississippi,Washington,3246,5,108,0,2020-12-01,33.28392041,-90.94196237
Mississippi,Wayne,1213,7,23,0,2020-12-01,31.64135687,-88.69573913
Mississippi,Webster,467,3,14,0,2020-12-01,33.61300486,-89.28392912
Mississippi,Wilkinson,405,1,22,0,2020-12-01,31.16078225,-91.31018819
Mississippi,Winston,1255,10,26,0,2020-12-01,33.08747908,-89.03391385
Mississippi,Yalobusha,731,8,28,0,2020-12-01,34.02824175,-89.70762049999998
Mississippi,Yazoo,1601,13,40,0,2020-12-01,32.77890365,-90.39656148
Missouri,Adair,1096,8,3,0,2020-12-01,40.19058551,-92.60078167
Missouri,Andrew,831,11,10,1,2020-12-01,39.98492163,-94.80163024
Missouri,Atchison,214,1,3,0,2020-12-01,40.43238737,-95.42970639
Missouri,Audrain,1109,6,14,1,2020-12-01,39.215877,-91.84242683
Missouri,Barry,1472,11,27,2,2020-12-01,36.70978521,-93.82919888
Missouri,Barton,634,2,5,1,2020-12-01,37.50207671,-94.34757022
Missouri,Bates,555,1,9,0,2020-12-01,38.25271289,-94.34113157
Missouri,Benton,779,1,9,1,2020-12-01,38.29503305,-93.28756116
Missouri,Bollinger,807,3,8,0,2020-12-01,37.32449052,-90.02725304
Missouri,Boone,10389,40,25,2,2020-12-01,38.99186229,-92.30723575
Missouri,Buchanan,4807,50,63,6,2020-12-01,39.65816401,-94.80138942
Missouri,Butler,2209,30,9,0,2020-12-01,36.71462476,-90.40421163
Missouri,Caldwell,403,4,3,1,2020-12-01,39.65620858,-93.98308093
Missouri,Callaway,2877,20,11,3,2020-12-01,38.83674754,-91.92186505
Missouri,Camden,2488,16,47,2,2020-12-01,38.02199522,-92.76083747
Missouri,Cape Girardeau,5153,55,65,0,2020-12-01,37.38489388,-89.6843587
Missouri,Carroll,442,1,6,0,2020-12-01,39.42762566,-93.50626255
Missouri,Carter,297,1,6,1,2020-12-01,36.94160441,-90.96051322
Missouri,Cass,3869,54,40,1,2020-12-01,38.64789422,-94.353399
Missouri,Cedar,447,0,7,1,2020-12-01,37.72391475,-93.85445441
Missouri,Chariton,243,1,0,0,2020-12-01,39.51499357,-92.9629191
Missouri,Christian,3882,29,24,1,2020-12-01,36.9711783,-93.18537118
Missouri,Clark,303,2,4,0,2020-12-01,40.41040752,-91.73661677
Missouri,Clay,4717,47,73,4,2020-12-01,39.31132056,-94.41850862
Missouri,Clinton,904,9,46,1,2020-12-01,39.6013098,-94.40465394
Missouri,Cole,6280,23,60,11,2020-12-01,38.50455671,-92.27860244
Missouri,Cooper,1173,3,8,1,2020-12-01,38.844478,-92.80896081
Missouri,Crawford,1217,12,14,2,2020-12-01,37.97663738,-91.30528104
Missouri,Dade,294,4,8,2,2020-12-01,37.431814,-93.8503345
Missouri,Dallas,606,2,10,1,2020-12-01,37.6811355,-93.02127031
Missouri,Daviess,343,8,8,0,2020-12-01,39.96145298,-93.98519678
Missouri,DeKalb,605,5,13,3,2020-12-01,39.89201062,-94.40476508
Missouri,Dent,528,6,4,0,2020-12-01,37.60663134,-91.50790473
Missouri,Douglas,447,5,15,0,2020-12-01,36.9325593,-92.49905109
Missouri,Dunklin,1720,12,14,0,2020-12-01,36.27167174,-90.09122243
Missouri,Franklin,4930,44,83,11,2020-12-01,38.41127108,-91.07522826
Missouri,Gasconade,492,5,24,0,2020-12-01,38.43947277,-91.50847147
Missouri,Gentry,421,1,13,2,2020-12-01,40.21097916,-94.40944419
Missouri,Greene,14166,95,182,7,2020-12-01,37.2575872,-93.34230916
Missouri,Grundy,511,1,14,0,2020-12-01,40.11406587,-93.56509276
Missouri,Harrison,404,7,3,1,2020-12-01,40.35570088,-93.99222144
Missouri,Henry,1112,10,11,1,2020-12-01,38.38482826,-93.79293734
Missouri,Hickory,374,7,6,0,2020-12-01,37.94163617,-93.3203037
Missouri,Holt,270,0,3,0,2020-12-01,40.09799248,-95.2163888
Missouri,Howard,511,1,2,0,2020-12-01,39.1435761,-92.69756691
Missouri,Howell,1602,5,29,1,2020-12-01,36.77383887,-91.88683935
Missouri,Iron,237,3,1,1,2020-12-01,37.55487945,-90.7735296
Missouri,Jackson,17660,281,183,2,2020-12-01,39.01002188,-94.34724536
Missouri,Jasper,8308,42,116,10,2020-12-01,37.20351921,-94.34050458
Missouri,Jefferson,11320,166,108,5,2020-12-01,38.25926778,-90.53870896
Missouri,Johnson,2568,21,16,1,2020-12-01,38.74719601,-93.80691168
Missouri,Knox,135,2,1,0,2020-12-01,40.12699751,-92.14780832
Missouri,Laclede,1842,23,32,2,2020-12-01,37.65896829,-92.5888493
Missouri,Lafayette,1566,12,29,0,2020-12-01,39.06986886,-93.78076396
Missouri,Lawrence,1956,24,39,2,2020-12-01,37.10626634,-93.83293097
Missouri,Lewis,431,1,2,0,2020-12-01,40.09673161,-91.72070156
Missouri,Lincoln,2509,33,13,4,2020-12-01,39.05345619,-90.95588181
Missouri,Linn,326,3,11,2,2020-12-01,39.87001769,-93.10704106
Missouri,Livingston,789,4,15,1,2020-12-01,39.78110272,-93.54645978
Missouri,McDonald,1408,1,16,0,2020-12-01,36.62869595,-94.34867205
Missouri,Macon,693,6,3,0,2020-12-01,39.83049768,-92.56453089
Missouri,Madison,908,12,9,2,2020-12-01,37.47865134,-90.3467143
Missouri,Maries,373,4,4,1,2020-12-01,38.16193985,-91.92249662
Missouri,Marion,1818,21,18,2,2020-12-01,39.80601912,-91.62203062
Missouri,Mercer,88,1,1,0,2020-12-01,40.42212303,-93.5682959
Missouri,Miller,1519,10,26,2,2020-12-01,38.21450288,-92.42610898
Missouri,Mississippi,891,7,7,0,2020-12-01,36.82516239,-89.29505753
Missouri,Moniteau,1244,3,15,0,2020-12-01,38.63571781,-92.57976951
Missouri,Monroe,397,2,3,0,2020-12-01,39.49593978,-92.00043978
Missouri,Montgomery,352,3,6,1,2020-12-01,38.94022054,-91.47000721
Missouri,Morgan,1085,6,12,0,2020-12-01,38.4181765,-92.88791859
Missouri,New Madrid,1377,6,24,1,2020-12-01,36.59666326,-89.66070007
Missouri,Newton,2990,5,38,0,2020-12-01,36.90519407,-94.3394104
Missouri,Nodaway,2013,7,13,0,2020-12-01,40.36079813,-94.88133008
Missouri,Oregon,386,2,1,1,2020-12-01,36.68710164,-91.4033755
Missouri,Osage,952,5,4,1,2020-12-01,38.46036182,-91.8613635
Missouri,Ozark,297,0,2,0,2020-12-01,36.64916339,-92.44459066
Missouri,Pemiscot,1103,8,17,1,2020-12-01,36.2130572,-89.78742322
Missouri,Perry,1566,6,12,0,2020-12-01,37.70660776,-89.82741088
Missouri,Pettis,2693,4,36,4,2020-12-01,38.72798918,-93.28471706
Missouri,Phelps,1820,23,48,6,2020-12-01,37.87736118,-91.79351727
Missouri,Pike,940,6,9,1,2020-12-01,39.34310674,-91.16980779
Missouri,Platte,1722,32,17,0,2020-12-01,39.38154439,-94.77068479
